# 
# Header Description:
# 
# Version: v2.0.0.1 Platform: 9 Manufacturer: samsung Model: SM-G960U
# 
# Raw,ElapsedRealtimeMillis,TimeNanos,LeapSecond,TimeUncertaintyNanos,FullBiasNanos,BiasNanos,BiasUncertaintyNanos,DriftNanosPerSecond,DriftUncertaintyNanosPerSecond,HardwareClockDiscontinuityCount,Svid,TimeOffsetNanos,State,ReceivedSvTimeNanos,ReceivedSvTimeUncertaintyNanos,Cn0DbHz,PseudorangeRateMetersPerSecond,PseudorangeRateUncertaintyMetersPerSecond,AccumulatedDeltaRangeState,AccumulatedDeltaRangeMeters,AccumulatedDeltaRangeUncertaintyMeters,CarrierFrequencyHz,CarrierCycles,CarrierPhase,CarrierPhaseUncertainty,MultipathIndicator,SnrInDb,ConstellationType,AgcDb,CarrierFrequencyHz
# 
# Fix,Provider,Latitude,Longitude,Altitude,Speed,Accuracy,(UTC)TimeInMs
# 
# Nav,Svid,Type,Status,MessageId,Sub-messageId,Data(Bytes)
# 
NMEA,$AIDSTAT,0,0,0,2,-7,23,3*00
,1646708570925
Raw,1423533,1110070000000,,,-1330742678359872870,0.016684532165527344,29.096983780618757,2.630424514922313,9.612205322085982,2,14,0.0,207,21770359781613,7,37.2,-135.33331298828125,0.2190999984741211,0,0.0,0.0,,,,,0,,3,0.0,
Raw,1423533,1110070000000,,,-1330742678359872870,0.016684532165527344,29.096983780618757,2.630424514922313,9.612205322085982,2,22,0.0,207,21770351167920,35,22.2,494.7576904296875,1.003000020980835,0,0.0,0.0,,,,,0,,3,0.0,
Raw,1423534,1110070000000,,,-1330742678359872870,0.016684532165527344,29.096983780618757,2.630424514922313,9.612205322085982,2,13,0.0,207,21770359342844,21,26.7,617.0951538085938,0.30970001220703125,0,0.0,0.0,,,,,0,,3,0.0,
Raw,1423534,1110070000000,,,-1330742678359872870,0.016684532165527344,29.096983780618757,2.630424514922313,9.612205322085982,2,15,0.0,207,21770349156789,93,15.7,-662.3037109375,1.5700000524520874,0,0.0,0.0,,,,,0,,3,0.0,
Raw,1423534,1110070000000,,,-1330742678359872870,0.016684532165527344,29.096983780618757,2.630424514922313,9.612205322085982,2,1,0.0,207,21770353599758,12,32.0,-760.0595703125,0.24340000748634338,0,0.0,0.0,,,,,0,,3,0.0,
Raw,1423534,1110070000000,,,-1330742678359872870,0.016684532165527344,29.096983780618757,2.630424514922313,9.612205322085982,2,24,0.0,207,21770359842444,9,35.2,-283.3792724609375,0.2501000165939331,0,0.0,0.0,,,,,0,,3,0.0,
Raw,1423534,1110070000000,,,-1330742678359872870,0.016684532165527344,29.096983780618757,2.630424514922313,9.612205322085982,2,23,0.0,207,21770362466285,8,36.1,122.66917419433594,0.22420001029968262,0,0.0,0.0,,,,,0,,3,0.0,
Raw,1423534,1110070000000,,,-1330742678359872870,0.016684532165527344,29.096983780618757,2.630424514922313,9.612205322085982,2,7,0.0,207,21770354935712,6,38.2,253.85601806640625,0.241100013256073,0,0.0,0.0,,,,,0,,3,0.0,
Raw,1423535,1110070000000,,,-1330742678359872870,0.016684532165527344,29.096983780618757,2.630424514922313,9.612205322085982,2,8,0.0,207,21770358447327,7,37.6,-364.778076171875,0.2476000040769577,0,0.0,0.0,,,,,0,,3,0.0,
Raw,1423535,1110070000000,,,-1330742678359872870,0.016684532165527344,29.096983780618757,2.630424514922313,9.612205322085982,2,2,0.0,15,183788350760381,9,35.9,462.5031433105469,0.03660000115633011,0,0.0,0.0,,,,,0,,1,0.0,
Raw,1423535,1110070000000,,,-1330742678359872870,0.016684532165527344,29.096983780618757,2.630424514922313,9.612205322085982,2,5,0.0,15,183788360856813,7,37.4,-1.6408215761184692,0.020600000396370888,0,0.0,0.0,,,,,0,,1,0.0,
Raw,1423535,1110070000000,,,-1330742678359872870,0.016684532165527344,29.096983780618757,2.630424514922313,9.612205322085982,2,12,0.0,15,183788354013902,6,39.6,665.2740478515625,0.0406000018119812,0,0.0,0.0,,,,,0,,1,0.0,
Raw,1423535,1110070000000,,,-1330742678359872870,0.016684532165527344,29.096983780618757,2.630424514922313,9.612205322085982,2,18,0.0,15,183788355413109,8,36.4,-429.11279296875,0.04370000213384628,0,0.0,0.0,,,,,0,,1,0.0,
Raw,1423535,1110070000000,,,-1330742678359872870,0.016684532165527344,29.096983780618757,2.630424514922313,9.612205322085982,2,20,0.0,15,183788357431393,7,37.9,356.31890869140625,0.04610000178217888,0,0.0,0.0,,,,,0,,1,0.0,
Raw,1423535,1110070000000,,,-1330742678359872870,0.016684532165527344,29.096983780618757,2.630424514922313,9.612205322085982,2,25,0.0,15,183788360673609,8,36.9,340.6876220703125,0.02120000123977661,0,0.0,0.0,,,,,0,,1,0.0,
Raw,1423536,1110070000000,,,-1330742678359872870,0.016684532165527344,29.096983780618757,2.630424514922313,9.612205322085982,2,26,0.0,15,183788348362745,27,24.0,-579.8723754882812,0.8314999938011169,0,0.0,0.0,,,,,0,,1,0.0,
Raw,1423536,1110070000000,,,-1330742678359872870,0.016684532165527344,29.096983780618757,2.630424514922313,9.612205322085982,2,29,0.0,15,183788360276558,8,36.2,-222.01190185546875,0.02120000123977661,0,0.0,0.0,,,,,0,,1,0.0,
Raw,1423536,1110070000000,,,-1330742678359872870,0.016684532165527344,29.096983780618757,2.630424514922313,9.612205322085982,2,31,0.0,15,183788347655882,14,30.2,258.0907897949219,0.03629999980330467,0,0.0,0.0,,,,,0,,1,0.0,
Fix,gps,37.427500,-122.170289,-8.841980,0.000000,3.216000,1646708571000
NMEA,$GPGSV,3,1,11,02,28,053,36,05,60,095,37,12,33,163,40,18,34,253,36,1*6A
,1646708570998
NMEA,$GPGSV,3,2,11,20,42,056,38,25,61,208,37,26,10,319,24,29,61,334,36,1*62
,1646708570998
NMEA,$GPGSV,3,3,11,31,12,281,30,15,03,150,,23,02,201,,1*5E
,1646708570999
NMEA,$GLGSV,3,1,10,78,38,298,37,86,11,066,22,77,37,220,27,79,04,337,16,1*7D
,1646708570999
NMEA,$GLGSV,3,2,10,65,16,147,32,88,38,299,35,87,51,008,36,71,21,043,38,1*7F
,1646708570999
NMEA,$GLGSV,3,3,10,72,33,097,38,76,04,184,,1*71
,1646708570999
NMEA,$GAGSV,1,1,0,7*43
,1646708570999
NMEA,$PQGSV,1,1,0,0*43
,1646708570999
NMEA,$GBGSV,1,1,0,0*47
,1646708571000
NMEA,$GNGSA,A,3,02,05,12,18,20,25,26,29,31,,,,1.0,0.6,0.8,1*3B
,1646708571010
NMEA,$GNGSA,A,3,65,71,72,77,78,87,88,,,,,,1.0,0.6,0.8,2*3D
,1646708571010
NMEA,$GNVTG,,T,,M,0.0,N,0.0,K,A*3D
,1646708571010
NMEA,$GNGGA,030251.00,3725.649987,N,12210.217361,W,1,12,0.6,19.1,M,-27.9,M,,*76
,1646708571010
NMEA,$GNRMC,030251.00,A,3725.649987,N,12210.217361,W,0.0,,080322,15.0,E,A,V*59
,1646708571010
NMEA,$AIDSTAT,0,0,0,2,,23,3*00
,1646708571924
Raw,1424515,1111070000000,,,-1330742678359872862,0.4805440902709961,28.087397367926314,5.256489311593692,9.611748832068464,2,14,0.0,207,21771359782083,10,34.3,-134.82493591308594,0.22060000896453857,0,0.0,0.0,,,,,0,,3,0.0,
Raw,1424515,1111070000000,,,-1330742678359872862,0.4805440902709961,28.087397367926314,5.256489311593692,9.611748832068464,2,22,0.0,207,21771351166270,43,22.2,494.7576904296875,2.503000020980835,0,0.0,0.0,,,,,0,,3,0.0,
Raw,1424516,1111070000000,,,-1330742678359872862,0.4805440902709961,28.087397367926314,5.256489311593692,9.611748832068464,2,13,0.0,207,21771359340853,24,25.7,617.5133056640625,0.580299973487854,0,0.0,0.0,,,,,0,,3,0.0,
Raw,1424516,1111070000000,,,-1330742678359872862,0.4805440902709961,28.087397367926314,5.256489311593692,9.611748832068464,2,15,0.0,207,21771349159111,40,21.9,-661.7984008789062,1.059999942779541,0,0.0,0.0,,,,,0,,3,0.0,
Raw,1424517,1111070000000,,,-1330742678359872862,0.4805440902709961,28.087397367926314,5.256489311593692,9.611748832068464,2,1,0.0,207,21771353602261,13,31.8,-759.7498779296875,0.24469999969005585,0,0.0,0.0,,,,,0,,3,0.0,
Raw,1424517,1111070000000,,,-1330742678359872862,0.4805440902709961,28.087397367926314,5.256489311593692,9.611748832068464,2,24,0.0,207,21771359843386,9,35.5,-283.0747985839844,0.2501000165939331,0,0.0,0.0,,,,,0,,3,0.0,
Raw,1424517,1111070000000,,,-1330742678359872862,0.4805440902709961,28.087397367926314,5.256489311593692,9.611748832068464,2,23,0.0,207,21771362465866,7,37.2,123.21939849853516,0.22360000014305115,0,0.0,0.0,,,,,0,,3,0.0,
Raw,1424517,1111070000000,,,-1330742678359872862,0.4805440902709961,28.087397367926314,5.256489311593692,9.611748832068464,2,7,0.0,207,21771354934898,9,35.8,254.39840698242188,0.24260000884532928,0,0.0,0.0,,,,,0,,3,0.0,
Raw,1424517,1111070000000,,,-1330742678359872862,0.4805440902709961,28.087397367926314,5.256489311593692,9.611748832068464,2,8,0.0,207,21771358448573,9,35.4,-364.1335144042969,0.24860000610351562,0,0.0,0.0,,,,,0,,3,0.0,
Raw,1424518,1111070000000,,,-1330742678359872862,0.4805440902709961,28.087397367926314,5.256489311593692,9.611748832068464,2,2,0.0,15,183789350758817,17,28.4,462.9110412597656,0.04830000177025795,0,0.0,0.0,,,,,0,,1,0.0,
Raw,1424518,1111070000000,,,-1330742678359872862,0.4805440902709961,28.087397367926314,5.256489311593692,9.611748832068464,2,5,0.0,15,183789360856800,5,40.9,-1.001304030418396,0.01940000057220459,0,0.0,0.0,,,,,0,,1,0.0,
Raw,1424519,1111070000000,,,-1330742678359872862,0.4805440902709961,28.087397367926314,5.256489311593692,9.611748832068464,2,12,0.0,15,183789354011651,6,39.4,665.736572265625,0.0406000018119812,0,0.0,0.0,,,,,0,,1,0.0,
Raw,1424519,1111070000000,,,-1330742678359872862,0.4805440902709961,28.087397367926314,5.256489311593692,9.611748832068464,2,18,0.0,15,183789355414514,8,36.1,-428.8001708984375,0.04370000213384628,0,0.0,0.0,,,,,0,,1,0.0,
Raw,1424519,1111070000000,,,-1330742678359872862,0.4805440902709961,28.087397367926314,5.256489311593692,9.611748832068464,2,20,0.0,15,183789357430201,7,37.1,356.9207763671875,0.04610000178217888,0,0.0,0.0,,,,,0,,1,0.0,
Raw,1424519,1111070000000,,,-1330742678359872862,0.4805440902709961,28.087397367926314,5.256489311593692,9.611748832068464,2,25,0.0,15,183789360672499,7,37.0,341.19158935546875,0.020600000396370888,0,0.0,0.0,,,,,0,,1,0.0,
Raw,1424519,1111070000000,,,-1330742678359872862,0.4805440902709961,28.087397367926314,5.256489311593692,9.611748832068464,2,26,0.0,15,183789348364615,21,26.8,-580.0844116210938,0.12319999933242798,0,0.0,0.0,,,,,0,,1,0.0,
Raw,1424520,1111070000000,,,-1330742678359872862,0.4805440902709961,28.087397367926314,5.256489311593692,9.611748832068464,2,29,0.0,15,183789360277301,11,33.6,-221.48501586914062,0.02290000021457672,0,0.0,0.0,,,,,0,,1,0.0,
Raw,1424520,1111070000000,,,-1330742678359872862,0.4805440902709961,28.087397367926314,5.256489311593692,9.611748832068464,2,31,0.0,15,183789347655067,16,29.2,258.1954345703125,0.03720000013709068,0,0.0,0.0,,,,,0,,1,0.0,
Fix,gps,37.427501,-122.170291,-8.726624,0.000000,3.216000,1646708572000
NMEA,$GPGSV,3,1,11,02,28,053,28,05,60,095,41,12,33,163,39,18,34,253,36,1*6A
,1646708571999
NMEA,$GPGSV,3,2,11,20,42,056,37,25,61,208,37,26,10,319,27,29,61,334,34,1*6C
,1646708571999
NMEA,$GPGSV,3,3,11,31,12,281,29,15,03,150,,23,02,201,,1*56
,1646708571999
NMEA,$GLGSV,3,1,10,78,38,298,34,86,11,066,22,77,37,220,26,79,04,337,22,1*78
,1646708572000
NMEA,$GLGSV,3,2,10,65,16,147,32,88,38,299,36,87,51,008,37,71,21,043,36,1*73
,1646708572000
NMEA,$GLGSV,3,3,10,72,33,097,35,76,04,184,,1*7C
,1646708572000
NMEA,$GAGSV,1,1,0,7*43
,1646708572001
NMEA,$PQGSV,1,1,0,0*43
,1646708572001
NMEA,$GBGSV,1,1,0,0*47
,1646708572001
NMEA,$GNGSA,A,3,02,05,12,18,20,25,26,29,31,,,,1.0,0.6,0.8,1*3B
,1646708572018
NMEA,$GNGSA,A,3,65,71,72,77,78,87,88,,,,,,1.0,0.6,0.8,2*3D
,1646708572018
NMEA,$GNVTG,,T,,M,0.0,N,0.0,K,A*3D
,1646708572019
NMEA,$GNGGA,030252.00,3725.650071,N,12210.217473,W,1,12,0.6,19.2,M,-27.9,M,,*7A
,1646708572019
NMEA,$GNRMC,030252.00,A,3725.650071,N,12210.217473,W,0.0,,080322,15.0,E,A,V*56
,1646708572019
NMEA,$AIDSTAT,0,0,0,2,-9,23,3*00
,1646708572924
Raw,1425531,1112070000000,,,-1330742678359872856,0.81353759765625,28.412432584445924,6.004965136502058,9.973949007327233,2,14,0.0,207,21772359782502,9,35.1,-134.4294891357422,0.22010000050067902,0,0.0,0.0,,,,,0,,3,0.0,
Raw,1425531,1112070000000,,,-1330742678359872856,0.81353759765625,28.412432584445924,6.004965136502058,9.973949007327233,2,22,0.0,207,21772351164620,62,22.2,494.7576904296875,4.003000259399414,0,0.0,0.0,,,,,0,,3,0.0,
Raw,1425531,1112070000000,,,-1330742678359872856,0.81353759765625,28.412432584445924,6.004965136502058,9.973949007327233,2,13,0.0,207,21772359338793,24,25.7,617.714111328125,0.580299973487854,0,0.0,0.0,,,,,0,,3,0.0,
Raw,1425531,1112070000000,,,-1330742678359872856,0.81353759765625,28.412432584445924,6.004965136502058,9.973949007327233,2,15,0.0,207,21772349161148,24,25.3,-661.7866821289062,0.595300018787384,0,0.0,0.0,,,,,0,,3,0.0,
Raw,1425531,1112070000000,,,-1330742678359872856,0.81353759765625,28.412432584445924,6.004965136502058,9.973949007327233,2,1,0.0,207,21772353604843,14,30.8,-759.5690307617188,0.24529999494552612,0,0.0,0.0,,,,,0,,3,0.0,
Raw,1425531,1112070000000,,,-1330742678359872856,0.81353759765625,28.412432584445924,6.004965136502058,9.973949007327233,2,24,0.0,207,21772359844303,7,37.1,-282.76763916015625,0.249099999666214,0,0.0,0.0,,,,,0,,3,0.0,
Raw,1425531,1112070000000,,,-1330742678359872856,0.81353759765625,28.412432584445924,6.004965136502058,9.973949007327233,2,23,0.0,207,21772362465448,7,37.6,123.50593566894531,0.22360000014305115,0,0.0,0.0,,,,,0,,3,0.0,
Raw,1425531,1112070000000,,,-1330742678359872856,0.81353759765625,28.412432584445924,6.004965136502058,9.973949007327233,2,7,0.0,207,21772354934073,10,34.0,254.794189453125,0.24310001730918884,0,0.0,0.0,,,,,0,,3,0.0,
Raw,1425531,1112070000000,,,-1330742678359872856,0.81353759765625,28.412432584445924,6.004965136502058,9.973949007327233,2,8,0.0,207,21772358449758,10,34.4,-363.81085205078125,0.24910001456737518,0,0.0,0.0,,,,,0,,3,0.0,
Raw,1425532,1112070000000,,,-1330742678359872856,0.81353759765625,28.412432584445924,6.004965136502058,9.973949007327233,2,2,0.0,15,183790350757429,35,22.8,462.76568603515625,0.6814999580383301,0,0.0,0.0,,,,,0,,1,0.0,
Raw,1425532,1112070000000,,,-1330742678359872856,0.81353759765625,28.412432584445924,6.004965136502058,9.973949007327233,2,5,0.0,15,183790360856807,5,41.4,-0.6536809802055359,0.019100001081824303,0,0.0,0.0,,,,,0,,1,0.0,
Raw,1425532,1112070000000,,,-1330742678359872856,0.81353759765625,28.412432584445924,6.004965136502058,9.973949007327233,2,12,0.0,15,183790354009434,6,38.1,665.934814453125,0.04110000282526016,0,0.0,0.0,,,,,0,,1,0.0,
Raw,1425532,1112070000000,,,-1330742678359872856,0.81353759765625,28.412432584445924,6.004965136502058,9.973949007327233,2,18,0.0,15,183790355415919,7,37.2,-428.5629577636719,0.04310000315308571,0,0.0,0.0,,,,,0,,1,0.0,
Raw,1425532,1112070000000,,,-1330742678359872856,0.81353759765625,28.412432584445924,6.004965136502058,9.973949007327233,2,20,0.0,15,183790357429030,8,36.2,357.2655944824219,0.04670000076293945,0,0.0,0.0,,,,,0,,1,0.0,
Raw,1425532,1112070000000,,,-1330742678359872856,0.81353759765625,28.412432584445924,6.004965136502058,9.973949007327233,2,25,0.0,15,183790360671355,7,37.7,341.5144958496094,0.020600000396370888,0,0.0,0.0,,,,,0,,1,0.0,
Raw,1425532,1112070000000,,,-1330742678359872856,0.81353759765625,28.412432584445924,6.004965136502058,9.973949007327233,2,26,0.0,15,183790348366556,17,28.3,-579.785400390625,0.04529999941587448,0,0.0,0.0,,,,,0,,1,0.0,
Raw,1425532,1112070000000,,,-1330742678359872856,0.81353759765625,28.412432584445924,6.004965136502058,9.973949007327233,2,29,0.0,15,183790360278022,11,33.4,-221.1878204345703,0.02290000021457672,0,0.0,0.0,,,,,0,,1,0.0,
Raw,1425532,1112070000000,,,-1330742678359872856,0.81353759765625,28.412432584445924,6.004965136502058,9.973949007327233,2,31,0.0,15,183790347654140,17,28.5,258.5839538574219,0.043800000101327896,0,0.0,0.0,,,,,0,,1,0.0,
Fix,gps,37.427502,-122.170290,-9.225037,0.000000,3.216000,1646708573000
NMEA,$GPGSV,3,1,11,02,28,053,23,05,60,095,41,12,33,163,38,18,34,253,37,1*61
,1646708573000
NMEA,$GPGSV,3,2,11,20,42,056,36,25,61,208,38,26,10,319,28,29,61,334,33,1*6A
,1646708573000
NMEA,$GPGSV,3,3,11,31,12,281,29,15,03,150,,23,02,201,,1*56
,1646708573001
NMEA,$GLGSV,3,1,10,78,38,298,35,86,11,066,22,77,37,220,26,79,04,337,25,1*7E
,1646708573001
NMEA,$GLGSV,3,2,10,65,16,147,31,88,38,299,37,87,51,008,38,71,21,043,34,1*7C
,1646708573002
NMEA,$GLGSV,3,3,10,72,33,097,34,76,04,184,,1*7D
,1646708573002
NMEA,$GAGSV,1,1,0,7*43
,1646708573002
NMEA,$PQGSV,1,1,0,0*43
,1646708573003
NMEA,$GBGSV,1,1,0,0*47
,1646708573005
NMEA,$GNGSA,A,3,02,05,12,18,20,25,26,29,31,,,,1.0,0.6,0.8,1*3B
,1646708573009
NMEA,$GNGSA,A,3,65,71,72,77,78,87,88,,,,,,1.0,0.6,0.8,2*3D
,1646708573012
NMEA,$GNVTG,,T,,M,0.0,N,0.0,K,A*3D
,1646708573012
NMEA,$GNGGA,030253.00,3725.650110,N,12210.217390,W,1,12,0.6,18.7,M,-27.9,M,,*73
,1646708573013
NMEA,$GNRMC,030253.00,A,3725.650110,N,12210.217390,W,0.0,,080322,15.0,E,A,V*5B
,1646708573013
NMEA,$AIDSTAT,0,0,0,2,-9,23,3*00
,1646708573926
Raw,1426564,1113070000000,,,-1330742678359872849,0.4892578125,30.30162042705342,6.55544835729653,9.967818203241782,2,14,0.0,207,21773359782968,13,31.5,-134.2383270263672,0.22370000183582306,0,0.0,0.0,,,,,0,,3,0.0,
Raw,1426565,1113070000000,,,-1330742678359872849,0.4892578125,30.30162042705342,6.55544835729653,9.967818203241782,2,22,0.0,207,21773351162969,90,22.2,494.7576904296875,5.503000259399414,0,0.0,0.0,,,,,0,,3,0.0,
Raw,1426565,1113070000000,,,-1330742678359872849,0.4892578125,30.30162042705342,6.55544835729653,9.967818203241782,2,13,0.0,207,21773359336706,24,25.4,617.9266357421875,0.580299973487854,0,0.0,0.0,,,,,0,,3,0.0,
Raw,1426565,1113070000000,,,-1330742678359872849,0.4892578125,30.30162042705342,6.55544835729653,9.967818203241782,2,12,0.0,207,21773349090635,1879,12.5,827.8076782226562,8.690000534057617,0,0.0,0.0,,,,,0,,3,0.0,
Raw,1426565,1113070000000,,,-1330742678359872849,0.4892578125,30.30162042705342,6.55544835729653,9.967818203241782,2,15,0.0,207,21773349163349,27,24.6,-662.1726684570312,0.8799999952316284,0,0.0,0.0,,,,,0,,3,0.0,
Raw,1426565,1113070000000,,,-1330742678359872849,0.4892578125,30.30162042705342,6.55544835729653,9.967818203241782,2,1,0.0,207,21773353607367,16,29.8,-759.6007690429688,0.24619999527931213,0,0.0,0.0,,,,,0,,3,0.0,
Raw,1426565,1113070000000,,,-1330742678359872849,0.4892578125,30.30162042705342,6.55544835729653,9.967818203241782,2,24,0.0,207,21773359845263,10,34.2,-282.7126770019531,0.25060001015663147,0,0.0,0.0,,,,,0,,3,0.0,
Raw,1426565,1113070000000,,,-1330742678359872849,0.4892578125,30.30162042705342,6.55544835729653,9.967818203241782,2,23,0.0,207,21773362465023,7,37.9,123.53781127929688,0.22360000014305115,0,0.0,0.0,,,,,0,,3,0.0,
Raw,1426566,1113070000000,,,-1330742678359872849,0.4892578125,30.30162042705342,6.55544835729653,9.967818203241782,2,7,0.0,207,21773354933239,12,32.6,254.98887634277344,0.24490001797676086,0,0.0,0.0,,,,,0,,3,0.0,
Raw,1426566,1113070000000,,,-1330742678359872849,0.4892578125,30.30162042705342,6.55544835729653,9.967818203241782,2,8,0.0,207,21773358450950,8,36.3,-363.71307373046875,0.24820001423358917,0,0.0,0.0,,,,,0,,3,0.0,
Raw,1426566,1113070000000,,,-1330742678359872849,0.4892578125,30.30162042705342,6.55544835729653,9.967818203241782,2,2,0.0,15,183791350755737,80,16.7,464.07867431640625,1.091499924659729,0,0.0,0.0,,,,,0,,1,0.0,
Raw,1426566,1113070000000,,,-1330742678359872849,0.4892578125,30.30162042705342,6.55544835729653,9.967818203241782,2,5,0.0,15,183791360856809,5,40.8,-0.503728985786438,0.01940000057220459,0,0.0,0.0,,,,,0,,1,0.0,
Raw,1426566,1113070000000,,,-1330742678359872849,0.4892578125,30.30162042705342,6.55544835729653,9.967818203241782,2,12,0.0,15,183791354007211,6,39.2,665.9781494140625,0.0406000018119812,0,0.0,0.0,,,,,0,,1,0.0,
Raw,1426566,1113070000000,,,-1330742678359872849,0.4892578125,30.30162042705342,6.55544835729653,9.967818203241782,2,18,0.0,15,183791355417359,7,37.8,-428.5025634765625,0.04310000315308571,0,0.0,0.0,,,,,0,,1,0.0,
Raw,1426566,1113070000000,,,-1330742678359872849,0.4892578125,30.30162042705342,6.55544835729653,9.967818203241782,2,20,0.0,15,183791357427838,7,37.6,357.35577392578125,0.04610000178217888,0,0.0,0.0,,,,,0,,1,0.0,
Raw,1426566,1113070000000,,,-1330742678359872849,0.4892578125,30.30162042705342,6.55544835729653,9.967818203241782,2,25,0.0,15,183791360670196,6,38.2,341.60333251953125,0.020100001245737076,0,0.0,0.0,,,,,0,,1,0.0,
Raw,1426566,1113070000000,,,-1330742678359872849,0.4892578125,30.30162042705342,6.55544835729653,9.967818203241782,2,26,0.0,15,183791348368508,19,27.8,-579.7275390625,0.053300000727176666,0,0.0,0.0,,,,,0,,1,0.0,
Raw,1426567,1113070000000,,,-1330742678359872849,0.4892578125,30.30162042705342,6.55544835729653,9.967818203241782,2,29,0.0,15,183791360278756,10,34.9,-221.14366149902344,0.022099999710917473,0,0.0,0.0,,,,,0,,1,0.0,
Raw,1426567,1113070000000,,,-1330742678359872849,0.4892578125,30.30162042705342,6.55544835729653,9.967818203241782,2,31,0.0,15,183791347653212,14,30.5,258.664306640625,0.03629999980330467,0,0.0,0.0,,,,,0,,1,0.0,
Fix,gps,37.427504,-122.170288,-9.647034,0.000000,3.216000,1646708574000
NMEA,$GPGSV,3,1,11,02,28,053,17,05,60,095,41,12,33,163,39,18,34,253,38,1*68
,1646708573998
NMEA,$GPGSV,3,2,11,20,42,056,38,25,61,208,38,26,10,319,28,29,61,334,35,1*62
,1646708573999
NMEA,$GPGSV,3,3,11,31,12,281,31,15,03,150,,23,02,201,,1*5F
,1646708573999
NMEA,$GLGSV,3,1,10,78,38,298,32,86,11,066,22,77,37,220,25,76,04,184,13,1*7A
,1646708573999
NMEA,$GLGSV,3,2,10,79,04,337,25,65,16,147,30,88,38,299,34,87,51,008,38,1*71
,1646708573999
NMEA,$GLGSV,3,3,10,71,21,043,33,72,33,097,36,1*75
,1646708573999
NMEA,$GAGSV,1,1,0,7*43
,1646708574000
NMEA,$PQGSV,1,1,0,0*43
,1646708574000
NMEA,$GBGSV,1,1,0,0*47
,1646708574000
NMEA,$GNGSA,A,3,02,05,12,18,20,25,26,29,31,,,,1.0,0.6,0.8,1*3B
,1646708574005
NMEA,$GNGSA,A,3,65,71,72,77,78,87,88,,,,,,1.0,0.6,0.8,2*3D
,1646708574005
NMEA,$GNVTG,,T,,M,0.0,N,0.0,K,A*3D
,1646708574006
NMEA,$GNGGA,030254.00,3725.650217,N,12210.217266,W,1,12,0.6,18.3,M,-27.9,M,,*7C
,1646708574006
NMEA,$GNRMC,030254.00,A,3725.650217,N,12210.217266,W,0.0,,080322,15.0,E,A,V*50
,1646708574006
NMEA,$AIDSTAT,0,0,0,2,-13,23,3*00
,1646708574926
Raw,1427524,1114070000000,,,-1330742678359872841,0.34216976165771484,32.66890053055249,6.552899091179535,9.709278640062163,2,14,0.0,207,21774359783450,13,31.4,-134.28236389160156,0.22370000183582306,0,0.0,0.0,,,,,0,,3,0.0,
Raw,1427524,1114070000000,,,-1330742678359872841,0.34216976165771484,32.66890053055249,6.552899091179535,9.709278640062163,2,22,0.0,207,21774351161174,126,14.9,494.7483215332031,3.943000078201294,0,0.0,0.0,,,,,0,,3,0.0,
Raw,1427524,1114070000000,,,-1330742678359872841,0.34216976165771484,32.66890053055249,6.552899091179535,9.709278640062163,2,13,0.0,207,21774359334628,31,23.8,617.12255859375,0.9249999523162842,0,0.0,0.0,,,,,0,,3,0.0,
Raw,1427525,1114070000000,,,-1330742678359872841,0.34216976165771484,32.66890053055249,6.552899091179535,9.709278640062163,2,12,0.0,207,21774349087888,1907,12.3,828.1447143554688,9.440000534057617,0,0.0,0.0,,,,,0,,3,0.0,
Raw,1427525,1114070000000,,,-1330742678359872841,0.34216976165771484,32.66890053055249,6.552899091179535,9.709278640062163,2,15,0.0,207,21774349165518,46,20.3,-661.704833984375,1.1299999952316284,0,0.0,0.0,,,,,0,,3,0.0,
Raw,1427525,1114070000000,,,-1330742678359872841,0.34216976165771484,32.66890053055249,6.552899091179535,9.709278640062163,2,1,0.0,207,21774353609900,16,29.0,-759.8116455078125,0.24619999527931213,0,0.0,0.0,,,,,0,,3,0.0,
Raw,1427525,1114070000000,,,-1330742678359872841,0.34216976165771484,32.66890053055249,6.552899091179535,9.709278640062163,2,24,0.0,207,21774359846207,16,29.5,-282.8288269042969,0.25519999861717224,0,0.0,0.0,,,,,0,,3,0.0,
Raw,1427525,1114070000000,,,-1330742678359872841,0.34216976165771484,32.66890053055249,6.552899091179535,9.709278640062163,2,23,0.0,207,21774362464628,8,36.1,123.3862533569336,0.22420001029968262,0,0.0,0.0,,,,,0,,3,0.0,
Raw,1427526,1114070000000,,,-1330742678359872841,0.34216976165771484,32.66890053055249,6.552899091179535,9.709278640062163,2,7,0.0,207,21774354932334,12,32.5,254.9118194580078,0.24490001797676086,0,0.0,0.0,,,,,0,,3,0.0,
Raw,1427526,1114070000000,,,-1330742678359872841,0.34216976165771484,32.66890053055249,6.552899091179535,9.709278640062163,2,8,0.0,207,21774358452168,7,37.2,-363.7729187011719,0.2476000040769577,0,0.0,0.0,,,,,0,,3,0.0,
Raw,1427526,1114070000000,,,-1330742678359872841,0.34216976165771484,32.66890053055249,6.552899091179535,9.709278640062163,2,2,0.0,15,183792350754133,35,22.9,462.6229553222656,0.6814999580383301,0,0.0,0.0,,,,,0,,1,0.0,
Raw,1427526,1114070000000,,,-1330742678359872841,0.34216976165771484,32.66890053055249,6.552899091179535,9.709278640062163,2,5,0.0,15,183792360856799,6,38.2,-0.6132458448410034,0.020100001245737076,0,0.0,0.0,,,,,0,,1,0.0,
Raw,1427526,1114070000000,,,-1330742678359872841,0.34216976165771484,32.66890053055249,6.552899091179535,9.709278640062163,2,12,0.0,15,183792354005007,6,38.1,665.7919921875,0.04110000282526016,0,0.0,0.0,,,,,0,,1,0.0,
Raw,1427526,1114070000000,,,-1330742678359872841,0.34216976165771484,32.66890053055249,6.552899091179535,9.709278640062163,2,18,0.0,15,183792355418803,8,36.9,-428.6883239746094,0.04370000213384628,0,0.0,0.0,,,,,0,,1,0.0,
Raw,1427527,1114070000000,,,-1330742678359872841,0.34216976165771484,32.66890053055249,6.552899091179535,9.709278640062163,2,20,0.0,15,183792357426625,8,36.1,357.2087097167969,0.04670000076293945,0,0.0,0.0,,,,,0,,1,0.0,
Raw,1427528,1114070000000,,,-1330742678359872841,0.34216976165771484,32.66890053055249,6.552899091179535,9.709278640062163,2,25,0.0,15,183792360669042,9,35.6,341.5311584472656,0.02160000056028366,0,0.0,0.0,,,,,0,,1,0.0,
Raw,1427528,1114070000000,,,-1330742678359872841,0.34216976165771484,32.66890053055249,6.552899091179535,9.709278640062163,2,26,0.0,15,183792348370425,21,26.4,-579.9300537109375,0.12319999933242798,0,0.0,0.0,,,,,0,,1,0.0,
Raw,1427528,1114070000000,,,-1330742678359872841,0.34216976165771484,32.66890053055249,6.552899091179535,9.709278640062163,2,29,0.0,15,183792360279506,9,35.0,-221.2959442138672,0.02160000056028366,0,0.0,0.0,,,,,0,,1,0.0,
Raw,1427528,1114070000000,,,-1330742678359872841,0.34216976165771484,32.66890053055249,6.552899091179535,9.709278640062163,2,31,0.0,15,183792347652354,14,30.5,258.4864807128906,0.03629999980330467,0,0.0,0.0,,,,,0,,1,0.0,
Fix,gps,37.427505,-122.170287,-9.677063,0.000000,3.216000,1646708575000
NMEA,$GPGSV,3,1,11,02,28,053,23,05,60,095,38,12,33,163,38,18,34,253,37,1*6F
,1646708575002
NMEA,$GPGSV,3,2,11,20,42,056,36,25,61,208,36,26,10,319,26,29,61,334,35,1*6C
,1646708575003
NMEA,$GPGSV,3,3,11,31,12,281,31,15,03,150,,23,02,201,,1*5F
,1646708575003
NMEA,$GLGSV,3,1,10,78,38,298,31,86,11,066,15,77,37,220,24,76,04,184,12,1*7D
,1646708575003
NMEA,$GLGSV,3,2,10,79,04,337,20,65,16,147,29,88,38,299,30,87,51,008,36,1*76
,1646708575003
NMEA,$GLGSV,3,3,10,71,21,043,33,72,33,097,37,1*74
,1646708575004
NMEA,$GAGSV,1,1,0,7*43
,1646708575004
NMEA,$PQGSV,1,1,0,0*43
,1646708575004
NMEA,$GBGSV,1,1,0,0*47
,1646708575005
NMEA,$GNGSA,A,3,02,05,12,18,20,25,26,29,31,,,,1.0,0.6,0.8,1*3B
,1646708575013
NMEA,$GNGSA,A,3,65,71,72,77,78,87,88,,,,,,1.0,0.6,0.8,2*3D
,1646708575013
NMEA,$GNVTG,,T,,M,0.0,N,0.0,K,A*3D
,1646708575013
NMEA,$GNGGA,030255.00,3725.650318,N,12210.217231,W,1,12,0.6,18.3,M,-27.9,M,,*71
,1646708575013
NMEA,$GNRMC,030255.00,A,3725.650318,N,12210.217231,W,0.0,,080322,15.0,E,A,V*5D
,1646708575014
NMEA,$AIDSTAT,0,0,0,2,,23,3*00
,1646708575926
Raw,1428575,1115070000000,,,-1330742678359872831,0.35575008392333984,32.898024073801935,5.562869664832259,9.710556653055459,2,14,0.0,207,21775359783864,9,35.6,-134.1061248779297,0.22010000050067902,0,0.0,0.0,,,,,0,,3,0.0,
Raw,1428575,1115070000000,,,-1330742678359872831,0.35575008392333984,32.898024073801935,5.562869664832259,9.710556653055459,2,22,0.0,207,21775351159800,61,18.4,494.3736572265625,1.2929999828338623,0,0.0,0.0,,,,,0,,3,0.0,
Raw,1428575,1115070000000,,,-1330742678359872831,0.35575008392333984,32.898024073801935,5.562869664832259,9.710556653055459,2,13,0.0,207,21775359332648,31,23.4,618.161865234375,0.9249999523162842,0,0.0,0.0,,,,,0,,3,0.0,
Raw,1428576,1115070000000,,,-1330742678359872831,0.35575008392333984,32.898024073801935,5.562869664832259,9.710556653055459,2,12,0.0,207,21775349085112,1936,12.4,828.3037109375,10.190000534057617,0,0.0,0.0,,,,,0,,3,0.0,
Raw,1428576,1115070000000,,,-1330742678359872831,0.35575008392333984,32.898024073801935,5.562869664832259,9.710556653055459,2,15,0.0,207,21775349167789,35,22.7,-661.2183227539062,1.0,0,0.0,0.0,,,,,0,,3,0.0,
Raw,1428576,1115070000000,,,-1330742678359872831,0.35575008392333984,32.898024073801935,5.562869664832259,9.710556653055459,2,1,0.0,207,21775353612417,12,32.5,-759.7039794921875,0.24340000748634338,0,0.0,0.0,,,,,0,,3,0.0,
Raw,1428576,1115070000000,,,-1330742678359872831,0.35575008392333984,32.898024073801935,5.562869664832259,9.710556653055459,2,24,0.0,207,21775359847191,16,29.9,-282.7783203125,0.25519999861717224,0,0.0,0.0,,,,,0,,3,0.0,
Raw,1428576,1115070000000,,,-1330742678359872831,0.35575008392333984,32.898024073801935,5.562869664832259,9.710556653055459,2,23,0.0,207,21775362464221,8,36.7,123.4619369506836,0.22420001029968262,0,0.0,0.0,,,,,0,,3,0.0,
Raw,1428576,1115070000000,,,-1330742678359872831,0.35575008392333984,32.898024073801935,5.562869664832259,9.710556653055459,2,7,0.0,207,21775354931497,11,33.3,255.0586700439453,0.24390001595020294,0,0.0,0.0,,,,,0,,3,0.0,
Raw,1428576,1115070000000,,,-1330742678359872831,0.35575008392333984,32.898024073801935,5.562869664832259,9.710556653055459,2,8,0.0,207,21775358453378,5,40.0,-363.600830078125,0.24640001356601715,0,0.0,0.0,,,,,0,,3,0.0,
Raw,1428576,1115070000000,,,-1330742678359872831,0.35575008392333984,32.898024073801935,5.562869664832259,9.710556653055459,2,2,0.0,15,183793350752508,35,22.7,463.07965087890625,0.6814999580383301,0,0.0,0.0,,,,,0,,1,0.0,
Raw,1428576,1115070000000,,,-1330742678359872831,0.35575008392333984,32.898024073801935,5.562869664832259,9.710556653055459,2,5,0.0,15,183793360856806,7,37.0,-0.43873441219329834,0.020600000396370888,0,0.0,0.0,,,,,0,,1,0.0,
Raw,1428576,1115070000000,,,-1330742678359872831,0.35575008392333984,32.898024073801935,5.562869664832259,9.710556653055459,2,12,0.0,15,183793354002784,5,41.2,665.905029296875,0.04010000079870224,0,0.0,0.0,,,,,0,,1,0.0,
Raw,1428576,1115070000000,,,-1330742678359872831,0.35575008392333984,32.898024073801935,5.562869664832259,9.710556653055459,2,18,0.0,15,183793355420226,6,39.1,-428.54241943359375,0.042100001126527786,0,0.0,0.0,,,,,0,,1,0.0,
Raw,1428576,1115070000000,,,-1330742678359872831,0.35575008392333984,32.898024073801935,5.562869664832259,9.710556653055459,2,20,0.0,15,183793357425448,7,37.2,357.3784484863281,0.04610000178217888,0,0.0,0.0,,,,,0,,1,0.0,
Raw,1428576,1115070000000,,,-1330742678359872831,0.35575008392333984,32.898024073801935,5.562869664832259,9.710556653055459,2,25,0.0,15,183793360667921,11,33.3,341.6977233886719,0.02290000021457672,0,0.0,0.0,,,,,0,,1,0.0,
Raw,1428576,1115070000000,,,-1330742678359872831,0.35575008392333984,32.898024073801935,5.562869664832259,9.710556653055459,2,26,0.0,15,183793348372354,19,27.0,-579.794921875,0.053300000727176666,0,0.0,0.0,,,,,0,,1,0.0,
Raw,1428576,1115070000000,,,-1330742678359872831,0.35575008392333984,32.898024073801935,5.562869664832259,9.710556653055459,2,29,0.0,15,183793360280248,7,37.3,-221.18238830566406,0.020600000396370888,0,0.0,0.0,,,,,0,,1,0.0,
Raw,1428576,1115070000000,,,-1330742678359872831,0.35575008392333984,32.898024073801935,5.562869664832259,9.710556653055459,2,31,0.0,15,183793347651522,12,32.1,258.6175537109375,0.03440000116825104,0,0.0,0.0,,,,,0,,1,0.0,
Fix,gps,37.427507,-122.170286,-9.668518,0.000000,3.216000,1646708576000
NMEA,$GPGSV,3,1,11,02,28,053,23,05,60,095,37,12,33,163,41,18,34,253,39,1*60
,1646708576001
NMEA,$GPGSV,3,2,11,20,42,056,37,25,61,208,33,26,10,319,27,29,61,334,37,1*6B
,1646708576002
NMEA,$GPGSV,3,3,11,31,12,281,32,15,03,150,,23,02,201,,1*5C
,1646708576003
NMEA,$GLGSV,3,1,10,78,38,298,36,86,11,066,18,77,37,220,23,76,04,184,12,1*70
,1646708576003
NMEA,$GLGSV,3,2,10,79,04,337,23,65,16,147,33,88,38,299,30,87,51,008,37,1*7F
,1646708576003
NMEA,$GLGSV,3,3,10,71,21,043,33,72,33,097,40,1*74
,1646708576003
NMEA,$GAGSV,1,1,0,7*43
,1646708576003
NMEA,$PQGSV,1,1,0,0*43
,1646708576004
NMEA,$GBGSV,1,1,0,0*47
,1646708576004
NMEA,$GNGSA,A,3,02,05,12,18,20,25,26,29,31,,,,1.0,0.6,0.8,1*3B
,1646708576016
NMEA,$GNGSA,A,3,65,71,72,77,78,87,88,,,,,,1.0,0.6,0.8,2*3D
,1646708576016
NMEA,$GNVTG,,T,,M,0.0,N,0.0,K,A*3D
,1646708576016
NMEA,$GNGGA,030256.00,3725.650400,N,12210.217169,W,1,12,0.6,18.3,M,-27.9,M,,*72
,1646708576017
NMEA,$GNRMC,030256.00,A,3725.650400,N,12210.217169,W,0.0,,080322,15.0,E,A,V*5E
,1646708576017
NMEA,$AIDSTAT,0,0,0,2,-13,23,3*00
,1646708576926
Raw,1429531,1116070000000,,,-1330742678359872827,0.5578775405883789,31.317031243816018,5.743397947021581,9.700571928020715,2,14,0.0,207,21776359784306,8,36.8,-133.78460693359375,0.21970000863075256,0,0.0,0.0,,,,,0,,3,0.0,
Raw,1429532,1116070000000,,,-1330742678359872827,0.5578775405883789,31.317031243816018,5.743397947021581,9.700571928020715,2,22,0.0,207,21776351157918,40,21.9,495.39459228515625,1.062999963760376,0,0.0,0.0,,,,,0,,3,0.0,
Raw,1429532,1116070000000,,,-1330742678359872827,0.5578775405883789,31.317031243816018,5.743397947021581,9.700571928020715,2,13,0.0,207,21776359330575,27,24.9,617.8060913085938,0.8649999499320984,0,0.0,0.0,,,,,0,,3,0.0,
Raw,1429532,1116070000000,,,-1330742678359872827,0.5578775405883789,31.317031243816018,5.743397947021581,9.700571928020715,2,12,0.0,207,21776349082320,376,12.5,828.3037109375,11.315000534057617,0,0.0,0.0,,,,,0,,3,0.0,
Raw,1429533,1116070000000,,,-1330742678359872827,0.5578775405883789,31.317031243816018,5.743397947021581,9.700571928020715,2,15,0.0,207,21776349170013,53,19.7,-661.0592041015625,1.2100000381469727,0,0.0,0.0,,,,,0,,3,0.0,
Raw,1429533,1116070000000,,,-1330742678359872827,0.5578775405883789,31.317031243816018,5.743397947021581,9.700571928020715,2,1,0.0,207,21776353614974,13,31.3,-759.3761596679688,0.24469999969005585,0,0.0,0.0,,,,,0,,3,0.0,
Raw,1429533,1116070000000,,,-1330742678359872827,0.5578775405883789,31.317031243816018,5.743397947021581,9.700571928020715,2,24,0.0,207,21776359848101,13,31.8,-282.6510009765625,0.25370001792907715,0,0.0,0.0,,,,,0,,3,0.0,
Raw,1429534,1116070000000,,,-1330742678359872827,0.5578775405883789,31.317031243816018,5.743397947021581,9.700571928020715,2,23,0.0,207,21776362463802,7,37.2,123.66837310791016,0.22360000014305115,0,0.0,0.0,,,,,0,,3,0.0,
Raw,1429534,1116070000000,,,-1330742678359872827,0.5578775405883789,31.317031243816018,5.743397947021581,9.700571928020715,2,7,0.0,207,21776354930598,12,32.9,255.4384002685547,0.24490001797676086,0,0.0,0.0,,,,,0,,3,0.0,
Raw,1429534,1116070000000,,,-1330742678359872827,0.5578775405883789,31.317031243816018,5.743397947021581,9.700571928020715,2,8,0.0,207,21776358454610,6,39.7,-363.2046203613281,0.24660000205039978,0,0.0,0.0,,,,,0,,3,0.0,
Raw,1429534,1116070000000,,,-1330742678359872827,0.5578775405883789,31.317031243816018,5.743397947021581,9.700571928020715,2,2,0.0,15,183794350751048,17,28.4,463.1855773925781,0.04830000177025795,0,0.0,0.0,,,,,0,,1,0.0,
Raw,1429534,1116070000000,,,-1330742678359872827,0.5578775405883789,31.317031243816018,5.743397947021581,9.700571928020715,2,5,0.0,15,183794360856823,8,36.2,-0.07529504597187042,0.02120000123977661,0,0.0,0.0,,,,,0,,1,0.0,
Raw,1429535,1116070000000,,,-1330742678359872827,0.5578775405883789,31.317031243816018,5.743397947021581,9.700571928020715,2,12,0.0,15,183794354000569,5,41.4,666.1853637695312,0.04010000079870224,0,0.0,0.0,,,,,0,,1,0.0,
Raw,1429535,1116070000000,,,-1330742678359872827,0.5578775405883789,31.317031243816018,5.743397947021581,9.700571928020715,2,18,0.0,15,183794355421668,6,39.7,-428.3658752441406,0.042100001126527786,0,0.0,0.0,,,,,0,,1,0.0,
Raw,1429535,1116070000000,,,-1330742678359872827,0.5578775405883789,31.317031243816018,5.743397947021581,9.700571928020715,2,20,0.0,15,183794357424256,8,36.4,357.6767272949219,0.04670000076293945,0,0.0,0.0,,,,,0,,1,0.0,
Raw,1429535,1116070000000,,,-1330742678359872827,0.5578775405883789,31.317031243816018,5.743397947021581,9.700571928020715,2,25,0.0,15,183794360666778,9,35.5,341.9771728515625,0.02160000056028366,0,0.0,0.0,,,,,0,,1,0.0,
Raw,1429535,1116070000000,,,-1330742678359872827,0.5578775405883789,31.317031243816018,5.743397947021581,9.700571928020715,2,26,0.0,15,183794348374202,16,29.1,-579.56591796875,0.038700003176927567,0,0.0,0.0,,,,,0,,1,0.0,
Raw,1429536,1116070000000,,,-1330742678359872827,0.5578775405883789,31.317031243816018,5.743397947021581,9.700571928020715,2,29,0.0,15,183794360281004,7,37.1,-221.01620483398438,0.020600000396370888,0,0.0,0.0,,,,,0,,1,0.0,
Raw,1429536,1116070000000,,,-1330742678359872827,0.5578775405883789,31.317031243816018,5.743397947021581,9.700571928020715,2,31,0.0,15,183794347650682,14,30.9,258.85736083984375,0.03629999980330467,0,0.0,0.0,,,,,0,,1,0.0,
Fix,gps,37.427507,-122.170286,-9.505310,0.000000,3.216000,1646708577000
NMEA,$GPGSV,3,1,11,02,28,053,28,05,60,095,36,12,33,163,41,18,34,253,40,1*64
,1646708577007
NMEA,$GPGSV,3,2,11,20,42,056,36,25,61,208,36,26,10,319,29,29,61,334,37,1*61
,1646708577007
NMEA,$GPGSV,3,3,11,31,12,281,31,15,03,150,,23,02,201,,1*5F
,1646708577008
NMEA,$GLGSV,3,1,10,78,38,298,37,86,11,066,22,77,37,220,25,76,04,184,13,1*7F
,1646708577008
NMEA,$GLGSV,3,2,10,79,04,337,20,65,16,147,31,88,38,299,32,87,51,008,37,1*7C
,1646708577010
NMEA,$GLGSV,3,3,10,71,21,043,33,72,33,097,40,1*74
,1646708577010
NMEA,$GAGSV,1,1,0,7*43
,1646708577010
NMEA,$PQGSV,1,1,0,0*43
,1646708577011
NMEA,$GBGSV,1,1,0,0*47
,1646708577011
NMEA,$GNGSA,A,3,02,05,12,18,20,25,26,29,31,,,,1.0,0.6,0.8,1*3B
,1646708577014
NMEA,$GNGSA,A,3,65,71,72,77,78,87,88,,,,,,1.0,0.6,0.8,2*3D
,1646708577014
NMEA,$GNVTG,,T,,M,0.0,N,0.0,K,A*3D
,1646708577014
NMEA,$GNGGA,030257.00,3725.650413,N,12210.217134,W,1,12,0.6,18.4,M,-27.9,M,,*7E
,1646708577015
NMEA,$GNRMC,030257.00,A,3725.650413,N,12210.217134,W,0.0,,080322,15.0,E,A,V*55
,1646708577015
NMEA,$AIDSTAT,0,0,0,2,-5,23,3*00
,1646708577924
Raw,1430560,1117070000000,,,-1330742678359872822,0.3262491226196289,29.56442222057376,6.559551598142151,9.696263107611456,2,14,0.0,207,21777359784730,9,35.7,-133.69415283203125,0.22010000050067902,0,0.0,0.0,,,,,0,,3,0.0,
Raw,1430561,1117070000000,,,-1330742678359872822,0.3262491226196289,29.56442222057376,6.559551598142151,9.696263107611456,2,22,0.0,207,21777351156114,35,22.6,495.25408935546875,1.003000020980835,0,0.0,0.0,,,,,0,,3,0.0,
Raw,1430561,1117070000000,,,-1330742678359872822,0.3262491226196289,29.56442222057376,6.559551598142151,9.696263107611456,2,13,0.0,207,21777359328507,27,24.3,617.6656494140625,0.8649999499320984,0,0.0,0.0,,,,,0,,3,0.0,
Raw,1430561,1117070000000,,,-1330742678359872822,0.3262491226196289,29.56442222057376,6.559551598142151,9.696263107611456,2,12,0.0,207,21777349079557,450,12.5,828.3037109375,12.815000534057617,0,0.0,0.0,,,,,0,,3,0.0,
Raw,1430561,1117070000000,,,-1330742678359872822,0.3262491226196289,29.56442222057376,6.559551598142151,9.696263107611456,2,15,0.0,207,21777349172108,61,18.2,-661.2557373046875,1.2899999618530273,0,0.0,0.0,,,,,0,,3,0.0,
Raw,1430561,1117070000000,,,-1330742678359872822,0.3262491226196289,29.56442222057376,6.559551598142151,9.696263107611456,2,1,0.0,207,21777353617491,14,30.5,-759.6038818359375,0.24529999494552612,0,0.0,0.0,,,,,0,,3,0.0,
Raw,1430561,1117070000000,,,-1330742678359872822,0.3262491226196289,29.56442222057376,6.559551598142151,9.696263107611456,2,24,0.0,207,21777359849081,16,29.3,-282.6109924316406,0.25519999861717224,0,0.0,0.0,,,,,0,,3,0.0,
Raw,1430562,1117070000000,,,-1330742678359872822,0.3262491226196289,29.56442222057376,6.559551598142151,9.696263107611456,2,23,0.0,207,21777362463395,7,37.0,123.55719757080078,0.22360000014305115,0,0.0,0.0,,,,,0,,3,0.0,
Raw,1430562,1117070000000,,,-1330742678359872822,0.3262491226196289,29.56442222057376,6.559551598142151,9.696263107611456,2,7,0.0,207,21777354929788,9,35.5,255.41664123535156,0.24260000884532928,0,0.0,0.0,,,,,0,,3,0.0,
Raw,1430562,1117070000000,,,-1330742678359872822,0.3262491226196289,29.56442222057376,6.559551598142151,9.696263107611456,2,8,0.0,207,21777358455814,6,38.5,-363.31988525390625,0.24710001051425934,0,0.0,0.0,,,,,0,,3,0.0,
Raw,1430562,1117070000000,,,-1330742678359872822,0.3262491226196289,29.56442222057376,6.559551598142151,9.696263107611456,2,2,0.0,15,183795350749551,14,30.6,463.0555725097656,0.040800001472234726,0,0.0,0.0,,,,,0,,1,0.0,
Raw,1430562,1117070000000,,,-1330742678359872822,0.3262491226196289,29.56442222057376,6.559551598142151,9.696263107611456,2,5,0.0,15,183795360856823,9,35.4,-0.13396918773651123,0.02160000056028366,0,0.0,0.0,,,,,0,,1,0.0,
Raw,1430562,1117070000000,,,-1330742678359872822,0.3262491226196289,29.56442222057376,6.559551598142151,9.696263107611456,2,12,0.0,15,183795353998370,6,38.4,666.0026245117188,0.03959999978542328,0,0.0,0.0,,,,,0,,1,0.0,
Raw,1430562,1117070000000,,,-1330742678359872822,0.3262491226196289,29.56442222057376,6.559551598142151,9.696263107611456,2,18,0.0,15,183795355423130,8,36.5,-428.395751953125,0.04370000213384628,0,0.0,0.0,,,,,0,,1,0.0,
Raw,1430562,1117070000000,,,-1330742678359872822,0.3262491226196289,29.56442222057376,6.559551598142151,9.696263107611456,2,20,0.0,15,183795357423060,7,37.0,357.5779113769531,0.04610000178217888,0,0.0,0.0,,,,,0,,1,0.0,
Raw,1430562,1117070000000,,,-1330742678359872822,0.3262491226196289,29.56442222057376,6.559551598142151,9.696263107611456,2,25,0.0,15,183795360665614,9,35.2,341.9159851074219,0.02160000056028366,0,0.0,0.0,,,,,0,,1,0.0,
Raw,1430562,1117070000000,,,-1330742678359872822,0.3262491226196289,29.56442222057376,6.559551598142151,9.696263107611456,2,26,0.0,15,183795348376173,21,26.7,-579.531494140625,0.12319999933242798,0,0.0,0.0,,,,,0,,1,0.0,
Raw,1430563,1117070000000,,,-1330742678359872822,0.3262491226196289,29.56442222057376,6.559551598142151,9.696263107611456,2,29,0.0,15,183795360281756,8,36.2,-221.0276336669922,0.02120000123977661,0,0.0,0.0,,,,,0,,1,0.0,
Raw,1430564,1117070000000,,,-1330742678359872822,0.3262491226196289,29.56442222057376,6.559551598142151,9.696263107611456,2,31,0.0,15,183795347649775,14,30.5,258.9087829589844,0.03629999980330467,0,0.0,0.0,,,,,0,,1,0.0,
Fix,gps,37.427506,-122.170285,-9.446503,0.000000,3.216000,1646708578000
NMEA,$GPGSV,3,1,11,02,28,053,31,05,60,095,35,12,33,163,38,18,34,253,37,1*61
,1646708578002
NMEA,$GPGSV,3,2,11,20,42,056,37,25,61,208,35,26,10,319,27,29,61,334,36,1*6C
,1646708578004
NMEA,$GPGSV,3,3,11,31,12,281,31,15,03,150,,23,02,201,,1*5F
,1646708578007
NMEA,$GLGSV,3,1,10,78,38,298,36,86,11,066,23,77,37,220,24,76,04,184,13,1*7E
,1646708578008
NMEA,$GLGSV,3,2,10,79,04,337,18,65,16,147,31,88,38,299,29,87,51,008,37,1*7D
,1646708578009
NMEA,$GLGSV,3,3,10,71,21,043,36,72,33,097,39,1*7F
,1646708578009
NMEA,$GAGSV,1,1,0,7*43
,1646708578009
NMEA,$PQGSV,1,1,0,0*43
,1646708578011
NMEA,$GBGSV,1,1,0,0*47
,1646708578011
NMEA,$GNGSA,A,3,02,05,12,18,20,25,26,29,31,,,,1.0,0.6,0.8,1*3B
,1646708578019
NMEA,$GNGSA,A,3,65,71,72,77,78,87,88,,,,,,1.0,0.6,0.8,2*3D
,1646708578019
NMEA,$GNVTG,,T,,M,0.0,N,0.0,K,A*3D
,1646708578019
NMEA,$GNGGA,030258.00,3725.650383,N,12210.217120,W,1,12,0.6,18.5,M,-27.9,M,,*7B
,1646708578020
NMEA,$GNRMC,030258.00,A,3725.650383,N,12210.217120,W,0.0,,080322,15.0,E,A,V*51
,1646708578020
NMEA,$AIDSTAT,0,0,0,2,-12,23,3*00
,1646708578925
Raw,1431526,1118070000000,,,-1330742678359872820,0.11438846588134766,30.407754820771515,6.083450403642948,9.611409248031041,2,14,0.0,207,21778359785221,10,34.3,-133.2175750732422,0.22060000896453857,0,0.0,0.0,,,,,0,,3,0.0,
Raw,1431526,1118070000000,,,-1330742678359872820,0.11438846588134766,30.407754820771515,6.083450403642948,9.611409248031041,2,22,0.0,207,21778351154644,46,20.7,494.98248291015625,1.1330000162124634,0,0.0,0.0,,,,,0,,3,0.0,
Raw,1431527,1118070000000,,,-1330742678359872820,0.11438846588134766,30.407754820771515,6.083450403642948,9.611409248031041,2,13,0.0,207,21778359326395,24,25.0,618.6043090820312,0.580299973487854,0,0.0,0.0,,,,,0,,3,0.0,
Raw,1431527,1118070000000,,,-1330742678359872820,0.11438846588134766,30.407754820771515,6.083450403642948,9.611409248031041,2,12,0.0,207,21778349076794,534,12.5,828.3037109375,14.315000534057617,0,0.0,0.0,,,,,0,,3,0.0,
Raw,1431527,1118070000000,,,-1330742678359872820,0.11438846588134766,30.407754820771515,6.083450403642948,9.611409248031041,2,15,0.0,207,21778349174430,46,20.7,-661.3960571289062,1.1299999952316284,0,0.0,0.0,,,,,0,,3,0.0,
Raw,1431527,1118070000000,,,-1330742678359872820,0.11438846588134766,30.407754820771515,6.083450403642948,9.611409248031041,2,1,0.0,207,21778353620042,13,31.0,-759.238037109375,0.24469999969005585,0,0.0,0.0,,,,,0,,3,0.0,
Raw,1431527,1118070000000,,,-1330742678359872820,0.11438846588134766,30.407754820771515,6.083450403642948,9.611409248031041,2,24,0.0,207,21778359850031,21,26.9,-282.29364013671875,0.33970001339912415,0,0.0,0.0,,,,,0,,3,0.0,
Raw,1431528,1118070000000,,,-1330742678359872820,0.11438846588134766,30.407754820771515,6.083450403642948,9.611409248031041,2,23,0.0,207,21778362462984,7,37.1,123.89973449707031,0.22360000014305115,0,0.0,0.0,,,,,0,,3,0.0,
Raw,1431528,1118070000000,,,-1330742678359872820,0.11438846588134766,30.407754820771515,6.083450403642948,9.611409248031041,2,7,0.0,207,21778354928892,9,35.7,255.86447143554688,0.24260000884532928,0,0.0,0.0,,,,,0,,3,0.0,
Raw,1431528,1118070000000,,,-1330742678359872820,0.11438846588134766,30.407754820771515,6.083450403642948,9.611409248031041,2,8,0.0,207,21778358456991,6,39.6,-362.8605651855469,0.24660000205039978,0,0.0,0.0,,,,,0,,3,0.0,
Raw,1431528,1118070000000,,,-1330742678359872820,0.11438846588134766,30.407754820771515,6.083450403642948,9.611409248031041,2,2,0.0,15,183796350747997,16,29.4,463.3289489746094,0.04170000180602074,0,0.0,0.0,,,,,0,,1,0.0,
Raw,1431529,1118070000000,,,-1330742678359872820,0.11438846588134766,30.407754820771515,6.083450403642948,9.611409248031041,2,5,0.0,15,183796360856803,9,35.1,0.3494951128959656,0.02160000056028366,0,0.0,0.0,,,,,0,,1,0.0,
Raw,1431529,1118070000000,,,-1330742678359872820,0.11438846588134766,30.407754820771515,6.083450403642948,9.611409248031041,2,12,0.0,15,183796353996133,6,38.7,666.4301147460938,0.03959999978542328,0,0.0,0.0,,,,,0,,1,0.0,
Raw,1431529,1118070000000,,,-1330742678359872820,0.11438846588134766,30.407754820771515,6.083450403642948,9.611409248031041,2,18,0.0,15,183796355424556,8,36.2,-428.025146484375,0.04370000213384628,0,0.0,0.0,,,,,0,,1,0.0,
Raw,1431529,1118070000000,,,-1330742678359872820,0.11438846588134766,30.407754820771515,6.083450403642948,9.611409248031041,2,20,0.0,15,183796357421879,7,37.6,358.01080322265625,0.04610000178217888,0,0.0,0.0,,,,,0,,1,0.0,
Raw,1431529,1118070000000,,,-1330742678359872820,0.11438846588134766,30.407754820771515,6.083450403642948,9.611409248031041,2,25,0.0,15,183796360664512,11,33.2,342.4490966796875,0.02290000021457672,0,0.0,0.0,,,,,0,,1,0.0,
Raw,1431530,1118070000000,,,-1330742678359872820,0.11438846588134766,30.407754820771515,6.083450403642948,9.611409248031041,2,26,0.0,15,183796348378173,21,26.5,-579.2811889648438,0.12319999933242798,0,0.0,0.0,,,,,0,,1,0.0,
Raw,1431530,1118070000000,,,-1330742678359872820,0.11438846588134766,30.407754820771515,6.083450403642948,9.611409248031041,2,29,0.0,15,183796360282501,9,35.0,-220.67543029785156,0.02160000056028366,0,0.0,0.0,,,,,0,,1,0.0,
Raw,1431530,1118070000000,,,-1330742678359872820,0.11438846588134766,30.407754820771515,6.083450403642948,9.611409248031041,2,31,0.0,15,183796347648884,12,32.2,259.22479248046875,0.03440000116825104,0,0.0,0.0,,,,,0,,1,0.0,
Fix,gps,37.427506,-122.170286,-9.398590,0.000000,3.216000,1646708579000
NMEA,$GPGSV,3,1,11,02,28,053,29,05,60,095,35,12,33,163,39,18,34,253,36,1*68
,1646708578998
NMEA,$GPGSV,3,2,11,20,42,056,38,25,61,208,33,26,10,319,27,29,61,334,35,1*66
,1646708578999
NMEA,$GPGSV,3,3,11,31,12,281,32,15,03,150,,23,02,201,,1*5C
,1646708578999
NMEA,$GLGSV,3,1,10,78,38,298,34,86,11,066,21,77,37,220,25,76,04,184,13,1*7F
,1646708578999
NMEA,$GLGSV,3,2,10,79,04,337,21,65,16,147,31,88,38,299,27,87,51,008,37,1*79
,1646708578999
NMEA,$GLGSV,3,3,10,71,21,043,36,72,33,097,40,1*71
,1646708579001
NMEA,$GAGSV,1,1,0,7*43
,1646708579004
NMEA,$PQGSV,1,1,0,0*43
,1646708579005
NMEA,$GBGSV,1,1,0,0*47
,1646708579005
NMEA,$GNGSA,A,3,02,05,12,18,20,25,26,29,31,,,,1.0,0.6,0.8,1*3B
,1646708579015
NMEA,$GNGSA,A,3,65,71,72,77,78,87,88,,,,,,1.0,0.6,0.8,2*3D
,1646708579015
NMEA,$GNVTG,,T,,M,0.0,N,0.0,K,A*3D
,1646708579015
NMEA,$GNGGA,030259.00,3725.650349,N,12210.217176,W,1,12,0.6,18.5,M,-27.9,M,,*7F
,1646708579015
NMEA,$GNRMC,030259.00,A,3725.650349,N,12210.217176,W,0.0,,080322,15.0,E,A,V*55
,1646708579015
NMEA,$AIDSTAT,0,0,0,2,-15,23,3*00
,1646708579925
Raw,1432552,1119070000000,,,-1330742678359872819,0.7386150360107422,33.66180681041442,6.848652134132216,9.697941145829164,2,14,0.0,207,21779359785649,9,35.4,-133.50209045410156,0.22010000050067902,0,0.0,0.0,,,,,0,,3,0.0,
Raw,1432552,1119070000000,,,-1330742678359872819,0.7386150360107422,33.66180681041442,6.848652134132216,9.697941145829164,2,22,0.0,207,21779351152888,35,22.0,495.3852844238281,1.003000020980835,0,0.0,0.0,,,,,0,,3,0.0,
Raw,1432552,1119070000000,,,-1330742678359872819,0.7386150360107422,33.66180681041442,6.848652134132216,9.697941145829164,2,13,0.0,207,21779359324314,27,24.8,618.1525268554688,0.8649999499320984,0,0.0,0.0,,,,,0,,3,0.0,
Raw,1432552,1119070000000,,,-1330742678359872819,0.7386150360107422,33.66180681041442,6.848652134132216,9.697941145829164,2,12,0.0,207,21779349074113,139,13.1,827.9107055664062,3.8500001430511475,0,0.0,0.0,,,,,0,,3,0.0,
Raw,1432553,1119070000000,,,-1330742678359872819,0.7386150360107422,33.66180681041442,6.848652134132216,9.697941145829164,2,15,0.0,207,21779349176456,61,18.3,-661.2183227539062,1.2899999618530273,0,0.0,0.0,,,,,0,,3,0.0,
Raw,1432553,1119070000000,,,-1330742678359872819,0.7386150360107422,33.66180681041442,6.848652134132216,9.697941145829164,2,1,0.0,207,21779353622541,13,31.7,-759.5655517578125,0.24469999969005585,0,0.0,0.0,,,,,0,,3,0.0,
Raw,1432553,1119070000000,,,-1330742678359872819,0.7386150360107422,33.66180681041442,6.848652134132216,9.697941145829164,2,24,0.0,207,21779359850923,17,28.6,-282.7135009765625,0.26180002093315125,0,0.0,0.0,,,,,0,,3,0.0,
Raw,1432553,1119070000000,,,-1330742678359872819,0.7386150360107422,33.66180681041442,6.848652134132216,9.697941145829164,2,23,0.0,207,21779362462573,7,37.2,123.51747131347656,0.22360000014305115,0,0.0,0.0,,,,,0,,3,0.0,
Raw,1432554,1119070000000,,,-1330742678359872819,0.7386150360107422,33.66180681041442,6.848652134132216,9.697941145829164,2,7,0.0,207,21779354928058,8,36.5,255.58799743652344,0.24220001697540283,0,0.0,0.0,,,,,0,,3,0.0,
Raw,1432554,1119070000000,,,-1330742678359872819,0.7386150360107422,33.66180681041442,6.848652134132216,9.697941145829164,2,8,0.0,207,21779358458245,6,39.7,-363.09320068359375,0.24660000205039978,0,0.0,0.0,,,,,0,,3,0.0,
Raw,1432554,1119070000000,,,-1330742678359872819,0.7386150360107422,33.66180681041442,6.848652134132216,9.697941145829164,2,2,0.0,15,183797350746440,13,31.6,462.9019470214844,0.04020000249147415,0,0.0,0.0,,,,,0,,1,0.0,
Raw,1432554,1119070000000,,,-1330742678359872819,0.7386150360107422,33.66180681041442,6.848652134132216,9.697941145829164,2,5,0.0,15,183797360856800,11,33.3,0.07099305838346481,0.02290000021457672,0,0.0,0.0,,,,,0,,1,0.0,
Raw,1432554,1119070000000,,,-1330742678359872819,0.7386150360107422,33.66180681041442,6.848652134132216,9.697941145829164,2,12,0.0,15,183797353993915,6,38.7,666.1013793945312,0.03959999978542328,0,0.0,0.0,,,,,0,,1,0.0,
Raw,1432554,1119070000000,,,-1330742678359872819,0.7386150360107422,33.66180681041442,6.848652134132216,9.697941145829164,2,18,0.0,15,183797355425953,6,38.3,-428.38323974609375,0.04260000213980675,0,0.0,0.0,,,,,0,,1,0.0,
Raw,1432554,1119070000000,,,-1330742678359872819,0.7386150360107422,33.66180681041442,6.848652134132216,9.697941145829164,2,20,0.0,15,183797357420682,7,37.5,357.7055358886719,0.04610000178217888,0,0.0,0.0,,,,,0,,1,0.0,
Raw,1432554,1119070000000,,,-1330742678359872819,0.7386150360107422,33.66180681041442,6.848652134132216,9.697941145829164,2,25,0.0,15,183797360663363,12,32.1,342.1104431152344,0.023900000378489494,0,0.0,0.0,,,,,0,,1,0.0,
Raw,1432554,1119070000000,,,-1330742678359872819,0.7386150360107422,33.66180681041442,6.848652134132216,9.697941145829164,2,26,0.0,15,183797348380103,24,25.6,-579.6402587890625,0.3937999904155731,0,0.0,0.0,,,,,0,,1,0.0,
Raw,1432554,1119070000000,,,-1330742678359872819,0.7386150360107422,33.66180681041442,6.848652134132216,9.697941145829164,2,29,0.0,15,183797360283216,8,36.7,-221.0810546875,0.02120000123977661,0,0.0,0.0,,,,,0,,1,0.0,
Raw,1432554,1119070000000,,,-1330742678359872819,0.7386150360107422,33.66180681041442,6.848652134132216,9.697941145829164,2,31,0.0,15,183797347648028,13,31.9,258.98370361328125,0.0357000008225441,0,0.0,0.0,,,,,0,,1,0.0,
Fix,gps,37.427505,-122.170287,-9.154968,0.000000,3.216000,1646708580000
NMEA,$GPGSV,3,1,11,02,28,053,32,05,60,095,33,12,33,163,39,18,34,253,38,1*6A
,1646708579998
NMEA,$GPGSV,3,2,11,20,42,056,38,25,61,208,32,26,10,319,26,29,61,334,37,1*64
,1646708579998
NMEA,$GPGSV,3,3,11,31,12,281,32,15,03,150,,23,02,201,,1*5C
,1646708579998
NMEA,$GLGSV,3,1,10,78,38,298,35,86,11,066,22,77,37,220,25,76,04,184,13,1*7D
,1646708579998
NMEA,$GLGSV,3,2,10,79,04,337,18,65,16,147,32,88,38,299,29,87,51,008,37,1*7E
,1646708579998
NMEA,$GLGSV,3,3,10,71,21,043,37,72,33,097,40,1*70
,1646708579999
NMEA,$GAGSV,1,1,0,7*43
,1646708579999
NMEA,$PQGSV,1,1,0,0*43
,1646708579999
NMEA,$GBGSV,1,1,0,0*47
,1646708580000
NMEA,$GNGSA,A,3,02,05,12,18,20,25,26,29,31,,,,1.0,0.6,0.8,1*3B
,1646708580009
NMEA,$GNGSA,A,3,65,71,72,77,78,87,88,,,,,,1.0,0.6,0.8,2*3D
,1646708580010
NMEA,$GNVTG,,T,,M,0.0,N,0.0,K,A*3D
,1646708580010
NMEA,$GNGGA,030300.00,3725.650315,N,12210.217241,W,1,12,0.6,18.8,M,-27.9,M,,*71
,1646708580011
NMEA,$GNRMC,030300.00,A,3725.650315,N,12210.217241,W,0.0,,080322,15.0,E,A,V*56
,1646708580011
NMEA,$AIDSTAT,0,0,0,2,,23,3*00
,1646708580926
Raw,1433526,1120070000000,,,-1330742678359872808,0.2588348388671875,33.99658089620061,5.829587874945952,9.611243034766822,2,14,0.0,207,21780359786085,8,36.1,-133.3123016357422,0.21970000863075256,0,0.0,0.0,,,,,0,,3,0.0,
Raw,1433526,1120070000000,,,-1330742678359872808,0.2588348388671875,33.99658089620061,5.829587874945952,9.611243034766822,2,22,0.0,207,21780351151321,40,21.2,495.029296875,1.062999963760376,0,0.0,0.0,,,,,0,,3,0.0,
Raw,1433526,1120070000000,,,-1330742678359872808,0.2588348388671875,33.99658089620061,5.829587874945952,9.611243034766822,2,13,0.0,207,21780359322300,31,23.1,618.1712646484375,0.9249999523162842,0,0.0,0.0,,,,,0,,3,0.0,
Raw,1433526,1120070000000,,,-1330742678359872808,0.2588348388671875,33.99658089620061,5.829587874945952,9.611243034766822,2,12,0.0,207,21780349071351,164,13.1,827.9107055664062,5.350000381469727,0,0.0,0.0,,,,,0,,3,0.0,
Raw,1433527,1120070000000,,,-1330742678359872808,0.2588348388671875,33.99658089620061,5.829587874945952,9.611243034766822,2,15,0.0,207,21780349178325,80,16.8,-661.4802856445312,1.4700000286102295,0,0.0,0.0,,,,,0,,3,0.0,
Raw,1433527,1120070000000,,,-1330742678359872808,0.2588348388671875,33.99658089620061,5.829587874945952,9.611243034766822,2,1,0.0,207,21780353625100,14,30.9,-759.5821533203125,0.24529999494552612,0,0.0,0.0,,,,,0,,3,0.0,
Raw,1433527,1120070000000,,,-1330742678359872808,0.2588348388671875,33.99658089620061,5.829587874945952,9.611243034766822,2,24,0.0,207,21780359851835,16,29.7,-282.7042236328125,0.25519999861717224,0,0.0,0.0,,,,,0,,3,0.0,
Raw,1433527,1120070000000,,,-1330742678359872808,0.2588348388671875,33.99658089620061,5.829587874945952,9.611243034766822,2,23,0.0,207,21780362462162,7,37.5,123.5692367553711,0.22360000014305115,0,0.0,0.0,,,,,0,,3,0.0,
Raw,1433527,1120070000000,,,-1330742678359872808,0.2588348388671875,33.99658089620061,5.829587874945952,9.611243034766822,2,7,0.0,207,21780354927200,10,34.6,255.7217559814453,0.24310001730918884,0,0.0,0.0,,,,,0,,3,0.0,
Raw,1433527,1120070000000,,,-1330742678359872808,0.2588348388671875,33.99658089620061,5.829587874945952,9.611243034766822,2,8,0.0,207,21780358459483,7,37.1,-362.9971008300781,0.2476000040769577,0,0.0,0.0,,,,,0,,3,0.0,
Raw,1433527,1120070000000,,,-1330742678359872808,0.2588348388671875,33.99658089620061,5.829587874945952,9.611243034766822,2,2,0.0,15,183798350744938,17,28.7,462.917724609375,0.04830000177025795,0,0.0,0.0,,,,,0,,1,0.0,
Raw,1433528,1120070000000,,,-1330742678359872808,0.2588348388671875,33.99658089620061,5.829587874945952,9.611243034766822,2,5,0.0,15,183798360856818,10,34.4,0.16085118055343628,0.022099999710917473,0,0.0,0.0,,,,,0,,1,0.0,
Raw,1433528,1120070000000,,,-1330742678359872808,0.2588348388671875,33.99658089620061,5.829587874945952,9.611243034766822,2,12,0.0,15,183798353991673,6,39.7,666.107421875,0.039100002497434616,0,0.0,0.0,,,,,0,,1,0.0,
Raw,1433528,1120070000000,,,-1330742678359872808,0.2588348388671875,33.99658089620061,5.829587874945952,9.611243034766822,2,18,0.0,15,183798355427379,6,39.3,-428.3650817871094,0.042100001126527786,0,0.0,0.0,,,,,0,,1,0.0,
Raw,1433528,1120070000000,,,-1330742678359872808,0.2588348388671875,33.99658089620061,5.829587874945952,9.611243034766822,2,20,0.0,15,183798357419497,10,34.8,357.74859619140625,0.047600001096725464,0,0.0,0.0,,,,,0,,1,0.0,
Raw,1433528,1120070000000,,,-1330742678359872808,0.2588348388671875,33.99658089620061,5.829587874945952,9.611243034766822,2,25,0.0,15,183798360662223,14,30.8,342.19171142578125,0.025800000876188278,0,0.0,0.0,,,,,0,,1,0.0,
Raw,1433528,1120070000000,,,-1330742678359872808,0.2588348388671875,33.99658089620061,5.829587874945952,9.611243034766822,2,26,0.0,15,183798348381957,17,28.9,-579.619140625,0.04529999941587448,0,0.0,0.0,,,,,0,,1,0.0,
Raw,1433528,1120070000000,,,-1330742678359872808,0.2588348388671875,33.99658089620061,5.829587874945952,9.611243034766822,2,29,0.0,15,183798360283943,8,36.4,-221.05099487304688,0.02120000123977661,0,0.0,0.0,,,,,0,,1,0.0,
Raw,1433528,1120070000000,,,-1330742678359872808,0.2588348388671875,33.99658089620061,5.829587874945952,9.611243034766822,2,31,0.0,15,183798347647190,13,31.6,259.0296630859375,0.0357000008225441,0,0.0,0.0,,,,,0,,1,0.0,
Fix,gps,37.427505,-122.170287,-8.888275,0.000000,3.216000,1646708581000
NMEA,$GPGSV,3,1,11,02,28,053,29,05,60,095,34,12,33,163,40,18,34,253,39,1*68
,1646708581000
NMEA,$GPGSV,3,2,11,20,42,056,35,25,61,208,31,26,10,319,29,29,61,334,36,1*64
,1646708581000
NMEA,$GPGSV,3,3,11,31,12,281,32,15,03,150,,23,02,201,,1*5C
,1646708581000
NMEA,$GLGSV,3,1,10,78,38,298,36,86,11,066,21,77,37,220,23,76,04,184,13,1*7B
,1646708581001
NMEA,$GLGSV,3,2,10,79,04,337,17,65,16,147,31,88,38,299,30,87,51,008,38,1*75
,1646708581001
NMEA,$GLGSV,3,3,10,71,21,043,35,72,33,097,37,1*72
,1646708581001
NMEA,$GAGSV,1,1,0,7*43
,1646708581001
NMEA,$PQGSV,1,1,0,0*43
,1646708581001
NMEA,$GBGSV,1,1,0,0*47
,1646708581002
NMEA,$GNGSA,A,3,02,05,12,18,20,25,26,29,31,,,,1.0,0.6,0.8,1*3B
,1646708581008
NMEA,$GNGSA,A,3,65,71,72,77,78,87,88,,,,,,1.0,0.6,0.8,2*3D
,1646708581008
NMEA,$GNVTG,,T,,M,0.0,N,0.0,K,A*3D
,1646708581008
NMEA,$GNGGA,030301.00,3725.650290,N,12210.217239,W,1,12,0.6,19.0,M,-27.9,M,,*7A
,1646708581009
NMEA,$GNRMC,030301.00,A,3725.650290,N,12210.217239,W,0.0,,080322,15.0,E,A,V*54
,1646708581009
NMEA,$AIDSTAT,0,0,0,2,-3,23,3*00
,1646708581926
Raw,1434555,1121070000000,,,-1330742678359872800,0.8717060089111328,32.55549381719902,5.725472363406835,9.696645636702792,2,14,0.0,207,21781359786536,7,37.3,-133.5367889404297,0.2190999984741211,0,0.0,0.0,,,,,0,,3,0.0,
Raw,1434555,1121070000000,,,-1330742678359872800,0.8717060089111328,32.55549381719902,5.725472363406835,9.696645636702792,2,22,0.0,207,21781351149702,53,19.4,494.645263671875,1.2130000591278076,0,0.0,0.0,,,,,0,,3,0.0,
Raw,1434555,1121070000000,,,-1330742678359872800,0.8717060089111328,32.55549381719902,5.725472363406835,9.696645636702792,2,13,0.0,207,21781359320192,24,25.1,617.9952392578125,0.580299973487854,0,0.0,0.0,,,,,0,,3,0.0,
Raw,1434555,1121070000000,,,-1330742678359872800,0.8717060089111328,32.55549381719902,5.725472363406835,9.696645636702792,2,12,0.0,207,21781349068590,199,13.1,827.9107055664062,6.850000381469727,0,0.0,0.0,,,,,0,,3,0.0,
Raw,1434555,1121070000000,,,-1330742678359872800,0.8717060089111328,32.55549381719902,5.725472363406835,9.696645636702792,2,15,0.0,207,21781349181042,46,20.6,-661.6954956054688,1.1299999952316284,0,0.0,0.0,,,,,0,,3,0.0,
Raw,1434555,1121070000000,,,-1330742678359872800,0.8717060089111328,32.55549381719902,5.725472363406835,9.696645636702792,2,1,0.0,207,21781353627614,12,32.8,-759.98681640625,0.24340000748634338,0,0.0,0.0,,,,,0,,3,0.0,
