# 
# Header Description:
# 
# Version: v2.0.0.1 Platform: 9 Manufacturer: samsung Model: SM-G960U
# 
# Raw,ElapsedRealtimeMillis,TimeNanos,LeapSecond,TimeUncertaintyNanos,FullBiasNanos,BiasNanos,BiasUncertaintyNanos,DriftNanosPerSecond,DriftUncertaintyNanosPerSecond,HardwareClockDiscontinuityCount,Svid,TimeOffsetNanos,State,ReceivedSvTimeNanos,ReceivedSvTimeUncertaintyNanos,Cn0DbHz,PseudorangeRateMetersPerSecond,PseudorangeRateUncertaintyMetersPerSecond,AccumulatedDeltaRangeState,AccumulatedDeltaRangeMeters,AccumulatedDeltaRangeUncertaintyMeters,CarrierFrequencyHz,CarrierCycles,CarrierPhase,CarrierPhaseUncertainty,MultipathIndicator,SnrInDb,ConstellationType,AgcDb,CarrierFrequencyHz
# 
# Fix,Provider,Latitude,Longitude,Altitude,Speed,Accuracy,(UTC)TimeInMs
# 
# Nav,Svid,Type,Status,MessageId,Sub-messageId,Data(Bytes)
# 
NMEA,$AIDSTAT,0,0,0,2,5,23,3*00
,1646708506925
Raw,1359512,1046070000000,,,-1330742678359872943,9.946823120117188E-4,37.991154385963455,1.8609559149792296,12.75214486810774,2,14,0.0,207,21706359751400,7,37.3,-147.54530334472656,0.2190999984741211,0,0.0,0.0,,,,,0,,3,0.0,
Raw,1359512,1046070000000,,,-1330742678359872943,9.946823120117188E-4,37.991154385963455,1.8609559149792296,12.75214486810774,2,22,0.0,207,21706351273365,142,20.7,493.0810546875,7.133000373840332,0,0.0,0.0,,,,,0,,3,0.0,
Raw,1359512,1046070000000,,,-1330742678359872943,9.946823120117188E-4,37.991154385963455,1.8609559149792296,12.75214486810774,2,13,0.0,207,21706359473767,21,26.4,608.8265380859375,0.30970001220703125,0,0.0,0.0,,,,,0,,3,0.0,
Raw,1359513,1046070000000,,,-1330742678359872943,9.946823120117188E-4,37.991154385963455,1.8609559149792296,12.75214486810774,2,12,0.0,207,21706349275655,233,14.9,827.3771362304688,8.440000534057617,0,0.0,0.0,,,,,0,,3,0.0,
Raw,1359513,1046070000000,,,-1330742678359872943,9.946823120117188E-4,37.991154385963455,1.8609559149792296,12.75214486810774,2,15,0.0,207,21706349014525,126,13.3,-669.237060546875,2.56000018119812,0,0.0,0.0,,,,,0,,3,0.0,
Raw,1359513,1046070000000,,,-1330742678359872943,9.946823120117188E-4,37.991154385963455,1.8609559149792296,12.75214486810774,2,1,0.0,207,21706353437004,35,22.3,-763.26708984375,1.0059999227523804,0,0.0,0.0,,,,,0,,3,0.0,
Raw,1359513,1046070000000,,,-1330742678359872943,9.946823120117188E-4,37.991154385963455,1.8609559149792296,12.75214486810774,2,24,0.0,207,21706359781454,7,37.1,-287.3390808105469,0.249099999666214,0,0.0,0.0,,,,,0,,3,0.0,
Raw,1359513,1046070000000,,,-1330742678359872943,9.946823120117188E-4,37.991154385963455,1.8609559149792296,12.75214486810774,2,23,0.0,207,21706362491996,21,26.2,118.7562026977539,0.3141999840736389,0,0.0,0.0,,,,,0,,3,0.0,
Raw,1359514,1046070000000,,,-1330742678359872943,9.946823120117188E-4,37.991154385963455,1.8609559149792296,12.75214486810774,2,7,0.0,207,21706354988633,11,33.6,242.63922119140625,0.24390001595020294,0,0.0,0.0,,,,,0,,3,0.0,
Raw,1359514,1046070000000,,,-1330742678359872943,9.946823120117188E-4,37.991154385963455,1.8609559149792296,12.75214486810774,2,8,0.0,207,21706358368448,53,19.1,-375.0638732910156,1.2235000133514404,0,0.0,0.0,,,,,0,,3,0.0,
Raw,1359514,1046070000000,,,-1330742678359872943,9.946823120117188E-4,37.991154385963455,1.8609559149792296,12.75214486810774,2,2,0.0,15,183724350858923,46,20.7,460.7961120605469,0.8014999628067017,0,0.0,0.0,,,,,0,,1,0.0,
Raw,1359514,1046070000000,,,-1330742678359872943,9.946823120117188E-4,37.991154385963455,1.8609559149792296,12.75214486810774,2,12,0.0,15,183724354155382,12,32.7,660.3091430664062,0.04490000009536743,0,0.0,0.0,,,,,0,,1,0.0,
Raw,1359514,1046070000000,,,-1330742678359872943,9.946823120117188E-4,37.991154385963455,1.8609559149792296,12.75214486810774,2,18,0.0,15,183724355320870,13,31.1,-434.2507629394531,0.047700002789497375,0,0.0,0.0,,,,,0,,1,0.0,
Raw,1359515,1046070000000,,,-1330742678359872943,9.946823120117188E-4,37.991154385963455,1.8609559149792296,12.75214486810774,2,20,0.0,15,183724357506655,31,23.8,349.2269592285156,0.6420000195503235,0,0.0,0.0,,,,,0,,1,0.0,
Raw,1359515,1046070000000,,,-1330742678359872943,9.946823120117188E-4,37.991154385963455,1.8609559149792296,12.75214486810774,2,25,0.0,15,183724360745403,21,26.3,331.9984130859375,0.1112000048160553,0,0.0,0.0,,,,,0,,1,0.0,
Raw,1359515,1046070000000,,,-1330742678359872943,9.946823120117188E-4,37.991154385963455,1.8609559149792296,12.75214486810774,2,26,0.0,15,183724348238190,24,25.0,-585.5625610351562,0.3937999904155731,0,0.0,0.0,,,,,0,,1,0.0,
Raw,1359515,1046070000000,,,-1330742678359872943,9.946823120117188E-4,37.991154385963455,1.8609559149792296,12.75214486810774,2,29,0.0,15,183724360228642,24,25.3,-226.76756286621094,0.38179999589920044,0,0.0,0.0,,,,,0,,1,0.0,
Raw,1359515,1046070000000,,,-1330742678359872943,9.946823120117188E-4,37.991154385963455,1.8609559149792296,12.75214486810774,2,31,0.0,15,183724347710113,17,28.4,251.01348876953125,0.043800000101327896,0,0.0,0.0,,,,,0,,1,0.0,
Fix,gps,37.427486,-122.170284,-6.699524,0.000000,3.216000,1646708507000
NMEA,$GPGSV,3,1,11,02,28,053,21,12,33,163,33,18,33,253,31,20,43,056,24,1*63
,1646708506998
NMEA,$GPGSV,3,2,11,25,62,209,26,26,09,319,25,29,61,333,25,31,12,282,28,1*63
,1646708506998
NMEA,$GPGSV,3,3,11,05,60,097,,15,02,151,,23,01,201,,1*59
,1646708506999
NMEA,$GLGSV,3,1,10,78,37,299,37,86,11,066,21,77,37,222,26,76,04,184,15,1*75
,1646708506999
NMEA,$GLGSV,3,2,10,79,03,337,13,65,15,149,22,88,37,298,37,87,52,005,26,1*71
,1646708506999
NMEA,$GLGSV,3,3,10,71,21,043,34,72,33,098,19,1*70
,1646708506999
NMEA,$GAGSV,1,1,0,7*43
,1646708506999
NMEA,$PQGSV,1,1,0,0*43
,1646708506999
NMEA,$GBGSV,1,1,0,0*47
,1646708507000
NMEA,$GNGSA,A,3,02,05,12,18,20,25,26,29,31,,,,1.0,0.7,0.8,1*3A
,1646708507002
NMEA,$GNGSA,A,3,65,71,72,78,87,88,,,,,,,1.0,0.7,0.8,2*3C
,1646708507006
NMEA,$GNVTG,,T,,M,0.0,N,0.0,K,A*3D
,1646708507007
NMEA,$GNGGA,030147.00,3725.649189,N,12210.217016,W,1,12,0.7,21.2,M,-27.9,M,,*7E
,1646708507007
NMEA,$GNRMC,030147.00,A,3725.649189,N,12210.217016,W,0.0,,080322,15.0,E,A,V*58
,1646708507007
NMEA,$AIDSTAT,0,0,0,2,,23,3*00
,1646708507926
NMEA,$GPGSV,3,1,11,02,28,053,18,05,60,097,24,12,33,163,31,18,33,253,34,1*65
,1646708508000
Raw,1360532,1047070000000,,,-1330742678359872945,0.24265766143798828,44.20744880917482,-0.5692023435130595,13.565967159495983,2,14,0.0,207,21707359751893,16,29.3,-147.4400634765625,0.22519999742507935,0,0.0,0.0,,,,,0,,3,0.0,
Raw,1360532,1047070000000,,,-1330742678359872945,0.24265766143798828,44.20744880917482,-0.5692023435130595,13.565967159495983,2,22,0.0,207,21707351271721,190,20.7,493.0810546875,8.633000373840332,0,0.0,0.0,,,,,0,,3,0.0,
Raw,1360533,1047070000000,,,-1330742678359872945,0.24265766143798828,44.20744880917482,-0.5692023435130595,13.565967159495983,2,13,0.0,207,21707359471674,27,24.2,609.0419311523438,0.8649999499320984,0,0.0,0.0,,,,,0,,3,0.0,
Raw,1360533,1047070000000,,,-1330742678359872945,0.24265766143798828,44.20744880917482,-0.5692023435130595,13.565967159495983,2,12,0.0,207,21707349272895,289,14.9,827.3771362304688,9.940000534057617,0,0.0,0.0,,,,,0,,3,0.0,
Raw,1360533,1047070000000,,,-1330742678359872945,0.24265766143798828,44.20744880917482,-0.5692023435130595,13.565967159495983,2,15,0.0,207,21707349016757,142,13.3,-669.237060546875,4.060000419616699,0,0.0,0.0,,,,,0,,3,0.0,
Raw,1360533,1047070000000,,,-1330742678359872945,0.24265766143798828,44.20744880917482,-0.5692023435130595,13.565967159495983,2,1,0.0,207,21707353439550,43,22.3,-763.26708984375,2.50600004196167,0,0.0,0.0,,,,,0,,3,0.0,
Raw,1360533,1047070000000,,,-1330742678359872945,0.24265766143798828,44.20744880917482,-0.5692023435130595,13.565967159495983,2,24,0.0,207,21707359782457,14,30.1,-287.2445373535156,0.25429999828338623,0,0.0,0.0,,,,,0,,3,0.0,
Raw,1360534,1047070000000,,,-1330742678359872945,0.24265766143798828,44.20744880917482,-0.5692023435130595,13.565967159495983,2,23,0.0,207,21707362491630,31,23.7,119.19259643554688,0.9294999837875366,0,0.0,0.0,,,,,0,,3,0.0,
Raw,1360534,1047070000000,,,-1330742678359872945,0.24265766143798828,44.20744880917482,-0.5692023435130595,13.565967159495983,2,7,0.0,207,21707354987794,19,27.3,242.85887145996094,0.2623000144958496,0,0.0,0.0,,,,,0,,3,0.0,
Raw,1360534,1047070000000,,,-1330742678359872945,0.24265766143798828,44.20744880917482,-0.5692023435130595,13.565967159495983,2,8,0.0,207,21707358369551,31,23.2,-374.6623840332031,0.953499972820282,0,0.0,0.0,,,,,0,,3,0.0,
Raw,1360534,1047070000000,,,-1330742678359872945,0.24265766143798828,44.20744880917482,-0.5692023435130595,13.565967159495983,2,2,0.0,15,183725350857298,70,17.5,461.89031982421875,1.0115000009536743,0,0.0,0.0,,,,,0,,1,0.0,
Raw,1360535,1047070000000,,,-1330742678359872945,0.24265766143798828,44.20744880917482,-0.5692023435130595,13.565967159495983,2,5,0.0,15,183725360855454,31,23.9,-11.807722091674805,0.8085000514984131,0,0.0,0.0,,,,,0,,1,0.0,
Raw,1360535,1047070000000,,,-1330742678359872945,0.24265766143798828,44.20744880917482,-0.5692023435130595,13.565967159495983,2,12,0.0,15,183725354153168,13,31.4,660.5396728515625,0.04620000347495079,0,0.0,0.0,,,,,0,,1,0.0,
Raw,1360535,1047070000000,,,-1330742678359872945,0.24265766143798828,44.20744880917482,-0.5692023435130595,13.565967159495983,2,18,0.0,15,183725355322350,11,33.6,-434.2330017089844,0.04540000110864639,0,0.0,0.0,,,,,0,,1,0.0,
Raw,1360535,1047070000000,,,-1330742678359872945,0.24265766143798828,44.20744880917482,-0.5692023435130595,13.565967159495983,2,20,0.0,15,183725357505432,46,20.8,348.399169921875,0.8119999766349792,0,0.0,0.0,,,,,0,,1,0.0,
Raw,1360535,1047070000000,,,-1330742678359872945,0.24265766143798828,44.20744880917482,-0.5692023435130595,13.565967159495983,2,25,0.0,15,183725360744291,16,29.3,332.1504211425781,0.02670000120997429,0,0.0,0.0,,,,,0,,1,0.0,
Raw,1360536,1047070000000,,,-1330742678359872945,0.24265766143798828,44.20744880917482,-0.5692023435130595,13.565967159495983,2,26,0.0,15,183725348240118,40,21.3,-584.781982421875,0.7384999990463257,0,0.0,0.0,,,,,0,,1,0.0,
Raw,1360536,1047070000000,,,-1330742678359872945,0.24265766143798828,44.20744880917482,-0.5692023435130595,13.565967159495983,2,29,0.0,15,183725360229421,21,26.9,-226.86094665527344,0.1112000048160553,0,0.0,0.0,,,,,0,,1,0.0,
Raw,1360536,1047070000000,,,-1330742678359872945,0.24265766143798828,44.20744880917482,-0.5692023435130595,13.565967159495983,2,31,0.0,15,183725347709336,19,27.6,251.08099365234375,0.05180000141263008,0,0.0,0.0,,,,,0,,1,0.0,
Fix,gps,37.427486,-122.170284,-6.693878,0.000000,3.216000,1646708508000
NMEA,$GPGSV,3,2,11,20,43,056,21,25,62,209,29,26,09,319,21,29,61,333,27,1*6C
,1646708508000
NMEA,$GPGSV,3,3,11,31,12,282,28,15,02,151,,23,01,201,,1*57
,1646708508000
NMEA,$GLGSV,3,1,10,78,37,299,29,86,11,066,21,77,37,222,24,76,04,184,15,1*78
,1646708508001
NMEA,$GLGSV,3,2,10,79,03,337,13,65,15,149,22,88,37,298,30,87,52,005,24,1*74
,1646708508001
NMEA,$GLGSV,3,3,10,71,21,043,27,72,33,098,23,1*7B
,1646708508001
NMEA,$GAGSV,1,1,0,7*43
,1646708508001
NMEA,$PQGSV,1,1,0,0*43
,1646708508001
NMEA,$GBGSV,1,1,0,0*47
,1646708508002
NMEA,$GNGSA,A,3,02,05,12,18,20,25,26,29,31,,,,1.0,0.7,0.8,1*3A
,1646708508014
NMEA,$GNGSA,A,3,65,71,72,78,87,88,,,,,,,1.0,0.7,0.8,2*3C
,1646708508015
NMEA,$GNVTG,,T,,M,0.0,N,0.0,K,A*3D
,1646708508015
NMEA,$GNGGA,030148.00,3725.649188,N,12210.217016,W,1,12,0.7,21.2,M,-27.9,M,,*70
,1646708508015
NMEA,$GNRMC,030148.00,A,3725.649188,N,12210.217016,W,0.0,,080322,15.0,E,A,V*56
,1646708508015
NMEA,$AIDSTAT,0,0,0,2,4,23,3*00
,1646708508926
Raw,1361524,1048070000000,,,-1330742678359872948,0.30712890625,39.5048591599334,-0.2510171703506503,9.894051325079875,2,14,0.0,207,21708359752378,9,35.6,-147.23965454101562,0.22010000050067902,0,0.0,0.0,,,,,0,,3,0.0,
Raw,1361525,1048070000000,,,-1330742678359872948,0.30712890625,39.5048591599334,-0.2510171703506503,9.894051325079875,2,22,0.0,207,21708351270076,249,20.7,493.0810546875,10.133000373840332,0,0.0,0.0,,,,,0,,3,0.0,
Raw,1361525,1048070000000,,,-1330742678359872948,0.30712890625,39.5048591599334,-0.2510171703506503,9.894051325079875,2,13,0.0,207,21708359469813,46,20.7,608.6674194335938,1.1150000095367432,0,0.0,0.0,,,,,0,,3,0.0,
Raw,1361525,1048070000000,,,-1330742678359872948,0.30712890625,39.5048591599334,-0.2510171703506503,9.894051325079875,2,12,0.0,207,21708349270135,355,14.9,827.3771362304688,11.440000534057617,0,0.0,0.0,,,,,0,,3,0.0,
Raw,1361525,1048070000000,,,-1330742678359872948,0.30712890625,39.5048591599334,-0.2510171703506503,9.894051325079875,2,15,0.0,207,21708349019191,126,13.1,-668.947021484375,2.56000018119812,0,0.0,0.0,,,,,0,,3,0.0,
Raw,1361526,1048070000000,,,-1330742678359872948,0.30712890625,39.5048591599334,-0.2510171703506503,9.894051325079875,2,1,0.0,207,21708353442248,34,23.8,-763.0986938476562,1.6959999799728394,0,0.0,0.0,,,,,0,,3,0.0,
Raw,1361526,1048070000000,,,-1330742678359872948,0.30712890625,39.5048591599334,-0.2510171703506503,9.894051325079875,2,24,0.0,207,21708359783392,8,36.5,-287.3677978515625,0.24970000982284546,0,0.0,0.0,,,,,0,,3,0.0,
Raw,1361526,1048070000000,,,-1330742678359872948,0.30712890625,39.5048591599334,-0.2510171703506503,9.894051325079875,2,23,0.0,207,21708362491215,14,30.6,118.78921508789062,0.2287999987602234,0,0.0,0.0,,,,,0,,3,0.0,
Raw,1361526,1048070000000,,,-1330742678359872948,0.30712890625,39.5048591599334,-0.2510171703506503,9.894051325079875,2,7,0.0,207,21708354986850,31,23.9,242.58006286621094,0.9474999904632568,0,0.0,0.0,,,,,0,,3,0.0,
Raw,1361526,1048070000000,,,-1330742678359872948,0.30712890625,39.5048591599334,-0.2510171703506503,9.894051325079875,2,8,0.0,207,21708358370860,14,30.3,-374.64300537109375,0.25279998779296875,0,0.0,0.0,,,,,0,,3,0.0,
Raw,1361527,1048070000000,,,-1330742678359872948,0.30712890625,39.5048591599334,-0.2510171703506503,9.894051325079875,2,5,0.0,15,183726360855495,21,26.5,-11.419356346130371,0.1112000048160553,0,0.0,0.0,,,,,0,,1,0.0,
Raw,1361527,1048070000000,,,-1330742678359872948,0.30712890625,39.5048591599334,-0.2510171703506503,9.894051325079875,2,12,0.0,15,183726354150965,5,40.2,660.3662109375,0.040400002151727676,0,0.0,0.0,,,,,0,,1,0.0,
Raw,1361527,1048070000000,,,-1330742678359872948,0.30712890625,39.5048591599334,-0.2510171703506503,9.894051325079875,2,18,0.0,15,183726355323795,13,31.8,-434.28717041015625,0.047700002789497375,0,0.0,0.0,,,,,0,,1,0.0,
Raw,1361527,1048070000000,,,-1330742678359872948,0.30712890625,39.5048591599334,-0.2510171703506503,9.894051325079875,2,20,0.0,15,183726357504294,21,26.5,348.8782653808594,0.13670000433921814,0,0.0,0.0,,,,,0,,1,0.0,
Raw,1361527,1048070000000,,,-1330742678359872948,0.30712890625,39.5048591599334,-0.2510171703506503,9.894051325079875,2,25,0.0,15,183726360743206,19,27.3,332.2723693847656,0.04130000248551369,0,0.0,0.0,,,,,0,,1,0.0,
Raw,1361528,1048070000000,,,-1330742678359872948,0.30712890625,39.5048591599334,-0.2510171703506503,9.894051325079875,2,26,0.0,15,183726348242052,27,24.5,-585.4004516601562,0.5885000228881836,0,0.0,0.0,,,,,0,,1,0.0,
Raw,1361528,1048070000000,,,-1330742678359872948,0.30712890625,39.5048591599334,-0.2510171703506503,9.894051325079875,2,29,0.0,15,183726360230130,46,20.4,-226.75393676757812,0.7864999771118164,0,0.0,0.0,,,,,0,,1,0.0,
Raw,1361528,1048070000000,,,-1330742678359872948,0.30712890625,39.5048591599334,-0.2510171703506503,9.894051325079875,2,31,0.0,15,183726347708488,14,30.3,251.0701904296875,0.03629999980330467,0,0.0,0.0,,,,,0,,1,0.0,
Fix,gps,37.427486,-122.170284,-6.694519,0.000000,3.216000,1646708509000
NMEA,$GPGSV,3,1,11,05,60,097,27,12,33,163,40,18,33,253,32,20,43,056,27,1*62
,1646708508999
NMEA,$GPGSV,3,2,11,25,62,209,27,26,09,319,25,29,61,333,20,31,12,282,30,1*6E
,1646708508999
NMEA,$GPGSV,3,3,11,02,28,053,,15,02,151,,23,01,201,,1*5A
,1646708508999
NMEA,$GLGSV,3,1,10,78,37,299,36,86,11,066,21,77,37,222,21,76,04,184,15,1*73
,1646708508999
NMEA,$GLGSV,3,2,10,79,03,337,13,65,15,149,24,88,37,298,37,87,52,005,31,1*71
,1646708508999
NMEA,$GLGSV,3,3,10,71,21,043,24,72,33,098,30,1*7A
,1646708509000
NMEA,$GAGSV,1,1,0,7*43
,1646708509000
NMEA,$PQGSV,1,1,0,0*43
,1646708509000
NMEA,$GBGSV,1,1,0,0*47
,1646708509000
NMEA,$GNGSA,A,3,02,05,12,18,20,25,26,29,31,,,,1.0,0.7,0.8,1*3A
,1646708509005
NMEA,$GNGSA,A,3,65,71,72,78,87,88,,,,,,,1.0,0.7,0.8,2*3C
,1646708509005
NMEA,$GNVTG,,T,,M,0.0,N,0.0,K,A*3D
,1646708509006
NMEA,$GNGGA,030149.00,3725.649187,N,12210.217017,W,1,12,0.7,21.2,M,-27.9,M,,*7F
,1646708509006
NMEA,$GNRMC,030149.00,A,3725.649187,N,12210.217017,W,0.0,,080322,15.0,E,A,V*59
,1646708509006
NMEA,$AIDSTAT,0,0,0,2,-2,23,3*00
,1646708509931
Raw,1362531,1049070000000,,,-1330742678359872948,0.30712890625,39.26441058865748,-0.7662843534282446,12.144006321877676,2,14,0.0,207,21709359752896,9,35.0,-146.6759796142578,0.22010000050067902,0,0.0,0.0,,,,,0,,3,0.0,
Raw,1362532,1049070000000,,,-1330742678359872948,0.30712890625,39.26441058865748,-0.7662843534282446,12.144006321877676,2,22,0.0,207,21709351268431,318,20.7,493.0810546875,11.633000373840332,0,0.0,0.0,,,,,0,,3,0.0,
Raw,1362532,1049070000000,,,-1330742678359872948,0.30712890625,39.26441058865748,-0.7662843534282446,12.144006321877676,2,13,0.0,207,21709359467598,40,21.2,609.659912109375,1.0449999570846558,0,0.0,0.0,,,,,0,,3,0.0,
Raw,1362532,1049070000000,,,-1330742678359872948,0.30712890625,39.26441058865748,-0.7662843534282446,12.144006321877676,2,12,0.0,207,21709349267375,431,14.9,827.3771362304688,12.940000534057617,0,0.0,0.0,,,,,0,,3,0.0,
Raw,1362532,1049070000000,,,-1330742678359872948,0.30712890625,39.26441058865748,-0.7662843534282446,12.144006321877676,2,15,0.0,207,21709349021422,142,13.1,-668.947021484375,4.060000419616699,0,0.0,0.0,,,,,0,,3,0.0,
Raw,1362532,1049070000000,,,-1330742678359872948,0.30712890625,39.26441058865748,-0.7662843534282446,12.144006321877676,2,1,0.0,207,21709353444765,17,28.2,-762.9522705078125,0.25280001759529114,0,0.0,0.0,,,,,0,,3,0.0,
Raw,1362532,1049070000000,,,-1330742678359872948,0.30712890625,39.26441058865748,-0.7662843534282446,12.144006321877676,2,24,0.0,207,21709359784342,9,35.9,-286.9071960449219,0.2501000165939331,0,0.0,0.0,,,,,0,,3,0.0,
Raw,1362532,1049070000000,,,-1330742678359872948,0.30712890625,39.26441058865748,-0.7662843534282446,12.144006321877676,2,23,0.0,207,21709362490842,13,31.3,119.1915283203125,0.2282000035047531,0,0.0,0.0,,,,,0,,3,0.0,
Raw,1362532,1049070000000,,,-1330742678359872948,0.30712890625,39.26441058865748,-0.7662843534282446,12.144006321877676,2,7,0.0,207,21709354986049,40,21.7,242.63609313964844,1.0674999952316284,0,0.0,0.0,,,,,0,,3,0.0,
Raw,1362532,1049070000000,,,-1330742678359872948,0.30712890625,39.26441058865748,-0.7662843534282446,12.144006321877676,2,8,0.0,207,21709358372068,13,31.7,-374.0934753417969,0.25220000743865967,0,0.0,0.0,,,,,0,,3,0.0,
Raw,1362533,1049070000000,,,-1330742678359872948,0.30712890625,39.26441058865748,-0.7662843534282446,12.144006321877676,2,2,0.0,15,183727350854140,28,24.6,460.6724548339844,0.9785000085830688,0,0.0,0.0,,,,,0,,1,0.0,
Raw,1362533,1049070000000,,,-1330742678359872948,0.30712890625,39.26441058865748,-0.7662843534282446,12.144006321877676,2,5,0.0,15,183727360855505,21,26.5,-10.935009002685547,0.1112000048160553,0,0.0,0.0,,,,,0,,1,0.0,
Raw,1362533,1049070000000,,,-1330742678359872948,0.30712890625,39.26441058865748,-0.7662843534282446,12.144006321877676,2,12,0.0,15,183727354148766,5,40.6,660.815185546875,0.040400002151727676,0,0.0,0.0,,,,,0,,1,0.0,
Raw,1362533,1049070000000,,,-1330742678359872948,0.30712890625,39.26441058865748,-0.7662843534282446,12.144006321877676,2,18,0.0,15,183727355325217,14,30.4,-433.7134704589844,0.04830000177025795,0,0.0,0.0,,,,,0,,1,0.0,
Raw,1362533,1049070000000,,,-1330742678359872948,0.30712890625,39.26441058865748,-0.7662843534282446,12.144006321877676,2,20,0.0,15,183727357503133,24,25.9,349.2734375,0.4072999954223633,0,0.0,0.0,,,,,0,,1,0.0,
Raw,1362533,1049070000000,,,-1330742678359872948,0.30712890625,39.26441058865748,-0.7662843534282446,12.144006321877676,2,25,0.0,15,183727360742075,16,29.1,332.7017822265625,0.02670000120997429,0,0.0,0.0,,,,,0,,1,0.0,
Raw,1362533,1049070000000,,,-1330742678359872948,0.30712890625,39.26441058865748,-0.7662843534282446,12.144006321877676,2,26,0.0,15,183727348244070,24,25.3,-584.9196166992188,0.3937999904155731,0,0.0,0.0,,,,,0,,1,0.0,
Raw,1362533,1049070000000,,,-1330742678359872948,0.30712890625,39.26441058865748,-0.7662843534282446,12.144006321877676,2,29,0.0,15,183727360230948,35,22.4,-226.34481811523438,0.6664999723434448,0,0.0,0.0,,,,,0,,1,0.0,
Raw,1362533,1049070000000,,,-1330742678359872948,0.30712890625,39.26441058865748,-0.7662843534282446,12.144006321877676,2,31,0.0,15,183727347707643,14,30.4,251.6232147216797,0.03629999980330467,0,0.0,0.0,,,,,0,,1,0.0,
Fix,gps,37.427486,-122.170284,-6.693970,0.000000,3.216000,1646708510000
NMEA,$GPGSV,3,1,11,02,28,053,25,05,60,097,27,12,33,163,41,18,33,253,30,1*6B
,1646708510000
NMEA,$GPGSV,3,2,11,20,43,056,26,25,62,209,29,26,09,319,25,29,61,333,22,1*6A
,1646708510000
NMEA,$GPGSV,3,3,11,31,12,282,30,15,02,151,,23,01,201,,1*5E
,1646708510000
NMEA,$GLGSV,3,1,10,78,37,299,35,86,11,066,21,77,37,222,21,76,04,184,15,1*70
,1646708510000
NMEA,$GLGSV,3,2,10,79,03,337,13,65,15,149,28,88,37,298,36,87,52,005,31,1*7C
,1646708510001
NMEA,$GLGSV,3,3,10,71,21,043,22,72,33,098,32,1*7E
,1646708510001
NMEA,$GAGSV,1,1,0,7*43
,1646708510001
NMEA,$PQGSV,1,1,0,0*43
,1646708510001
NMEA,$GBGSV,1,1,0,0*47
,1646708510002
NMEA,$GNGSA,A,3,02,05,12,18,20,25,26,29,31,,,,1.0,0.7,0.8,1*3A
,1646708510007
NMEA,$GNGSA,A,3,65,71,72,78,87,88,,,,,,,1.0,0.7,0.8,2*3C
,1646708510007
NMEA,$GNVTG,,T,,M,0.0,N,0.0,K,A*3D
,1646708510007
NMEA,$GNGGA,030150.00,3725.649187,N,12210.217018,W,1,12,0.7,21.2,M,-27.9,M,,*78
,1646708510008
NMEA,$GNRMC,030150.00,A,3725.649187,N,12210.217018,W,0.0,,080322,15.0,E,A,V*5E
,1646708510008
NMEA,$AIDSTAT,0,0,0,2,3,23,3*00
,1646708510929
Raw,1363534,1050070000000,,,-1330742678359872951,0.43120479583740234,39.19006485375576,0.25578906667979256,10.057066773339281,2,14,0.0,207,21710359753397,9,35.7,-146.51206970214844,0.22010000050067902,0,0.0,0.0,,,,,0,,3,0.0,
Raw,1363534,1050070000000,,,-1330742678359872951,0.43120479583740234,39.19006485375576,0.25578906667979256,10.057066773339281,2,22,0.0,207,21710351266786,397,20.7,493.0810546875,13.133000373840332,0,0.0,0.0,,,,,0,,3,0.0,
Raw,1363534,1050070000000,,,-1330742678359872951,0.43120479583740234,39.19006485375576,0.25578906667979256,10.057066773339281,2,13,0.0,207,21710359465572,53,19.9,610.16552734375,1.1950000524520874,0,0.0,0.0,,,,,0,,3,0.0,
Raw,1363534,1050070000000,,,-1330742678359872951,0.43120479583740234,39.19006485375576,0.25578906667979256,10.057066773339281,2,12,0.0,207,21710349264616,517,14.9,827.3771362304688,14.440000534057617,0,0.0,0.0,,,,,0,,3,0.0,
Raw,1363534,1050070000000,,,-1330742678359872951,0.43120479583740234,39.19006485375576,0.25578906667979256,10.057066773339281,2,15,0.0,207,21710349023654,168,13.1,-668.947021484375,5.560000419616699,0,0.0,0.0,,,,,0,,3,0.0,
Raw,1363535,1050070000000,,,-1330742678359872951,0.43120479583740234,39.19006485375576,0.25578906667979256,10.057066773339281,2,1,0.0,207,21710353447326,19,27.5,-762.8408203125,0.26080000400543213,0,0.0,0.0,,,,,0,,3,0.0,
Raw,1363535,1050070000000,,,-1330742678359872951,0.43120479583740234,39.19006485375576,0.25578906667979256,10.057066773339281,2,24,0.0,207,21710359785316,8,36.4,-286.8539123535156,0.24970000982284546,0,0.0,0.0,,,,,0,,3,0.0,
Raw,1363535,1050070000000,,,-1330742678359872951,0.43120479583740234,39.19006485375576,0.25578906667979256,10.057066773339281,2,23,0.0,207,21710362490466,12,32.2,119.29227447509766,0.22690001130104065,0,0.0,0.0,,,,,0,,3,0.0,
Raw,1363535,1050070000000,,,-1330742678359872951,0.43120479583740234,39.19006485375576,0.25578906667979256,10.057066773339281,2,7,0.0,207,21710354985312,61,18.6,243.3366241455078,1.2975000143051147,0,0.0,0.0,,,,,0,,3,0.0,
Raw,1363535,1050070000000,,,-1330742678359872951,0.43120479583740234,39.19006485375576,0.25578906667979256,10.057066773339281,2,8,0.0,207,21710358373293,13,31.9,-373.9414367675781,0.25220000743865967,0,0.0,0.0,,,,,0,,3,0.0,
Raw,1363535,1050070000000,,,-1330742678359872951,0.43120479583740234,39.19006485375576,0.25578906667979256,10.057066773339281,2,2,0.0,15,183728350852663,24,25.0,461.2477111816406,0.3968000113964081,0,0.0,0.0,,,,,0,,1,0.0,
Raw,1363535,1050070000000,,,-1330742678359872951,0.43120479583740234,39.19006485375576,0.25578906667979256,10.057066773339281,2,5,0.0,15,183728360855522,19,27.4,-10.731066703796387,0.04130000248551369,0,0.0,0.0,,,,,0,,1,0.0,
Raw,1363536,1050070000000,,,-1330742678359872951,0.43120479583740234,39.19006485375576,0.25578906667979256,10.057066773339281,2,12,0.0,15,183728354146566,5,41.2,660.9251098632812,0.04010000079870224,0,0.0,0.0,,,,,0,,1,0.0,
Raw,1363536,1050070000000,,,-1330742678359872951,0.43120479583740234,39.19006485375576,0.25578906667979256,10.057066773339281,2,18,0.0,15,183728355326674,14,30.0,-433.6593017578125,0.04830000177025795,0,0.0,0.0,,,,,0,,1,0.0,
Raw,1363537,1050070000000,,,-1330742678359872951,0.43120479583740234,39.19006485375576,0.25578906667979256,10.057066773339281,2,20,0.0,15,183728357501931,24,25.8,349.4942321777344,0.4072999954223633,0,0.0,0.0,,,,,0,,1,0.0,
Raw,1363537,1050070000000,,,-1330742678359872951,0.43120479583740234,39.19006485375576,0.25578906667979256,10.057066773339281,2,25,0.0,15,183728360740954,14,30.4,332.8692626953125,0.025800000876188278,0,0.0,0.0,,,,,0,,1,0.0,
Raw,1363537,1050070000000,,,-1330742678359872951,0.43120479583740234,39.19006485375576,0.25578906667979256,10.057066773339281,2,26,0.0,15,183728348246016,24,25.8,-584.9979248046875,0.3937999904155731,0,0.0,0.0,,,,,0,,1,0.0,
Raw,1363537,1050070000000,,,-1330742678359872951,0.43120479583740234,39.19006485375576,0.25578906667979256,10.057066773339281,2,29,0.0,15,183728360231651,31,23.1,-226.26869201660156,0.6165000200271606,0,0.0,0.0,,,,,0,,1,0.0,
Raw,1363537,1050070000000,,,-1330742678359872951,0.43120479583740234,39.19006485375576,0.25578906667979256,10.057066773339281,2,31,0.0,15,183728347706796,17,28.5,251.67474365234375,0.043800000101327896,0,0.0,0.0,,,,,0,,1,0.0,
Fix,gps,37.427486,-122.170284,-6.692230,0.000000,3.216000,1646708511000
NMEA,$GPGSV,3,1,11,02,28,053,25,05,60,097,27,12,33,163,41,18,33,253,30,1*6B
,1646708511001
NMEA,$GPGSV,3,2,11,20,43,056,26,25,62,209,30,26,09,319,26,29,61,333,23,1*60
,1646708511001
NMEA,$GPGSV,3,3,11,31,12,282,29,15,02,151,,23,01,201,,1*56
,1646708511001
NMEA,$GLGSV,3,1,10,78,37,299,36,86,11,066,21,77,37,222,20,76,04,184,15,1*72
,1646708511001
NMEA,$GLGSV,3,2,10,79,03,337,13,65,15,149,28,88,37,298,36,87,52,005,32,1*7F
,1646708511001
NMEA,$GLGSV,3,3,10,71,21,043,19,72,33,098,32,1*76
,1646708511002
NMEA,$GAGSV,1,1,0,7*43
,1646708511002
NMEA,$PQGSV,1,1,0,0*43
,1646708511002
NMEA,$GBGSV,1,1,0,0*47
,1646708511005
NMEA,$GNGSA,A,3,02,05,12,18,20,25,26,29,31,,,,1.0,0.7,0.8,1*3A
,1646708511008
NMEA,$GNGSA,A,3,65,71,72,78,87,88,,,,,,,1.0,0.7,0.8,2*3C
,1646708511008
NMEA,$GNVTG,,T,,M,0.0,N,0.0,K,A*3D
,1646708511009
NMEA,$GNGGA,030151.00,3725.649187,N,12210.217019,W,1,12,0.7,21.2,M,-27.9,M,,*78
,1646708511009
NMEA,$GNRMC,030151.00,A,3725.649187,N,12210.217019,W,0.0,,080322,15.0,E,A,V*5E
,1646708511009
NMEA,$AIDSTAT,0,0,0,2,,23,3*00
,1646708511925
Raw,1364538,1051070000000,,,-1330742678359872957,0.8581705093383789,42.89305070415139,0.37699700790577634,10.385961468731061,2,14,0.0,207,21711359753903,10,34.0,-146.6337127685547,0.22060000896453857,0,0.0,0.0,,,,,0,,3,0.0,
Raw,1364538,1051070000000,,,-1330742678359872957,0.8581705093383789,42.89305070415139,0.37699700790577634,10.385961468731061,2,22,0.0,207,21711351265142,486,20.7,493.0810546875,14.633000373840332,0,0.0,0.0,,,,,0,,3,0.0,
Raw,1364538,1051070000000,,,-1330742678359872957,0.8581705093383789,42.89305070415139,0.37699700790577634,10.385961468731061,2,13,0.0,207,21711359463451,40,21.2,609.09814453125,1.0449999570846558,0,0.0,0.0,,,,,0,,3,0.0,
Raw,1364538,1051070000000,,,-1330742678359872957,0.8581705093383789,42.89305070415139,0.37699700790577634,10.385961468731061,2,12,0.0,207,21711349261856,612,14.9,827.3771362304688,15.940000534057617,0,0.0,0.0,,,,,0,,3,0.0,
Raw,1364538,1051070000000,,,-1330742678359872957,0.8581705093383789,42.89305070415139,0.37699700790577634,10.385961468731061,2,15,0.0,207,21711349025720,133,13.3,-667.7493286132812,3.31000018119812,0,0.0,0.0,,,,,0,,3,0.0,
Raw,1364538,1051070000000,,,-1330742678359872957,0.8581705093383789,42.89305070415139,0.37699700790577634,10.385961468731061,2,1,0.0,207,21711353449864,17,28.6,-763.0940551757812,0.25280001759529114,0,0.0,0.0,,,,,0,,3,0.0,
Raw,1364539,1051070000000,,,-1330742678359872957,0.8581705093383789,42.89305070415139,0.37699700790577634,10.385961468731061,2,24,0.0,207,21711359786266,10,34.8,-287.1347351074219,0.25060001015663147,0,0.0,0.0,,,,,0,,3,0.0,
Raw,1364539,1051070000000,,,-1330742678359872957,0.8581705093383789,42.89305070415139,0.37699700790577634,10.385961468731061,2,23,0.0,207,21711362490068,14,30.3,119.02560424804688,0.2287999987602234,0,0.0,0.0,,,,,0,,3,0.0,
Raw,1364539,1051070000000,,,-1330742678359872957,0.8581705093383789,42.89305070415139,0.37699700790577634,10.385961468731061,2,7,0.0,207,21711354984517,35,22.3,243.41136169433594,1.0074999332427979,0,0.0,0.0,,,,,0,,3,0.0,
Raw,1364539,1051070000000,,,-1330742678359872957,0.8581705093383789,42.89305070415139,0.37699700790577634,10.385961468731061,2,8,0.0,207,21711358374554,16,29.7,-374.0599365234375,0.25369998812675476,0,0.0,0.0,,,,,0,,3,0.0,
Raw,1364539,1051070000000,,,-1330742678359872957,0.8581705093383789,42.89305070415139,0.37699700790577634,10.385961468731061,2,2,0.0,15,183729350851135,24,25.3,460.90460205078125,0.3968000113964081,0,0.0,0.0,,,,,0,,1,0.0,
Raw,1364539,1051070000000,,,-1330742678359872957,0.8581705093383789,42.89305070415139,0.37699700790577634,10.385961468731061,2,5,0.0,15,183729360855573,24,25.9,-10.797019004821777,0.38179999589920044,0,0.0,0.0,,,,,0,,1,0.0,
Raw,1364539,1051070000000,,,-1330742678359872957,0.8581705093383789,42.89305070415139,0.37699700790577634,10.385961468731061,2,12,0.0,15,183729354144349,5,40.8,660.7061767578125,0.040400002151727676,0,0.0,0.0,,,,,0,,1,0.0,
Raw,1364539,1051070000000,,,-1330742678359872957,0.8581705093383789,42.89305070415139,0.37699700790577634,10.385961468731061,2,18,0.0,15,183729355328125,17,28.1,-433.929443359375,0.055800002068281174,0,0.0,0.0,,,,,0,,1,0.0,
Raw,1364539,1051070000000,,,-1330742678359872957,0.8581705093383789,42.89305070415139,0.37699700790577634,10.385961468731061,2,20,0.0,15,183729357500819,24,25.0,349.2388000488281,0.4072999954223633,0,0.0,0.0,,,,,0,,1,0.0,
Raw,1364540,1051070000000,,,-1330742678359872957,0.8581705093383789,42.89305070415139,0.37699700790577634,10.385961468731061,2,25,0.0,15,183729360739856,13,31.0,332.6708984375,0.025200000032782555,0,0.0,0.0,,,,,0,,1,0.0,
Raw,1364540,1051070000000,,,-1330742678359872957,0.8581705093383789,42.89305070415139,0.37699700790577634,10.385961468731061,2,26,0.0,15,183729348247950,27,24.6,-585.2767333984375,0.5885000228881836,0,0.0,0.0,,,,,0,,1,0.0,
Raw,1364540,1051070000000,,,-1330742678359872957,0.8581705093383789,42.89305070415139,0.37699700790577634,10.385961468731061,2,29,0.0,15,183729360232432,40,21.9,-226.5160675048828,0.7264999747276306,0,0.0,0.0,,,,,0,,1,0.0,
Raw,1364540,1051070000000,,,-1330742678359872957,0.8581705093383789,42.89305070415139,0.37699700790577634,10.385961468731061,2,31,0.0,15,183729347705953,17,28.0,251.50527954101562,0.043800000101327896,0,0.0,0.0,,,,,0,,1,0.0,
Fix,gps,37.427486,-122.170284,-6.690582,0.000000,3.216000,1646708512000
NMEA,$GPGSV,3,1,11,02,28,053,25,05,60,097,26,12,33,163,41,18,33,253,28,1*63
,1646708512001
NMEA,$GPGSV,3,2,11,20,43,056,25,25,62,209,31,26,09,319,25,29,61,333,22,1*60
,1646708512001
NMEA,$GPGSV,3,3,11,31,12,282,28,15,02,151,,23,01,201,,1*57
,1646708512002
NMEA,$GLGSV,3,1,10,78,37,299,34,86,11,066,21,77,37,222,21,76,04,184,15,1*71
,1646708512002
NMEA,$GLGSV,3,2,10,79,03,337,13,65,15,149,29,88,37,298,35,87,52,005,30,1*7F
,1646708512002
NMEA,$GLGSV,3,3,10,71,21,043,22,72,33,098,30,1*7C
,1646708512002
NMEA,$GAGSV,1,1,0,7*43
,1646708512003
NMEA,$PQGSV,1,1,0,0*43
,1646708512003
NMEA,$GBGSV,1,1,0,0*47
,1646708512004
NMEA,$GNGSA,A,3,02,05,12,18,20,25,26,29,31,,,,1.0,0.7,0.8,1*3A
,1646708512007
NMEA,$GNGSA,A,3,65,71,72,78,87,88,,,,,,,1.0,0.7,0.8,2*3C
,1646708512008
NMEA,$GNVTG,,T,,M,0.0,N,0.0,K,A*3D
,1646708512008
NMEA,$GNGGA,030152.00,3725.649188,N,12210.217020,W,1,12,0.7,21.2,M,-27.9,M,,*7E
,1646708512008
NMEA,$GNRMC,030152.00,A,3725.649188,N,12210.217020,W,0.0,,080322,15.0,E,A,V*58
,1646708512009
NMEA,$AIDSTAT,0,0,0,2,5,23,3*00
,1646708512932
Raw,1365533,1052070000000,,,-1330742678359872961,0.2984151840209961,47.842237108852714,-0.5941425344581932,13.276293227508303,2,14,0.0,207,21712359754371,10,34.4,-146.56121826171875,0.22060000896453857,0,0.0,0.0,,,,,0,,3,0.0,
Raw,1365533,1052070000000,,,-1330742678359872961,0.2984151840209961,47.842237108852714,-0.5941425344581932,13.276293227508303,2,22,0.0,207,21712351263497,585,20.7,493.0810546875,16.13300132751465,0,0.0,0.0,,,,,0,,3,0.0,
Raw,1365534,1052070000000,,,-1330742678359872961,0.2984151840209961,47.842237108852714,-0.5941425344581932,13.276293227508303,2,13,0.0,207,21712359461419,35,22.0,609.5194702148438,0.98499995470047,0,0.0,0.0,,,,,0,,3,0.0,
Raw,1365534,1052070000000,,,-1330742678359872961,0.2984151840209961,47.842237108852714,-0.5941425344581932,13.276293227508303,2,12,0.0,207,21712349259096,718,14.9,827.3771362304688,17.440000534057617,0,0.0,0.0,,,,,0,,3,0.0,
Raw,1365534,1052070000000,,,-1330742678359872961,0.2984151840209961,47.842237108852714,-0.5941425344581932,13.276293227508303,2,15,0.0,207,21712349027948,154,13.3,-667.7493286132812,4.810000419616699,0,0.0,0.0,,,,,0,,3,0.0,
Raw,1365534,1052070000000,,,-1330742678359872961,0.2984151840209961,47.842237108852714,-0.5941425344581932,13.276293227508303,2,1,0.0,207,21712353452404,17,28.5,-763.18994140625,0.25280001759529114,0,0.0,0.0,,,,,0,,3,0.0,
Raw,1365535,1052070000000,,,-1330742678359872961,0.2984151840209961,47.842237108852714,-0.5941425344581932,13.276293227508303,2,24,0.0,207,21712359787237,9,35.6,-287.1941223144531,0.2501000165939331,0,0.0,0.0,,,,,0,,3,0.0,
Raw,1365535,1052070000000,,,-1330742678359872961,0.2984151840209961,47.842237108852714,-0.5941425344581932,13.276293227508303,2,23,0.0,207,21712362489594,13,31.1,118.94923400878906,0.2282000035047531,0,0.0,0.0,,,,,0,,3,0.0,
Raw,1365535,1052070000000,,,-1330742678359872961,0.2984151840209961,47.842237108852714,-0.5941425344581932,13.276293227508303,2,7,0.0,207,21712354983720,27,24.7,243.35533142089844,0.887499988079071,0,0.0,0.0,,,,,0,,3,0.0,
Raw,1365535,1052070000000,,,-1330742678359872961,0.2984151840209961,47.842237108852714,-0.5941425344581932,13.276293227508303,2,8,0.0,207,21712358375842,14,30.6,-374.0341491699219,0.25279998779296875,0,0.0,0.0,,,,,0,,3,0.0,
Raw,1365535,1052070000000,,,-1330742678359872961,0.2984151840209961,47.842237108852714,-0.5941425344581932,13.276293227508303,2,2,0.0,15,183730350849595,19,27.6,460.8818054199219,0.056300003081560135,0,0.0,0.0,,,,,0,,1,0.0,
Raw,1365536,1052070000000,,,-1330742678359872961,0.2984151840209961,47.842237108852714,-0.5941425344581932,13.276293227508303,2,5,0.0,15,183730360855629,24,25.4,-10.833529472351074,0.38179999589920044,0,0.0,0.0,,,,,0,,1,0.0,
Raw,1365536,1052070000000,,,-1330742678359872961,0.2984151840209961,47.842237108852714,-0.5941425344581932,13.276293227508303,2,12,0.0,15,183730354142154,5,41.1,660.6393432617188,0.04010000079870224,0,0.0,0.0,,,,,0,,1,0.0,
Raw,1365536,1052070000000,,,-1330742678359872961,0.2984151840209961,47.842237108852714,-0.5941425344581932,13.276293227508303,2,18,0.0,15,183730355329581,16,29.7,-433.9667663574219,0.04920000210404396,0,0.0,0.0,,,,,0,,1,0.0,
Raw,1365536,1052070000000,,,-1330742678359872961,0.2984151840209961,47.842237108852714,-0.5941425344581932,13.276293227508303,2,20,0.0,15,183730357499649,21,26.7,349.1882019042969,0.13670000433921814,0,0.0,0.0,,,,,0,,1,0.0,
Raw,1365536,1052070000000,,,-1330742678359872961,0.2984151840209961,47.842237108852714,-0.5941425344581932,13.276293227508303,2,25,0.0,15,183730360738746,14,30.9,332.6750183105469,0.025800000876188278,0,0.0,0.0,,,,,0,,1,0.0,
Raw,1365536,1052070000000,,,-1330742678359872961,0.2984151840209961,47.842237108852714,-0.5941425344581932,13.276293227508303,2,26,0.0,15,183730348249880,24,25.5,-585.2567138671875,0.3937999904155731,0,0.0,0.0,,,,,0,,1,0.0,
Raw,1365537,1052070000000,,,-1330742678359872961,0.2984151840209961,47.842237108852714,-0.5941425344581932,13.276293227508303,2,29,0.0,15,183730360233175,24,25.4,-226.3437957763672,0.38179999589920044,0,0.0,0.0,,,,,0,,1,0.0,
Raw,1365537,1052070000000,,,-1330742678359872961,0.2984151840209961,47.842237108852714,-0.5941425344581932,13.276293227508303,2,31,0.0,15,183730347705104,19,27.9,251.42491149902344,0.05180000141263008,0,0.0,0.0,,,,,0,,1,0.0,
Fix,gps,37.427486,-122.170284,-6.690674,0.000000,3.216000,1646708513000
NMEA,$GPGSV,3,1,11,02,28,053,28,05,60,097,25,12,33,163,41,18,33,253,30,1*64
,1646708513001
NMEA,$GPGSV,3,2,11,20,43,056,27,25,62,209,31,26,09,319,26,29,61,333,25,1*66
,1646708513001
NMEA,$GPGSV,3,3,11,31,12,282,28,15,02,151,,23,01,201,,1*57
,1646708513002
NMEA,$GLGSV,3,1,10,78,37,299,34,86,11,066,21,77,37,222,22,76,04,184,15,1*72
,1646708513002
NMEA,$GLGSV,3,2,10,79,03,337,13,65,15,149,29,88,37,298,36,87,52,005,31,1*7D
,1646708513003
NMEA,$GLGSV,3,3,10,71,21,043,25,72,33,098,31,1*7A
,1646708513003
NMEA,$GAGSV,1,1,0,7*43
,1646708513003
NMEA,$PQGSV,1,1,0,0*43
,1646708513003
NMEA,$GBGSV,1,1,0,0*47
,1646708513004
NMEA,$GNGSA,A,3,02,05,12,18,20,25,26,29,31,,,,1.0,0.7,0.8,1*3A
,1646708513013
NMEA,$GNGSA,A,3,65,71,72,78,87,88,,,,,,,1.0,0.7,0.8,2*3C
,1646708513013
NMEA,$GNVTG,,T,,M,0.0,N,0.0,K,A*3D
,1646708513013
NMEA,$GNGGA,030153.00,3725.649188,N,12210.217021,W,1,12,0.7,21.2,M,-27.9,M,,*7E
,1646708513014
NMEA,$GNRMC,030153.00,A,3725.649188,N,12210.217021,W,0.0,,080322,15.0,E,A,V*58
,1646708513014
NMEA,$AIDSTAT,0,0,0,2,1,23,3*00
,1646708513927
Fix,gps,37.427486,-122.170284,-6.689819,0.000000,3.216000,1646708514000
Raw,1366534,1053070000000,,,-1330742678359872963,0.5549793243408203,47.78332368005067,-0.8654937404922799,10.683977875080707,2,14,0.0,207,21713359754860,9,35.5,-146.42076110839844,0.22010000050067902,0,0.0,0.0,,,,,0,,3,0.0,
Raw,1366535,1053070000000,,,-1330742678359872963,0.5549793243408203,47.78332368005067,-0.8654937404922799,10.683977875080707,2,22,0.0,207,21713351261852,694,20.7,493.0810546875,17.63300132751465,0,0.0,0.0,,,,,0,,3,0.0,
Raw,1366535,1053070000000,,,-1330742678359872963,0.5549793243408203,47.78332368005067,-0.8654937404922799,10.683977875080707,2,13,0.0,207,21713359459564,31,23.0,609.7535400390625,0.9249999523162842,0,0.0,0.0,,,,,0,,3,0.0,
Raw,1366535,1053070000000,,,-1330742678359872963,0.5549793243408203,47.78332368005067,-0.8654937404922799,10.683977875080707,2,12,0.0,207,21713349256336,834,14.9,827.3771362304688,18.940000534057617,0,0.0,0.0,,,,,0,,3,0.0,
Raw,1366535,1053070000000,,,-1330742678359872963,0.5549793243408203,47.78332368005067,-0.8654937404922799,10.683977875080707,2,15,0.0,207,21713349030303,96,15.6,-667.3563842773438,2.320000171661377,0,0.0,0.0,,,,,0,,3,0.0,
Raw,1366535,1053070000000,,,-1330742678359872963,0.5549793243408203,47.78332368005067,-0.8654937404922799,10.683977875080707,2,1,0.0,207,21713353454951,17,28.9,-763.2152099609375,0.25280001759529114,0,0.0,0.0,,,,,0,,3,0.0,
Raw,1366535,1053070000000,,,-1330742678359872963,0.5549793243408203,47.78332368005067,-0.8654937404922799,10.683977875080707,2,24,0.0,207,21713359788175,8,36.5,-287.1801452636719,0.24970000982284546,0,0.0,0.0,,,,,0,,3,0.0,
Raw,1366536,1053070000000,,,-1330742678359872963,0.5549793243408203,47.78332368005067,-0.8654937404922799,10.683977875080707,2,23,0.0,207,21713362489246,13,31.8,118.99148559570312,0.2282000035047531,0,0.0,0.0,,,,,0,,3,0.0,
Raw,1366536,1053070000000,,,-1330742678359872963,0.5549793243408203,47.78332368005067,-0.8654937404922799,10.683977875080707,2,7,0.0,207,21713354982902,19,27.3,243.63125610351562,0.2623000144958496,0,0.0,0.0,,,,,0,,3,0.0,
Raw,1366536,1053070000000,,,-1330742678359872963,0.5549793243408203,47.78332368005067,-0.8654937404922799,10.683977875080707,2,8,0.0,207,21713358377073,14,30.6,-373.9118957519531,0.25279998779296875,0,0.0,0.0,,,,,0,,3,0.0,
Raw,1366536,1053070000000,,,-1330742678359872963,0.5549793243408203,47.78332368005067,-0.8654937404922799,10.683977875080707,2,2,0.0,15,183731350848064,19,27.2,460.8537292480469,0.056300003081560135,0,0.0,0.0,,,,,0,,1,0.0,
Raw,1366536,1053070000000,,,-1330742678359872963,0.5549793243408203,47.78332368005067,-0.8654937404922799,10.683977875080707,2,5,0.0,15,183731360855571,24,25.7,-10.707568168640137,0.38179999589920044,0,0.0,0.0,,,,,0,,1,0.0,
Raw,1366536,1053070000000,,,-1330742678359872963,0.5549793243408203,47.78332368005067,-0.8654937404922799,10.683977875080707,2,12,0.0,15,183731354139950,5,41.5,660.6740112304688,0.04010000079870224,0,0.0,0.0,,,,,0,,1,0.0,
Raw,1366536,1053070000000,,,-1330742678359872963,0.5549793243408203,47.78332368005067,-0.8654937404922799,10.683977875080707,2,18,0.0,15,183731355331007,14,30.8,-433.9130554199219,0.04830000177025795,0,0.0,0.0,,,,,0,,1,0.0,
Raw,1366538,1053070000000,,,-1330742678359872963,0.5549793243408203,47.78332368005067,-0.8654937404922799,10.683977875080707,2,20,0.0,15,183731357498552,21,26.5,349.2710876464844,0.13670000433921814,0,0.0,0.0,,,,,0,,1,0.0,
Raw,1366538,1053070000000,,,-1330742678359872963,0.5549793243408203,47.78332368005067,-0.8654937404922799,10.683977875080707,2,25,0.0,15,183731360737635,13,31.5,332.80694580078125,0.025200000032782555,0,0.0,0.0,,,,,0,,1,0.0,
Raw,1366538,1053070000000,,,-1330742678359872963,0.5549793243408203,47.78332368005067,-0.8654937404922799,10.683977875080707,2,26,0.0,15,183731348251830,24,25.0,-585.180908203125,0.3937999904155731,0,0.0,0.0,,,,,0,,1,0.0,
Raw,1366538,1053070000000,,,-1330742678359872963,0.5549793243408203,47.78332368005067,-0.8654937404922799,10.683977875080707,2,29,0.0,15,183731360233913,19,27.3,-226.44683837890625,0.04130000248551369,0,0.0,0.0,,,,,0,,1,0.0,
Raw,1366538,1053070000000,,,-1330742678359872963,0.5549793243408203,47.78332368005067,-0.8654937404922799,10.683977875080707,2,31,0.0,15,183731347704276,17,28.8,251.4646759033203,0.043800000101327896,0,0.0,0.0,,,,,0,,1,0.0,
NMEA,$GPGSV,3,1,11,02,28,053,27,05,60,097,26,12,33,163,42,18,33,253,31,1*6A
,1646708513999
NMEA,$GPGSV,3,2,11,20,43,056,27,25,62,209,32,26,09,319,25,29,61,333,27,1*64
,1646708513999
NMEA,$GPGSV,3,3,11,31,12,282,29,15,02,151,,23,01,201,,1*56
,1646708513999
NMEA,$GLGSV,3,1,10,78,37,299,36,86,11,066,21,77,37,222,23,76,04,184,15,1*71
,1646708513999
NMEA,$GLGSV,3,2,10,79,03,337,16,65,15,149,29,88,37,298,37,87,52,005,32,1*7A
,1646708513999
NMEA,$GLGSV,3,3,10,71,21,043,27,72,33,098,31,1*78
,1646708514000
NMEA,$GAGSV,1,1,0,7*43
,1646708514000
NMEA,$PQGSV,1,1,0,0*43
,1646708514001
NMEA,$GBGSV,1,1,0,0*47
,1646708514008
NMEA,$GNGSA,A,3,02,05,12,18,20,25,26,29,31,,,,1.0,0.7,0.8,1*3A
,1646708514013
NMEA,$GNGSA,A,3,65,71,72,78,87,88,,,,,,,1.0,0.7,0.8,2*3C
,1646708514014
NMEA,$GNVTG,,T,,M,0.0,N,0.0,K,A*3D
,1646708514015
NMEA,$GNGGA,030154.00,3725.649188,N,12210.217022,W,1,12,0.7,21.2,M,-27.9,M,,*7A
,1646708514015
NMEA,$GNRMC,030154.00,A,3725.649188,N,12210.217022,W,0.0,,080322,15.0,E,A,V*5C
,1646708514015
NMEA,$AIDSTAT,0,0,0,2,1,23,3*00
,1646708514926
Raw,1367526,1054070000000,,,-1330742678359872960,0.07327556610107422,47.7570210932754,-1.0618138733398994,10.343134116077056,2,14,0.0,207,21714359755332,8,36.1,-146.1790008544922,0.21970000863075256,0,0.0,0.0,,,,,0,,3,0.0,
Raw,1367526,1054070000000,,,-1330742678359872960,0.07327556610107422,47.7570210932754,-1.0618138733398994,10.343134116077056,2,22,0.0,207,21714351260207,813,20.7,493.0810546875,19.13300132751465,0,0.0,0.0,,,,,0,,3,0.0,
Raw,1367526,1054070000000,,,-1330742678359872960,0.07327556610107422,47.7570210932754,-1.0618138733398994,10.343134116077056,2,13,0.0,207,21714359457372,61,18.9,609.791015625,1.274999976158142,0,0.0,0.0,,,,,0,,3,0.0,
Raw,1367527,1054070000000,,,-1330742678359872960,0.07327556610107422,47.7570210932754,-1.0618138733398994,10.343134116077056,2,12,0.0,207,21714349253576,960,14.9,827.3771362304688,20.440000534057617,0,0.0,0.0,,,,,0,,3,0.0,
Raw,1367527,1054070000000,,,-1330742678359872960,0.07327556610107422,47.7570210932754,-1.0618138733398994,10.343134116077056,2,15,0.0,207,21714349032529,112,15.6,-667.3563842773438,3.820000171661377,0,0.0,0.0,,,,,0,,3,0.0,
Raw,1367527,1054070000000,,,-1330742678359872960,0.07327556610107422,47.7570210932754,-1.0618138733398994,10.343134116077056,2,1,0.0,207,21714353457545,17,28.5,-763.0867309570312,0.25280001759529114,0,0.0,0.0,,,,,0,,3,0.0,
Raw,1367527,1054070000000,,,-1330742678359872960,0.07327556610107422,47.7570210932754,-1.0618138733398994,10.343134116077056,2,24,0.0,207,21714359789137,7,37.0,-287.0703430175781,0.249099999666214,0,0.0,0.0,,,,,0,,3,0.0,
Raw,1367527,1054070000000,,,-1330742678359872960,0.07327556610107422,47.7570210932754,-1.0618138733398994,10.343134116077056,2,23,0.0,207,21714362488883,13,31.8,119.12275695800781,0.2282000035047531,0,0.0,0.0,,,,,0,,3,0.0,
Raw,1367528,1054070000000,,,-1330742678359872960,0.07327556610107422,47.7570210932754,-1.0618138733398994,10.343134116077056,2,7,0.0,207,21714354982090,19,27.8,243.84814453125,0.2623000144958496,0,0.0,0.0,,,,,0,,3,0.0,
Raw,1367528,1054070000000,,,-1330742678359872960,0.07327556610107422,47.7570210932754,-1.0618138733398994,10.343134116077056,2,8,0.0,207,21714358378279,16,29.8,-373.71710205078125,0.25369998812675476,0,0.0,0.0,,,,,0,,3,0.0,
Raw,1367528,1054070000000,,,-1330742678359872960,0.07327556610107422,47.7570210932754,-1.0618138733398994,10.343134116077056,2,2,0.0,15,183732350846523,24,25.7,460.94232177734375,0.3968000113964081,0,0.0,0.0,,,,,0,,1,0.0,
Raw,1367528,1054070000000,,,-1330742678359872960,0.07327556610107422,47.7570210932754,-1.0618138733398994,10.343134116077056,2,5,0.0,15,183732360855613,21,26.7,-10.630572319030762,0.1112000048160553,0,0.0,0.0,,,,,0,,1,0.0,
Raw,1367528,1054070000000,,,-1330742678359872960,0.07327556610107422,47.7570210932754,-1.0618138733398994,10.343134116077056,2,12,0.0,15,183732354137754,5,40.9,660.8157958984375,0.040400002151727676,0,0.0,0.0,,,,,0,,1,0.0,
Raw,1367529,1054070000000,,,-1330742678359872960,0.07327556610107422,47.7570210932754,-1.0618138733398994,10.343134116077056,2,18,0.0,15,183732355332460,13,31.1,-433.7831115722656,0.047700002789497375,0,0.0,0.0,,,,,0,,1,0.0,
Raw,1367529,1054070000000,,,-1330742678359872960,0.07327556610107422,47.7570210932754,-1.0618138733398994,10.343134116077056,2,20,0.0,15,183732357497384,19,27.1,349.4635925292969,0.06680000573396683,0,0.0,0.0,,,,,0,,1,0.0,
Raw,1367529,1054070000000,,,-1330742678359872960,0.07327556610107422,47.7570210932754,-1.0618138733398994,10.343134116077056,2,25,0.0,15,183732360736534,14,30.1,333.0,0.025800000876188278,0,0.0,0.0,,,,,0,,1,0.0,
Raw,1367529,1054070000000,,,-1330742678359872960,0.07327556610107422,47.7570210932754,-1.0618138733398994,10.343134116077056,2,26,0.0,15,183732348253779,24,25.9,-585.134033203125,0.3937999904155731,0,0.0,0.0,,,,,0,,1,0.0,
Raw,1367529,1054070000000,,,-1330742678359872960,0.07327556610107422,47.7570210932754,-1.0618138733398994,10.343134116077056,2,29,0.0,15,183732360234692,17,28.4,-226.2834014892578,0.0333000011742115,0,0.0,0.0,,,,,0,,1,0.0,
Raw,1367529,1054070000000,,,-1330742678359872960,0.07327556610107422,47.7570210932754,-1.0618138733398994,10.343134116077056,2,31,0.0,15,183732347703464,17,28.7,251.6517333984375,0.043800000101327896,0,0.0,0.0,,,,,0,,1,0.0,
Fix,gps,37.427486,-122.170284,-6.688568,0.000000,3.216000,1646708515000
NMEA,$GPGSV,3,1,11,02,28,053,26,05,60,097,27,12,33,163,41,18,33,253,31,1*69
,1646708515003
NMEA,$GPGSV,3,2,11,20,43,056,27,25,62,209,30,26,09,319,26,29,61,333,28,1*6A
,1646708515004
NMEA,$GPGSV,3,3,11,31,12,282,29,15,02,151,,23,01,201,,1*56
,1646708515004
NMEA,$GLGSV,3,1,10,78,37,299,36,86,11,066,21,77,37,222,19,76,04,184,15,1*78
,1646708515004
NMEA,$GLGSV,3,2,10,79,03,337,16,65,15,149,29,88,37,298,37,87,52,005,32,1*7A
,1646708515005
NMEA,$GLGSV,3,3,10,71,21,043,28,72,33,098,30,1*76
,1646708515010
NMEA,$GAGSV,1,1,0,7*43
,1646708515010
NMEA,$PQGSV,1,1,0,0*43
,1646708515012
NMEA,$GBGSV,1,1,0,0*47
,1646708515012
NMEA,$GNGSA,A,3,02,05,12,18,20,25,26,29,31,,,,1.0,0.7,0.8,1*3A
,1646708515016
NMEA,$GNGSA,A,3,65,71,72,78,87,88,,,,,,,1.0,0.7,0.8,2*3C
,1646708515016
NMEA,$GNVTG,,T,,M,0.0,N,0.0,K,A*3D
,1646708515016
NMEA,$GNGGA,030155.00,3725.649188,N,12210.217022,W,1,12,0.7,21.2,M,-27.9,M,,*7B
,1646708515016
NMEA,$GNRMC,030155.00,A,3725.649188,N,12210.217022,W,0.0,,080322,15.0,E,A,V*5D
,1646708515017
NMEA,$AIDSTAT,0,0,0,2,-4,23,3*00
,1646708515926
Fix,gps,37.427486,-122.170284,-6.687469,0.000000,3.216000,1646708516000
Raw,1368555,1055070000000,,,-1330742678359872962,0.3149385452270508,49.95098424842581,-0.8275596387381663,13.009776222924978,2,14,0.0,207,21715359755843,8,36.1,-146.052490234375,0.21970000863075256,0,0.0,0.0,,,,,0,,3,0.0,
Raw,1368556,1055070000000,,,-1330742678359872962,0.3149385452270508,49.95098424842581,-0.8275596387381663,13.009776222924978,2,22,0.0,207,21715351258563,942,20.7,493.0810546875,20.63300132751465,0,0.0,0.0,,,,,0,,3,0.0,
Raw,1368556,1055070000000,,,-1330742678359872962,0.3149385452270508,49.95098424842581,-0.8275596387381663,13.009776222924978,2,13,0.0,207,21715359455283,53,19.9,609.9595947265625,1.1950000524520874,0,0.0,0.0,,,,,0,,3,0.0,
Raw,1368557,1055070000000,,,-1330742678359872962,0.3149385452270508,49.95098424842581,-0.8275596387381663,13.009776222924978,2,12,0.0,207,21715349250816,1096,14.9,827.3771362304688,21.940000534057617,0,0.0,0.0,,,,,0,,3,0.0,
Raw,1368557,1055070000000,,,-1330742678359872962,0.3149385452270508,49.95098424842581,-0.8275596387381663,13.009776222924978,2,15,0.0,207,21715349034755,137,15.6,-667.3563842773438,5.320000171661377,0,0.0,0.0,,,,,0,,3,0.0,
Raw,1368557,1055070000000,,,-1330742678359872962,0.3149385452270508,49.95098424842581,-0.8275596387381663,13.009776222924978,2,1,0.0,207,21715353460039,17,28.0,-763.1015014648438,0.25280001759529114,0,0.0,0.0,,,,,0,,3,0.0,
Raw,1368558,1055070000000,,,-1330742678359872962,0.3149385452270508,49.95098424842581,-0.8275596387381663,13.009776222924978,2,24,0.0,207,21715359790096,7,37.2,-287.0849304199219,0.249099999666214,0,0.0,0.0,,,,,0,,3,0.0,
Raw,1368558,1055070000000,,,-1330742678359872962,0.3149385452270508,49.95098424842581,-0.8275596387381663,13.009776222924978,2,23,0.0,207,21715362488480,12,32.1,119.08274841308594,0.22690001130104065,0,0.0,0.0,,,,,0,,3,0.0,
Raw,1368558,1055070000000,,,-1330742678359872962,0.3149385452270508,49.95098424842581,-0.8275596387381663,13.009776222924978,2,7,0.0,207,21715354981201,21,26.7,243.9734649658203,0.33219999074935913,0,0.0,0.0,,,,,0,,3,0.0,
Raw,1368558,1055070000000,,,-1330742678359872962,0.3149385452270508,49.95098424842581,-0.8275596387381663,13.009776222924978,2,8,0.0,207,21715358379578,16,29.2,-373.57293701171875,0.25369998812675476,0,0.0,0.0,,,,,0,,3,0.0,
Raw,1368559,1055070000000,,,-1330742678359872962,0.3149385452270508,49.95098424842581,-0.8275596387381663,13.009776222924978,2,2,0.0,15,183733350844970,24,25.9,460.9456787109375,0.3968000113964081,0,0.0,0.0,,,,,0,,1,0.0,
Raw,1368559,1055070000000,,,-1330742678359872962,0.3149385452270508,49.95098424842581,-0.8275596387381663,13.009776222924978,2,5,0.0,15,183733360855624,19,27.4,-10.447141647338867,0.04130000248551369,0,0.0,0.0,,,,,0,,1,0.0,
Raw,1368559,1055070000000,,,-1330742678359872962,0.3149385452270508,49.95098424842581,-0.8275596387381663,13.009776222924978,2,12,0.0,15,183733354135545,5,41.1,660.7937622070312,0.04010000079870224,0,0.0,0.0,,,,,0,,1,0.0,
Raw,1368559,1055070000000,,,-1330742678359872962,0.3149385452270508,49.95098424842581,-0.8275596387381663,13.009776222924978,2,18,0.0,15,183733355333920,14,30.8,-433.79815673828125,0.04830000177025795,0,0.0,0.0,,,,,0,,1,0.0,
Raw,1368560,1055070000000,,,-1330742678359872962,0.3149385452270508,49.95098424842581,-0.8275596387381663,13.009776222924978,2,20,0.0,15,183733357496196,19,27.8,349.4918518066406,0.06680000573396683,0,0.0,0.0,,,,,0,,1,0.0,
Raw,1368560,1055070000000,,,-1330742678359872962,0.3149385452270508,49.95098424842581,-0.8275596387381663,13.009776222924978,2,25,0.0,15,183733360735392,16,29.7,333.0410461425781,0.02670000120997429,0,0.0,0.0,,,,,0,,1,0.0,
Raw,1368560,1055070000000,,,-1330742678359872962,0.3149385452270508,49.95098424842581,-0.8275596387381663,13.009776222924978,2,26,0.0,15,183733348255703,21,26.0,-585.1162109375,0.12319999933242798,0,0.0,0.0,,,,,0,,1,0.0,
Raw,1368560,1055070000000,,,-1330742678359872962,0.3149385452270508,49.95098424842581,-0.8275596387381663,13.009776222924978,2,29,0.0,15,183733360235441,17,28.6,-226.2940216064453,0.0333000011742115,0,0.0,0.0,,,,,0,,1,0.0,
Raw,1368560,1055070000000,,,-1330742678359872962,0.3149385452270508,49.95098424842581,-0.8275596387381663,13.009776222924978,2,31,0.0,15,183733347702614,16,29.8,251.6746368408203,0.03720000013709068,0,0.0,0.0,,,,,0,,1,0.0,
NMEA,$GPGSV,3,1,11,02,28,053,26,05,60,097,27,12,33,163,41,18,33,253,31,1*69
,1646708516009
NMEA,$GPGSV,3,2,11,20,43,056,28,25,62,209,30,26,09,319,26,29,61,333,29,1*64
,1646708516009
NMEA,$GPGSV,3,3,11,31,12,282,30,15,02,151,,23,01,201,,1*5E
,1646708516009
NMEA,$GLGSV,3,1,10,78,37,299,36,86,11,066,21,77,37,222,20,76,04,184,15,1*72
,1646708516010
NMEA,$GLGSV,3,2,10,79,03,337,16,65,15,149,28,88,37,298,37,87,52,005,32,1*7B
,1646708516010
NMEA,$GLGSV,3,3,10,71,21,043,27,72,33,098,29,1*71
,1646708516010
NMEA,$GAGSV,1,1,0,7*43
,1646708516011
NMEA,$PQGSV,1,1,0,0*43
,1646708516014
NMEA,$GBGSV,1,1,0,0*47
,1646708516014
NMEA,$GNGSA,A,3,02,05,12,18,20,25,26,29,31,,,,1.0,0.7,0.8,1*3A
,1646708516019
NMEA,$GNGSA,A,3,65,71,72,78,87,88,,,,,,,1.0,0.7,0.8,2*3C
,1646708516020
NMEA,$GNVTG,,T,,M,0.0,N,0.0,K,A*3D
,1646708516021
NMEA,$GNGGA,030156.00,3725.649188,N,12210.217023,W,1,12,0.7,21.2,M,-27.9,M,,*79
,1646708516021
NMEA,$GNRMC,030156.00,A,3725.649188,N,12210.217023,W,0.0,,080322,15.0,E,A,V*5F
,1646708516021
NMEA,$AIDSTAT,0,0,0,2,,23,3*00
,1646708516927
Raw,1369525,1056070000000,,,-1330742678359872966,0.5896482467651367,52.059098379686475,-1.0800290378390163,13.71303965412962,2,14,0.0,207,21716359756321,8,36.8,-145.89617919921875,0.21970000863075256,0,0.0,0.0,,,,,0,,3,0.0,
Raw,1369526,1056070000000,,,-1330742678359872966,0.5896482467651367,52.059098379686475,-1.0800290378390163,13.71303965412962,2,22,0.0,207,21716351256918,1081,20.7,493.0810546875,22.13300132751465,0,0.0,0.0,,,,,0,,3,0.0,
Raw,1369526,1056070000000,,,-1330742678359872966,0.5896482467651367,52.059098379686475,-1.0800290378390163,13.71303965412962,2,13,0.0,207,21716359453238,40,21.6,610.1281127929688,1.0449999570846558,0,0.0,0.0,,,,,0,,3,0.0,
Raw,1369526,1056070000000,,,-1330742678359872966,0.5896482467651367,52.059098379686475,-1.0800290378390163,13.71303965412962,2,12,0.0,207,21716349248057,1241,14.9,827.3771362304688,23.440000534057617,0,0.0,0.0,,,,,0,,3,0.0,
Raw,1369526,1056070000000,,,-1330742678359872966,0.5896482467651367,52.059098379686475,-1.0800290378390163,13.71303965412962,2,15,0.0,207,21716349036981,173,15.6,-667.3563842773438,6.820000171661377,0,0.0,0.0,,,,,0,,3,0.0,
Raw,1369526,1056070000000,,,-1330742678359872966,0.5896482467651367,52.059098379686475,-1.0800290378390163,13.71303965412962,2,1,0.0,207,21716353462598,17,28.4,-763.0636596679688,0.25280001759529114,0,0.0,0.0,,,,,0,,3,0.0,
Raw,1369527,1056070000000,,,-1330742678359872966,0.5896482467651367,52.059098379686475,-1.0800290378390163,13.71303965412962,2,24,0.0,207,21716359791055,7,37.9,-287.0558166503906,0.249099999666214,0,0.0,0.0,,,,,0,,3,0.0,
Raw,1369527,1056070000000,,,-1330742678359872966,0.5896482467651367,52.059098379686475,-1.0800290378390163,13.71303965412962,2,23,0.0,207,21716362488113,13,31.5,119.13661193847656,0.2282000035047531,0,0.0,0.0,,,,,0,,3,0.0,
Raw,1369527,1056070000000,,,-1330742678359872966,0.5896482467651367,52.059098379686475,-1.0800290378390163,13.71303965412962,2,7,0.0,207,21716354980480,19,27.1,244.0650634765625,0.2623000144958496,0,0.0,0.0,,,,,0,,3,0.0,
Raw,1369527,1056070000000,,,-1330742678359872966,0.5896482467651367,52.059098379686475,-1.0800290378390163,13.71303965412962,2,8,0.0,207,21716358380830,16,29.1,-373.5342102050781,0.25369998812675476,0,0.0,0.0,,,,,0,,3,0.0,
Raw,1369527,1056070000000,,,-1330742678359872966,0.5896482467651367,52.059098379686475,-1.0800290378390163,13.71303965412962,2,2,0.0,15,183734350843430,24,25.9,460.97808837890625,0.3968000113964081,0,0.0,0.0,,,,,0,,1,0.0,
Raw,1369527,1056070000000,,,-1330742678359872966,0.5896482467651367,52.059098379686475,-1.0800290378390163,13.71303965412962,2,5,0.0,15,183734360855605,19,27.6,-10.285135269165039,0.04130000248551369,0,0.0,0.0,,,,,0,,1,0.0,
Raw,1369527,1056070000000,,,-1330742678359872966,0.5896482467651367,52.059098379686475,-1.0800290378390163,13.71303965412962,2,12,0.0,15,183734354133338,5,41.3,660.82568359375,0.04010000079870224,0,0.0,0.0,,,,,0,,1,0.0,
Raw,1369528,1056070000000,,,-1330742678359872966,0.5896482467651367,52.059098379686475,-1.0800290378390163,13.71303965412962,2,18,0.0,15,183734355335343,12,32.1,-433.765869140625,0.046400003135204315,0,0.0,0.0,,,,,0,,1,0.0,
Raw,1369528,1056070000000,,,-1330742678359872966,0.5896482467651367,52.059098379686475,-1.0800290378390163,13.71303965412962,2,20,0.0,15,183734357495035,17,28.3,349.6048583984375,0.058800000697374344,0,0.0,0.0,,,,,0,,1,0.0,
Raw,1369528,1056070000000,,,-1330742678359872966,0.5896482467651367,52.059098379686475,-1.0800290378390163,13.71303965412962,2,25,0.0,15,183734360734308,14,30.7,333.1313171386719,0.025800000876188278,0,0.0,0.0,,,,,0,,1,0.0,
Raw,1369529,1056070000000,,,-1330742678359872966,0.5896482467651367,52.059098379686475,-1.0800290378390163,13.71303965412962,2,26,0.0,15,183734348257691,21,26.3,-585.0662841796875,0.12319999933242798,0,0.0,0.0,,,,,0,,1,0.0,
Raw,1369529,1056070000000,,,-1330742678359872966,0.5896482467651367,52.059098379686475,-1.0800290378390163,13.71303965412962,2,29,0.0,15,183734360236191,16,29.8,-226.18368530273438,0.02670000120997429,0,0.0,0.0,,,,,0,,1,0.0,
Raw,1369529,1056070000000,,,-1330742678359872966,0.5896482467651367,52.059098379686475,-1.0800290378390163,13.71303965412962,2,31,0.0,15,183734347701775,14,30.1,251.74795532226562,0.03629999980330467,0,0.0,0.0,,,,,0,,1,0.0,
Fix,gps,37.427486,-122.170284,-6.686462,0.000000,3.216000,1646708517000
NMEA,$GPGSV,3,1,11,02,28,053,26,05,60,097,28,12,33,163,41,18,33,253,32,1*65
,1646708516999
NMEA,$GPGSV,3,2,11,20,43,056,28,25,62,209,31,26,09,319,26,29,61,333,30,1*6D
,1646708517000
NMEA,$GPGSV,3,3,11,31,12,282,30,15,02,151,,23,01,201,,1*5E
,1646708517000
NMEA,$GLGSV,3,1,10,78,37,299,37,86,11,066,21,77,37,222,22,76,04,184,15,1*71
,1646708517001
NMEA,$GLGSV,3,2,10,79,03,337,16,65,15,149,28,88,37,298,38,87,52,005,32,1*74
,1646708517002
NMEA,$GLGSV,3,3,10,71,21,043,27,72,33,098,29,1*71
,1646708517005
NMEA,$GAGSV,1,1,0,7*43
,1646708517005
NMEA,$PQGSV,1,1,0,0*43
,1646708517006
NMEA,$GBGSV,1,1,0,0*47
,1646708517006
NMEA,$GNGSA,A,3,02,05,12,18,20,25,26,29,31,,,,1.0,0.7,0.8,1*3A
,1646708517012
NMEA,$GNGSA,A,3,65,71,72,78,87,88,,,,,,,1.0,0.7,0.8,2*3C
,1646708517013
NMEA,$GNVTG,,T,,M,0.0,N,0.0,K,A*3D
,1646708517013
NMEA,$GNGGA,030157.00,3725.649189,N,12210.217023,W,1,12,0.7,21.2,M,-27.9,M,,*79
,1646708517013
NMEA,$GNRMC,030157.00,A,3725.649189,N,12210.217023,W,0.0,,080322,15.0,E,A,V*5F
,1646708517014
NMEA,$AIDSTAT,0,0,0,2,3,23,3*00
,1646708517926
Raw,1370536,1057070000000,,,-1330742678359872969,0.9670438766479492,50.27199222240597,-1.1649722668719027,12.434255240420523,2,14,0.0,207,21717359756781,8,36.0,-146.1775665283203,0.21970000863075256,0,0.0,0.0,,,,,0,,3,0.0,
Raw,1370536,1057070000000,,,-1330742678359872969,0.9670438766479492,50.27199222240597,-1.1649722668719027,12.434255240420523,2,22,0.0,207,21717351255273,1230,20.7,493.0810546875,23.63300132751465,0,0.0,0.0,,,,,0,,3,0.0,
Raw,1370536,1057070000000,,,-1330742678359872969,0.9670438766479492,50.27199222240597,-1.1649722668719027,12.434255240420523,2,13,0.0,207,21717359451373,35,22.0,609.25732421875,0.98499995470047,0,0.0,0.0,,,,,0,,3,0.0,
