# 
# Header Description:
# 
# Version: v2.0.0.1 Platform: 9 Manufacturer: samsung Model: SM-G960U
# 
# Raw,ElapsedRealtimeMillis,TimeNanos,LeapSecond,TimeUncertaintyNanos,FullBiasNanos,BiasNanos,BiasUncertaintyNanos,DriftNanosPerSecond,DriftUncertaintyNanosPerSecond,HardwareClockDiscontinuityCount,Svid,TimeOffsetNanos,State,ReceivedSvTimeNanos,ReceivedSvTimeUncertaintyNanos,Cn0DbHz,PseudorangeRateMetersPerSecond,PseudorangeRateUncertaintyMetersPerSecond,AccumulatedDeltaRangeState,AccumulatedDeltaRangeMeters,AccumulatedDeltaRangeUncertaintyMeters,CarrierFrequencyHz,CarrierCycles,CarrierPhase,CarrierPhaseUncertainty,MultipathIndicator,SnrInDb,ConstellationType,AgcDb,CarrierFrequencyHz
# 
# Fix,Provider,Latitude,Longitude,Altitude,Speed,Accuracy,(UTC)TimeInMs
# 
# Nav,Svid,Type,Status,MessageId,Sub-messageId,Data(Bytes)
# 
NMEA,$AIDSTAT,0,0,0,2,10,23,3*00
,1646709324926
Raw,2177529,1864070000000,,,-1330742678359878194,0.040406227111816406,29.688810172956437,-1.2452250410928183,11.949473975718874,5,14,0.0,207,22524359972973,10,34.9,-11.376791954040527,0.22060000896453857,0,0.0,0.0,,,,,0,,3,0.0,
Raw,2177529,1864070000000,,,-1330742678359878194,0.040406227111816406,29.688810172956437,-1.2452250410928183,11.949473975718874,5,22,0.0,207,22524349936055,35,22.3,490.2897644042969,1.0,0,0.0,0.0,,,,,0,,3,0.0,
Raw,2177529,1864070000000,,,-1330742678359878194,0.040406227111816406,29.688810172956437,-1.2452250410928183,11.949473975718874,5,15,0.0,207,22524350750263,17,28.3,-596.7157592773438,0.2483000010251999,0,0.0,0.0,,,,,0,,3,0.0,
Raw,2177529,1864070000000,,,-1330742678359878194,0.040406227111816406,29.688810172956437,-1.2452250410928183,11.949473975718874,5,1,0.0,207,22524355490585,506,18.7,-733.3077392578125,14.79900074005127,0,0.0,0.0,,,,,0,,3,0.0,
Raw,2177530,1864070000000,,,-1330742678359878194,0.040406227111816406,29.688810172956437,-1.2452250410928183,11.949473975718874,5,24,0.0,207,22524360529455,17,28.2,-258.1043701171875,0.6965000033378601,0,0.0,0.0,,,,,0,,3,0.0,
Raw,2177530,1864070000000,,,-1330742678359878194,0.040406227111816406,29.688810172956437,-1.2452250410928183,11.949473975718874,5,23,0.0,207,22524362130659,24,25.3,148.99917602539062,0.5848000049591064,0,0.0,0.0,,,,,0,,3,0.0,
Raw,2177530,1864070000000,,,-1330742678359878194,0.040406227111816406,29.688810172956437,-1.2452250410928183,11.949473975718874,5,7,0.0,207,22524354165551,35,22.7,362.47369384765625,1.0074999332427979,0,0.0,0.0,,,,,0,,3,0.0,
Raw,2177530,1864070000000,,,-1330742678359878194,0.040406227111816406,29.688810172956437,-1.2452250410928183,11.949473975718874,5,8,0.0,207,22524359240980,8,36.6,-259.19488525390625,0.24970000982284546,0,0.0,0.0,,,,,0,,3,0.0,
Raw,2177530,1864070000000,,,-1330742678359878194,0.040406227111816406,29.688810172956437,-1.2452250410928183,11.949473975718874,5,2,0.0,15,184542349606367,9,35.8,459.9448547363281,0.035100001841783524,0,0.0,0.0,,,,,0,,1,0.0,
Raw,2177530,1864070000000,,,-1330742678359878194,0.040406227111816406,29.688810172956437,-1.2452250410928183,11.949473975718874,5,5,0.0,15,184542360743716,10,34.0,96.36357116699219,0.022099999710917473,0,0.0,0.0,,,,,0,,1,0.0,
Raw,2177530,1864070000000,,,-1330742678359878194,0.040406227111816406,29.688810172956437,-1.2452250410928183,11.949473975718874,5,18,0.0,15,184542356450442,80,16.9,-391.4150695800781,1.1004999876022339,0,0.0,0.0,,,,,0,,1,0.0,
Raw,2177530,1864070000000,,,-1330742678359878194,0.040406227111816406,29.688810172956437,-1.2452250410928183,11.949473975718874,5,20,0.0,15,184542356455774,9,35.1,423.19805908203125,0.04560000076889992,0,0.0,0.0,,,,,0,,1,0.0,
Raw,2177530,1864070000000,,,-1330742678359878194,0.040406227111816406,29.688810172956437,-1.2452250410928183,11.949473975718874,5,26,0.0,15,184542349775288,19,27.3,-536.02392578125,0.05480000376701355,0,0.0,0.0,,,,,0,,1,0.0,
Raw,2177530,1864070000000,,,-1330742678359878194,0.040406227111816406,29.688810172956437,-1.2452250410928183,11.949473975718874,5,29,0.0,15,184542360793569,9,35.4,-183.15762329101562,0.02160000056028366,0,0.0,0.0,,,,,0,,1,0.0,
Raw,2177530,1864070000000,,,-1330742678359878194,0.040406227111816406,29.688810172956437,-1.2452250410928183,11.949473975718874,5,31,0.0,15,184542346942613,61,19.0,313.5469055175781,2.3554999828338623,0,0.0,0.0,,,,,0,,1,0.0,
Fix,gps,37.427209,-122.170410,-2.714905,0.000000,3.216000,1646709325000
NMEA,$GPGSV,3,1,12,02,23,056,36,05,59,082,34,18,38,258,17,20,39,052,35,1*66
,1646709324999
NMEA,$GPGSV,3,2,12,26,14,317,27,29,65,343,35,31,11,277,19,12,27,163,,1*67
,1646709324999
NMEA,$GPGSV,3,3,12,13,02,115,,15,07,147,,23,07,201,,25,56,202,,1*62
,1646709324999
NMEA,$GLGSV,3,1,10,78,39,289,35,86,07,071,22,79,07,334,28,65,22,144,19,1*79
,1646709324999
NMEA,$GLGSV,3,2,10,88,41,306,28,87,49,018,25,71,19,036,23,72,37,090,37,1*78
,1646709324999
NMEA,$GLGSV,3,3,10,77,30,217,,81,01,274,,1*77
,1646709324999
NMEA,$GAGSV,1,1,0,7*43
,1646709324999
NMEA,$PQGSV,1,1,0,0*43
,1646709325000
NMEA,$GBGSV,1,1,0,0*47
,1646709325000
NMEA,$GNGSA,A,3,02,05,18,20,26,29,,,,,,,1.4,1.1,0.8,1*3F
,1646709325005
NMEA,$GNGSA,A,3,71,72,78,79,86,87,88,,,,,,1.4,1.1,0.8,2*3C
,1646709325005
NMEA,$GNVTG,,T,,M,0.0,N,0.0,K,A*3D
,1646709325005
NMEA,$GNGGA,031525.00,3725.632513,N,12210.224579,W,1,12,1.1,25.2,M,-27.9,M,,*7B
,1646709325005
NMEA,$GNRMC,031525.00,A,3725.632513,N,12210.224579,W,0.0,,080322,15.0,E,A,V*5E
,1646709325005
NMEA,$AIDSTAT,0,0,0,2,,23,3*00
,1646709325928
Raw,2178520,1865070000000,,,-1330742678359878197,0.030371665954589844,30.562594474758953,-1.1032402430198451,12.196478020250227,5,14,0.0,207,22525359972989,6,38.3,-10.832606315612793,0.21860000491142273,0,0.0,0.0,,,,,0,,3,0.0,
Raw,2178520,1865070000000,,,-1330742678359878197,0.030371665954589844,30.562594474758953,-1.1032402430198451,12.196478020250227,5,22,0.0,207,22525349934468,27,24.1,490.58013916015625,0.8799999952316284,0,0.0,0.0,,,,,0,,3,0.0,
Raw,2178520,1865070000000,,,-1330742678359878197,0.030371665954589844,30.562594474758953,-1.1032402430198451,12.196478020250227,5,15,0.0,207,22525350752270,13,31.0,-596.3056640625,0.2401999980211258,0,0.0,0.0,,,,,0,,3,0.0,
Raw,2178520,1865070000000,,,-1330742678359878197,0.030371665954589844,30.562594474758953,-1.1032402430198451,12.196478020250227,5,1,0.0,207,22525355493031,606,18.7,-733.3077392578125,16.298999786376953,0,0.0,0.0,,,,,0,,3,0.0,
Raw,2178520,1865070000000,,,-1330742678359878197,0.030371665954589844,30.562594474758953,-1.1032402430198451,12.196478020250227,5,24,0.0,207,22525360530399,27,24.7,-257.5433654785156,0.8664999604225159,0,0.0,0.0,,,,,0,,3,0.0,
Raw,2178520,1865070000000,,,-1330742678359878197,0.030371665954589844,30.562594474758953,-1.1032402430198451,12.196478020250227,5,23,0.0,207,22525362130166,27,24.3,149.50482177734375,0.8694999814033508,0,0.0,0.0,,,,,0,,3,0.0,
Raw,2178520,1865070000000,,,-1330742678359878197,0.030371665954589844,30.562594474758953,-1.1032402430198451,12.196478020250227,5,7,0.0,207,22525354164272,21,26.8,363.4170837402344,0.7975000143051147,0,0.0,0.0,,,,,0,,3,0.0,
Raw,2178520,1865070000000,,,-1330742678359878197,0.030371665954589844,30.562594474758953,-1.1032402430198451,12.196478020250227,5,8,0.0,207,22525359241833,6,39.2,-258.5078430175781,0.24809999763965607,0,0.0,0.0,,,,,0,,3,0.0,
Raw,2178520,1865070000000,,,-1330742678359878197,0.030371665954589844,30.562594474758953,-1.1032402430198451,12.196478020250227,5,2,0.0,15,184543349604839,10,34.8,460.43505859375,0.035600002855062485,0,0.0,0.0,,,,,0,,1,0.0,
Raw,2178520,1865070000000,,,-1330742678359878197,0.030371665954589844,30.562594474758953,-1.1032402430198451,12.196478020250227,5,5,0.0,15,184543360743414,12,32.4,97.02781677246094,0.023900000378489494,0,0.0,0.0,,,,,0,,1,0.0,
Raw,2178520,1865070000000,,,-1330742678359878197,0.030371665954589844,30.562594474758953,-1.1032402430198451,12.196478020250227,5,18,0.0,15,184543356451748,89,16.9,-391.4150695800781,2.6005001068115234,0,0.0,0.0,,,,,0,,1,0.0,
Raw,2178520,1865070000000,,,-1330742678359878197,0.030371665954589844,30.562594474758953,-1.1032402430198451,12.196478020250227,5,20,0.0,15,184543356454337,10,34.8,423.82037353515625,0.04610000178217888,0,0.0,0.0,,,,,0,,1,0.0,
Raw,2178520,1865070000000,,,-1330742678359878197,0.030371665954589844,30.562594474758953,-1.1032402430198451,12.196478020250227,5,26,0.0,15,184543349777140,17,28.9,-535.450439453125,0.046800002455711365,0,0.0,0.0,,,,,0,,1,0.0,
Raw,2178521,1865070000000,,,-1330742678359878197,0.030371665954589844,30.562594474758953,-1.1032402430198451,12.196478020250227,5,29,0.0,15,184543360794163,11,33.1,-182.6918182373047,0.02290000021457672,0,0.0,0.0,,,,,0,,1,0.0,
Raw,2178521,1865070000000,,,-1330742678359878197,0.030371665954589844,30.562594474758953,-1.1032402430198451,12.196478020250227,5,31,0.0,15,184543346941308,96,15.2,312.7000732421875,1.9255000352859497,0,0.0,0.0,,,,,0,,1,0.0,
NMEA,$GPGSV,3,1,12,02,23,056,35,05,59,082,32,18,38,258,17,20,39,052,35,1*63
,1646709326001
NMEA,$GPGSV,3,2,12,26,14,317,29,29,65,343,33,31,11,277,15,12,27,163,,1*63
,1646709326001
NMEA,$GPGSV,3,3,12,13,02,115,,15,07,147,,23,07,201,,25,56,202,,1*62
,1646709326002
NMEA,$GLGSV,3,1,10,78,39,289,38,86,07,071,24,79,07,334,31,65,22,144,19,1*7A
,1646709326004
NMEA,$GLGSV,3,2,10,88,41,306,25,87,49,018,24,71,19,036,27,72,37,090,39,1*7E
,1646709326009
NMEA,$GLGSV,3,3,10,77,30,217,,81,01,274,,1*77
,1646709326009
NMEA,$GAGSV,1,1,0,7*43
,1646709326010
NMEA,$PQGSV,1,1,0,0*43
,1646709326011
NMEA,$GBGSV,1,1,0,0*47
,1646709326011
Fix,gps,37.427209,-122.170410,-2.878998,0.000000,3.216000,1646709326000
NMEA,$GNGSA,A,3,02,05,20,26,29,,,,,,,,1.6,1.4,0.8,1*31
,1646709326022
NMEA,$GNGSA,A,3,71,72,78,79,86,87,88,,,,,,1.6,1.4,0.8,2*3B
,1646709326023
NMEA,$GNVTG,,T,,M,0.0,N,0.0,K,A*3D
,1646709326023
NMEA,$GNGGA,031526.00,3725.632561,N,12210.224580,W,1,12,1.4,25.1,M,-27.9,M,,*7D
,1646709326025
NMEA,$GNRMC,031526.00,A,3725.632561,N,12210.224580,W,0.0,,080322,15.0,E,A,V*5E
,1646709326025
NMEA,$AIDSTAT,0,0,0,2,22,23,3*00
,1646709326928
Raw,2179574,1866070000000,,,-1330742678359878195,0.5561184883117676,31.1862604576163,0.3041103045293896,12.982878304157545,5,14,0.0,207,22526359973021,7,37.2,-10.93560791015625,0.2190999984741211,0,0.0,0.0,,,,,0,,3,0.0,
Raw,2179574,1866070000000,,,-1330742678359878195,0.5561184883117676,31.1862604576163,0.3041103045293896,12.982878304157545,5,22,0.0,207,22526349932773,40,21.6,490.55206298828125,1.059999942779541,0,0.0,0.0,,,,,0,,3,0.0,
Raw,2179574,1866070000000,,,-1330742678359878195,0.5561184883117676,31.1862604576163,0.3041103045293896,12.982878304157545,5,15,0.0,207,22526350754246,35,22.2,-596.4971923828125,1.0015000104904175,0,0.0,0.0,,,,,0,,3,0.0,
Raw,2179574,1866070000000,,,-1330742678359878195,0.5561184883117676,31.1862604576163,0.3041103045293896,12.982878304157545,5,1,0.0,207,22526355495477,715,18.7,-733.3077392578125,17.799001693725586,0,0.0,0.0,,,,,0,,3,0.0,
Raw,2179574,1866070000000,,,-1330742678359878195,0.5561184883117676,31.1862604576163,0.3041103045293896,12.982878304157545,5,24,0.0,207,22526360531213,10,34.1,-257.7176513671875,0.22210000455379486,0,0.0,0.0,,,,,0,,3,0.0,
Raw,2179574,1866070000000,,,-1330742678359878195,0.5561184883117676,31.1862604576163,0.3041103045293896,12.982878304157545,5,23,0.0,207,22526362129711,21,26.9,149.1191864013672,0.3141999840736389,0,0.0,0.0,,,,,0,,3,0.0,
Raw,2179574,1866070000000,,,-1330742678359878195,0.5561184883117676,31.1862604576163,0.3041103045293896,12.982878304157545,5,7,0.0,207,22526354163004,19,27.1,362.9293212890625,0.2623000144958496,0,0.0,0.0,,,,,0,,3,0.0,
Raw,2179574,1866070000000,,,-1330742678359878195,0.5561184883117676,31.1862604576163,0.3041103045293896,12.982878304157545,5,8,0.0,207,22526359242702,7,37.9,-258.7668151855469,0.249099999666214,0,0.0,0.0,,,,,0,,3,0.0,
Raw,2179575,1866070000000,,,-1330742678359878195,0.5561184883117676,31.1862604576163,0.3041103045293896,12.982878304157545,5,2,0.0,15,184544349603263,10,34.6,460.00604248046875,0.035600002855062485,0,0.0,0.0,,,,,0,,1,0.0,
Raw,2179575,1866070000000,,,-1330742678359878195,0.5561184883117676,31.1862604576163,0.3041103045293896,12.982878304157545,5,5,0.0,15,184544360743082,12,32.6,96.747802734375,0.023900000378489494,0,0.0,0.0,,,,,0,,1,0.0,
Raw,2179575,1866070000000,,,-1330742678359878195,0.5561184883117676,31.1862604576163,0.3041103045293896,12.982878304157545,5,18,0.0,15,184544356453053,108,16.9,-391.4150695800781,4.100500106811523,0,0.0,0.0,,,,,0,,1,0.0,
Raw,2179575,1866070000000,,,-1330742678359878195,0.5561184883117676,31.1862604576163,0.3041103045293896,12.982878304157545,5,20,0.0,15,184544356452925,12,32.6,423.4219970703125,0.0479000024497509,0,0.0,0.0,,,,,0,,1,0.0,
Raw,2179575,1866070000000,,,-1330742678359878195,0.5561184883117676,31.1862604576163,0.3041103045293896,12.982878304157545,5,26,0.0,15,184544349778889,19,27.3,-535.7289428710938,0.05480000376701355,0,0.0,0.0,,,,,0,,1,0.0,
Raw,2179575,1866070000000,,,-1330742678359878195,0.5561184883117676,31.1862604576163,0.3041103045293896,12.982878304157545,5,29,0.0,15,184544360794743,14,30.6,-182.97525024414062,0.025800000876188278,0,0.0,0.0,,,,,0,,1,0.0,
Raw,2179575,1866070000000,,,-1330742678359878195,0.5561184883117676,31.1862604576163,0.3041103045293896,12.982878304157545,5,31,0.0,15,184544346940264,110,15.2,312.7000732421875,3.4255001544952393,0,0.0,0.0,,,,,0,,1,0.0,
Fix,gps,37.427209,-122.170409,-2.884094,0.000000,3.216000,1646709327000
NMEA,$GPGSV,3,1,12,02,23,056,35,05,59,082,33,18,38,258,17,20,39,052,33,1*64
,1646709326998
NMEA,$GPGSV,3,2,12,26,14,317,27,29,65,343,31,31,11,277,15,12,27,163,,1*6F
,1646709326998
NMEA,$GPGSV,3,3,12,13,02,115,,15,07,147,,23,07,201,,25,56,202,,1*62
,1646709326998
NMEA,$GLGSV,3,1,10,78,39,289,37,86,07,071,22,79,07,334,22,65,22,144,19,1*71
,1646709326998
NMEA,$GLGSV,3,2,10,88,41,306,34,87,49,018,27,71,19,036,27,72,37,090,38,1*7C
,1646709326998
NMEA,$GLGSV,3,3,10,77,30,217,,81,01,274,,1*77
,1646709326998
NMEA,$GAGSV,1,1,0,7*43
,1646709326999
NMEA,$PQGSV,1,1,0,0*43
,1646709327001
NMEA,$GBGSV,1,1,0,0*47
,1646709327001
NMEA,$GNGSA,A,3,02,05,20,26,29,,,,,,,,1.6,1.4,0.8,1*31
,1646709327005
NMEA,$GNGSA,A,3,71,72,78,79,86,87,88,,,,,,1.6,1.4,0.8,2*3B
,1646709327005
NMEA,$GNVTG,,T,,M,0.0,N,0.0,K,A*3D
,1646709327005
NMEA,$GNGGA,031527.00,3725.632553,N,12210.224558,W,1,12,1.4,25.1,M,-27.9,M,,*78
,1646709327005
NMEA,$GNRMC,031527.00,A,3725.632553,N,12210.224558,W,0.0,,080322,15.0,E,A,V*5B
,1646709327005
NMEA,$AIDSTAT,0,0,0,2,3,23,3*00
,1646709327926
Fix,gps,37.427209,-122.170410,-2.748840,0.000000,3.216000,1646709328000
Raw,2180533,1867070000000,,,-1330742678359878190,0.5480074882507324,31.861291063250974,-0.4291336702414074,12.070521767681306,5,14,0.0,207,22527359973082,7,37.7,-10.536614418029785,0.2190999984741211,0,0.0,0.0,,,,,0,,3,0.0,
Raw,2180533,1867070000000,,,-1330742678359878190,0.5480074882507324,31.861291063250974,-0.4291336702414074,12.070521767681306,5,22,0.0,207,22527349931057,40,21.6,490.19610595703125,1.059999942779541,0,0.0,0.0,,,,,0,,3,0.0,
Raw,2180533,1867070000000,,,-1330742678359878190,0.5480074882507324,31.861291063250974,-0.4291336702414074,12.070521767681306,5,15,0.0,207,22527350756229,31,23.9,-596.6936645507812,0.9414999485015869,0,0.0,0.0,,,,,0,,3,0.0,
Raw,2180533,1867070000000,,,-1330742678359878190,0.5480074882507324,31.861291063250974,-0.4291336702414074,12.070521767681306,5,1,0.0,207,22527355498003,374,10.5,-735.5525512695312,10.499000549316406,0,0.0,0.0,,,,,0,,3,0.0,
Raw,2180533,1867070000000,,,-1330742678359878190,0.5480074882507324,31.861291063250974,-0.4291336702414074,12.070521767681306,5,24,0.0,207,22527360532092,11,33.4,-257.443115234375,0.22290000319480896,0,0.0,0.0,,,,,0,,3,0.0,
Raw,2180534,1867070000000,,,-1330742678359878190,0.5480074882507324,31.861291063250974,-0.4291336702414074,12.070521767681306,5,23,0.0,207,22527362129234,21,26.1,149.3749237060547,0.3141999840736389,0,0.0,0.0,,,,,0,,3,0.0,
Raw,2180534,1867070000000,,,-1330742678359878190,0.5480074882507324,31.861291063250974,-0.4291336702414074,12.070521767681306,5,7,0.0,207,22527354161807,17,28.6,363.2864074707031,0.25429999828338623,0,0.0,0.0,,,,,0,,3,0.0,
Raw,2180534,1867070000000,,,-1330742678359878190,0.5480074882507324,31.861291063250974,-0.4291336702414074,12.070521767681306,5,8,0.0,207,22527359243556,7,37.3,-258.40447998046875,0.249099999666214,0,0.0,0.0,,,,,0,,3,0.0,
Raw,2180534,1867070000000,,,-1330742678359878190,0.5480074882507324,31.861291063250974,-0.4291336702414074,12.070521767681306,5,2,0.0,15,184545349601717,10,34.5,460.26092529296875,0.035600002855062485,0,0.0,0.0,,,,,0,,1,0.0,
Raw,2180534,1867070000000,,,-1330742678359878190,0.5480074882507324,31.861291063250974,-0.4291336702414074,12.070521767681306,5,5,0.0,15,184545360742775,12,32.7,97.13687896728516,0.023900000378489494,0,0.0,0.0,,,,,0,,1,0.0,
Raw,2180534,1867070000000,,,-1330742678359878190,0.5480074882507324,31.861291063250974,-0.4291336702414074,12.070521767681306,5,12,0.0,15,184545352298499,1427,12.7,696.5414428710938,7.824500560760498,0,0.0,0.0,,,,,0,,1,0.0,
Raw,2180534,1867070000000,,,-1330742678359878190,0.5480074882507324,31.861291063250974,-0.4291336702414074,12.070521767681306,5,18,0.0,15,184545356454405,132,13.9,-391.4055480957031,2.880500078201294,0,0.0,0.0,,,,,0,,1,0.0,
Raw,2180534,1867070000000,,,-1330742678359878190,0.5480074882507324,31.861291063250974,-0.4291336702414074,12.070521767681306,5,20,0.0,15,184545356451506,12,32.8,423.8014831542969,0.0479000024497509,0,0.0,0.0,,,,,0,,1,0.0,
Raw,2180534,1867070000000,,,-1330742678359878190,0.5480074882507324,31.861291063250974,-0.4291336702414074,12.070521767681306,5,26,0.0,15,184545349780679,24,25.2,-535.3489379882812,0.3953000009059906,0,0.0,0.0,,,,,0,,1,0.0,
Raw,2180534,1867070000000,,,-1330742678359878190,0.5480074882507324,31.861291063250974,-0.4291336702414074,12.070521767681306,5,29,0.0,15,184545360795387,16,29.6,-182.65187072753906,0.02670000120997429,0,0.0,0.0,,,,,0,,1,0.0,
Raw,2180534,1867070000000,,,-1330742678359878190,0.5480074882507324,31.861291063250974,-0.4291336702414074,12.070521767681306,5,31,0.0,15,184545346939221,134,15.2,312.7000732421875,4.925500392913818,0,0.0,0.0,,,,,0,,1,0.0,
NMEA,$GPGSV,3,1,12,02,23,056,35,05,59,082,33,12,27,163,13,18,38,258,14,1*68
,1646709328006
NMEA,$GPGSV,3,2,12,20,39,052,33,26,14,317,25,29,65,343,30,31,11,277,15,1*61
,1646709328008
NMEA,$GPGSV,3,3,12,13,02,115,,15,07,147,,23,07,201,,25,56,202,,1*62
,1646709328008
NMEA,$GLGSV,3,1,10,78,39,289,38,86,07,071,22,79,07,334,24,65,22,144,11,1*70
,1646709328008
NMEA,$GLGSV,3,2,10,88,41,306,33,87,49,018,26,71,19,036,29,72,37,090,37,1*7B
,1646709328009
NMEA,$GLGSV,3,3,10,77,30,217,,81,01,274,,1*77
,1646709328009
NMEA,$GAGSV,1,1,0,7*43
,1646709328010
NMEA,$PQGSV,1,1,0,0*43
,1646709328011
NMEA,$GBGSV,1,1,0,0*47
,1646709328011
NMEA,$GNGSA,A,3,02,05,20,26,29,,,,,,,,1.6,1.4,0.8,1*31
,1646709328018
NMEA,$GNGSA,A,3,71,72,78,79,86,87,88,,,,,,1.6,1.4,0.8,2*3B
,1646709328018
NMEA,$GNVTG,,T,,M,0.0,N,0.0,K,A*3D
,1646709328018
NMEA,$GNGGA,031528.00,3725.632533,N,12210.224606,W,1,12,1.4,25.2,M,-27.9,M,,*7A
,1646709328018
NMEA,$GNRMC,031528.00,A,3725.632533,N,12210.224606,W,0.0,,080322,15.0,E,A,V*5A
,1646709328019
NMEA,$AIDSTAT,0,0,0,2,,23,3*00
,1646709328926
Raw,2181530,1868070000000,,,-1330742678359878192,0.4767460823059082,33.39773684274405,-0.005028066185241106,12.241760398486253,5,14,0.0,207,22528359973096,7,37.8,-10.159578323364258,0.2190999984741211,0,0.0,0.0,,,,,0,,3,0.0,
Raw,2181530,1868070000000,,,-1330742678359878192,0.4767460823059082,33.39773684274405,-0.005028066185241106,12.241760398486253,5,22,0.0,207,22528349929503,70,17.5,490.58013916015625,1.3799999952316284,0,0.0,0.0,,,,,0,,3,0.0,
Raw,2181531,1868070000000,,,-1330742678359878192,0.4767460823059082,33.39773684274405,-0.005028066185241106,12.241760398486253,5,15,0.0,207,22528350758179,24,25.7,-596.155029296875,0.5967999696731567,0,0.0,0.0,,,,,0,,3,0.0,
Raw,2181531,1868070000000,,,-1330742678359878192,0.4767460823059082,33.39773684274405,-0.005028066185241106,12.241760398486253,5,1,0.0,207,22528355500457,442,10.5,-735.5525512695312,11.999000549316406,0,0.0,0.0,,,,,0,,3,0.0,
Raw,2181531,1868070000000,,,-1330742678359878192,0.4767460823059082,33.39773684274405,-0.005028066185241106,12.241760398486253,5,24,0.0,207,22528360532952,11,33.4,-257.2564392089844,0.22290000319480896,0,0.0,0.0,,,,,0,,3,0.0,
Raw,2181531,1868070000000,,,-1330742678359878192,0.4767460823059082,33.39773684274405,-0.005028066185241106,12.241760398486253,5,23,0.0,207,22528362128701,19,27.8,149.5830535888672,0.2443000078201294,0,0.0,0.0,,,,,0,,3,0.0,
Raw,2181531,1868070000000,,,-1330742678359878192,0.4767460823059082,33.39773684274405,-0.005028066185241106,12.241760398486253,5,7,0.0,207,22528354160603,21,26.7,363.6336364746094,0.33219999074935913,0,0.0,0.0,,,,,0,,3,0.0,
Raw,2181531,1868070000000,,,-1330742678359878192,0.4767460823059082,33.39773684274405,-0.005028066185241106,12.241760398486253,5,8,0.0,207,22528359244430,7,37.1,-257.9779357910156,0.249099999666214,0,0.0,0.0,,,,,0,,3,0.0,
Raw,2181531,1868070000000,,,-1330742678359878192,0.4767460823059082,33.39773684274405,-0.005028066185241106,12.241760398486253,5,2,0.0,15,184546349600215,11,33.1,460.4823303222656,0.036400001496076584,0,0.0,0.0,,,,,0,,1,0.0,
Raw,2181531,1868070000000,,,-1330742678359878192,0.4767460823059082,33.39773684274405,-0.005028066185241106,12.241760398486253,5,5,0.0,15,184546360742447,13,31.3,97.45750427246094,0.025200000032782555,0,0.0,0.0,,,,,0,,1,0.0,
Raw,2181531,1868070000000,,,-1330742678359878192,0.4767460823059082,33.39773684274405,-0.005028066185241106,12.241760398486253,5,12,0.0,15,184546352296198,1439,12.1,696.5509643554688,8.19950008392334,0,0.0,0.0,,,,,0,,1,0.0,
Raw,2181531,1868070000000,,,-1330742678359878192,0.4767460823059082,33.39773684274405,-0.005028066185241106,12.241760398486253,5,18,0.0,15,184546356455711,151,13.9,-391.4055480957031,4.380500316619873,0,0.0,0.0,,,,,0,,1,0.0,
Raw,2181531,1868070000000,,,-1330742678359878192,0.4767460823059082,33.39773684274405,-0.005028066185241106,12.241760398486253,5,20,0.0,15,184546356450103,13,31.5,424.14312744140625,0.04920000210404396,0,0.0,0.0,,,,,0,,1,0.0,
Raw,2181532,1868070000000,,,-1330742678359878192,0.4767460823059082,33.39773684274405,-0.005028066185241106,12.241760398486253,5,26,0.0,15,184546349782470,14,30.5,-535.134765625,0.03930000215768814,0,0.0,0.0,,,,,0,,1,0.0,
Raw,2181532,1868070000000,,,-1330742678359878192,0.4767460823059082,33.39773684274405,-0.005028066185241106,12.241760398486253,5,29,0.0,15,184546360795979,14,30.5,-182.34060668945312,0.025800000876188278,0,0.0,0.0,,,,,0,,1,0.0,
Raw,2181532,1868070000000,,,-1330742678359878192,0.4767460823059082,33.39773684274405,-0.005028066185241106,12.241760398486253,5,31,0.0,15,184546346938448,116,14.2,313.927490234375,2.765500068664551,0,0.0,0.0,,,,,0,,1,0.0,
Fix,gps,37.427208,-122.170410,-2.721985,0.000000,3.216000,1646709329000
NMEA,$GPGSV,3,1,12,02,23,056,33,05,59,082,31,12,27,163,12,18,38,258,14,1*6D
,1646709329011
NMEA,$GPGSV,3,2,12,20,39,052,32,26,14,317,31,29,65,343,31,31,11,277,14,1*65
,1646709329011
NMEA,$GPGSV,3,3,12,13,02,115,,15,07,147,,23,07,201,,25,56,202,,1*62
,1646709329011
NMEA,$GLGSV,3,1,10,78,39,289,38,86,07,071,18,79,07,334,26,65,22,144,11,1*7B
,1646709329011
NMEA,$GLGSV,3,2,10,88,41,306,33,87,49,018,28,71,19,036,27,72,37,090,37,1*7B
,1646709329011
NMEA,$GLGSV,3,3,10,77,30,217,,81,01,274,,1*77
,1646709329012
NMEA,$GAGSV,1,1,0,7*43
,1646709329012
NMEA,$PQGSV,1,1,0,0*43
,1646709329012
NMEA,$GBGSV,1,1,0,0*47
,1646709329012
NMEA,$GNGSA,A,3,02,05,20,26,29,,,,,,,,1.6,1.4,0.8,1*31
,1646709329019
NMEA,$GNGSA,A,3,71,72,78,79,86,87,88,,,,,,1.6,1.4,0.8,2*3B
,1646709329019
NMEA,$GNVTG,,T,,M,0.0,N,0.0,K,A*3D
,1646709329019
NMEA,$GNGGA,031529.00,3725.632493,N,12210.224613,W,1,12,1.4,25.2,M,-27.9,M,,*74
,1646709329019
NMEA,$GNRMC,031529.00,A,3725.632493,N,12210.224613,W,0.0,,080322,15.0,E,A,V*54
,1646709329019
NMEA,$AIDSTAT,0,0,0,2,4,23,3*00
,1646709329927
Raw,2182549,1869070000000,,,-1330742678359878191,0.3261122703552246,30.67381476284936,0.4858278018661575,11.43264695273168,5,14,0.0,207,22529359973157,6,39.0,-10.33156967163086,0.21809999644756317,0,0.0,0.0,,,,,0,,3,0.0,
Raw,2182549,1869070000000,,,-1330742678359878191,0.3261122703552246,30.67381476284936,0.4858278018661575,11.43264695273168,5,22,0.0,207,22529349928060,53,19.3,490.9454345703125,1.2100000381469727,0,0.0,0.0,,,,,0,,3,0.0,
Raw,2182549,1869070000000,,,-1330742678359878191,0.3261122703552246,30.67381476284936,0.4858278018661575,11.43264695273168,5,15,0.0,207,22529350760136,19,27.5,-596.1766967773438,0.2563000023365021,0,0.0,0.0,,,,,0,,3,0.0,
Raw,2182549,1869070000000,,,-1330742678359878191,0.3261122703552246,30.67381476284936,0.4858278018661575,11.43264695273168,5,1,0.0,207,22529355503177,84,16.3,-735.69287109375,2.2290000915527344,0,0.0,0.0,,,,,0,,3,0.0,
Raw,2182550,1869070000000,,,-1330742678359878191,0.3261122703552246,30.67381476284936,0.4858278018661575,11.43264695273168,5,24,0.0,207,22529360533801,13,31.4,-257.53668212890625,0.22519999742507935,0,0.0,0.0,,,,,0,,3,0.0,
Raw,2182550,1869070000000,,,-1330742678359878191,0.3261122703552246,30.67381476284936,0.4858278018661575,11.43264695273168,5,23,0.0,207,22529362128202,13,31.0,149.3406982421875,0.2282000035047531,0,0.0,0.0,,,,,0,,3,0.0,
Raw,2182550,1869070000000,,,-1330742678359878191,0.3261122703552246,30.67381476284936,0.4858278018661575,11.43264695273168,5,7,0.0,207,22529354159361,21,26.6,363.4602966308594,0.33219999074935913,0,0.0,0.0,,,,,0,,3,0.0,
Raw,2182550,1869070000000,,,-1330742678359878191,0.3261122703552246,30.67381476284936,0.4858278018661575,11.43264695273168,5,8,0.0,207,22529359245295,6,38.2,-258.20111083984375,0.24860000610351562,0,0.0,0.0,,,,,0,,3,0.0,
Raw,2182550,1869070000000,,,-1330742678359878191,0.3261122703552246,30.67381476284936,0.4858278018661575,11.43264695273168,5,2,0.0,15,184547349598664,11,33.7,460.0939025878906,0.036400001496076584,0,0.0,0.0,,,,,0,,1,0.0,
Raw,2182551,1869070000000,,,-1330742678359878191,0.3261122703552246,30.67381476284936,0.4858278018661575,11.43264695273168,5,5,0.0,15,184547360742130,12,32.8,97.26746368408203,0.023900000378489494,0,0.0,0.0,,,,,0,,1,0.0,
Raw,2182551,1869070000000,,,-1330742678359878191,0.3261122703552246,30.67381476284936,0.4858278018661575,11.43264695273168,5,12,0.0,15,184547352293852,1465,12.1,696.5985717773438,8.94950008392334,0,0.0,0.0,,,,,0,,1,0.0,
Raw,2182551,1869070000000,,,-1330742678359878191,0.3261122703552246,30.67381476284936,0.4858278018661575,11.43264695273168,5,18,0.0,15,184547356457016,181,13.9,-391.4055480957031,5.880500316619873,0,0.0,0.0,,,,,0,,1,0.0,
Raw,2182551,1869070000000,,,-1330742678359878191,0.3261122703552246,30.67381476284936,0.4858278018661575,11.43264695273168,5,20,0.0,15,184547356448704,13,31.5,423.8031005859375,0.04920000210404396,0,0.0,0.0,,,,,0,,1,0.0,
Raw,2182551,1869070000000,,,-1330742678359878191,0.3261122703552246,30.67381476284936,0.4858278018661575,11.43264695273168,5,26,0.0,15,184547349784247,14,30.4,-535.4554443359375,0.03930000215768814,0,0.0,0.0,,,,,0,,1,0.0,
Raw,2182551,1869070000000,,,-1330742678359878191,0.3261122703552246,30.67381476284936,0.4858278018661575,11.43264695273168,5,29,0.0,15,184547360796602,11,33.5,-182.6535186767578,0.02290000021457672,0,0.0,0.0,,,,,0,,1,0.0,
Raw,2182551,1869070000000,,,-1330742678359878191,0.3261122703552246,30.67381476284936,0.4858278018661575,11.43264695273168,5,31,0.0,15,184547346937328,53,19.1,312.44317626953125,0.8554999828338623,0,0.0,0.0,,,,,0,,1,0.0,
Fix,gps,37.427207,-122.170410,-2.581024,0.000000,3.216000,1646709330000
NMEA,$GPGSV,3,1,12,02,23,056,34,05,59,082,33,12,27,163,12,18,38,258,14,1*68
,1646709330005
NMEA,$GPGSV,3,2,12,20,39,052,32,26,14,317,30,29,65,343,34,31,11,277,19,1*6C
,1646709330006
NMEA,$GPGSV,3,3,12,13,02,115,,15,07,147,,23,07,201,,25,56,202,,1*62
,1646709330006
NMEA,$GLGSV,3,1,10,78,39,289,39,86,07,071,19,79,07,334,28,65,22,144,16,1*72
,1646709330007
NMEA,$GLGSV,3,2,10,88,41,306,31,87,49,018,31,71,19,036,27,72,37,090,38,1*7E
,1646709330007
NMEA,$GLGSV,3,3,10,77,30,217,,81,01,274,,1*77
,1646709330007
NMEA,$GAGSV,1,1,0,7*43
,1646709330008
NMEA,$PQGSV,1,1,0,0*43
,1646709330008
NMEA,$GBGSV,1,1,0,0*47
,1646709330009
NMEA,$GNGSA,A,3,02,05,20,26,29,,,,,,,,1.6,1.4,0.8,1*31
,1646709330022
NMEA,$GNGSA,A,3,71,72,78,79,86,87,88,,,,,,1.6,1.4,0.8,2*3B
,1646709330022
NMEA,$GNVTG,,T,,M,0.0,N,0.0,K,A*3D
,1646709330023
NMEA,$GNGGA,031530.00,3725.632418,N,12210.224622,W,1,12,1.4,25.4,M,-27.9,M,,*7B
,1646709330023
NMEA,$GNRMC,031530.00,A,3725.632418,N,12210.224622,W,0.0,,080322,15.0,E,A,V*5D
,1646709330024
NMEA,$AIDSTAT,0,0,0,2,,23,3*00
,1646709330926
Raw,2183525,1870070000000,,,-1330742678359878195,0.6976795196533203,30.42135176656302,-0.3274004162762909,11.398646399214321,5,14,0.0,207,22530359973164,6,38.7,-10.070918083190918,0.21860000491142273,0,0.0,0.0,,,,,0,,3,0.0,
Raw,2183525,1870070000000,,,-1330742678359878195,0.6976795196533203,30.42135176656302,-0.3274004162762909,11.398646399214321,5,22,0.0,207,22530349926119,53,19.2,490.77685546875,1.2100000381469727,0,0.0,0.0,,,,,0,,3,0.0,
Raw,2183525,1870070000000,,,-1330742678359878195,0.6976795196533203,30.42135176656302,-0.3274004162762909,11.398646399214321,5,15,0.0,207,22530350762240,24,25.4,-595.9586181640625,0.5967999696731567,0,0.0,0.0,,,,,0,,3,0.0,
Raw,2183525,1870070000000,,,-1330742678359878195,0.6976795196533203,30.42135176656302,-0.3274004162762909,11.398646399214321,5,1,0.0,207,22530355505631,99,16.3,-735.69287109375,3.7290000915527344,0,0.0,0.0,,,,,0,,3,0.0,
Raw,2183526,1870070000000,,,-1330742678359878195,0.6976795196533203,30.42135176656302,-0.3274004162762909,11.398646399214321,5,24,0.0,207,22530360534668,12,32.8,-257.43695068359375,0.22390000522136688,0,0.0,0.0,,,,,0,,3,0.0,
Raw,2183526,1870070000000,,,-1330742678359878195,0.6976795196533203,30.42135176656302,-0.3274004162762909,11.398646399214321,5,23,0.0,207,22530362127688,13,31.9,149.48423767089844,0.2282000035047531,0,0.0,0.0,,,,,0,,3,0.0,
Raw,2183526,1870070000000,,,-1330742678359878195,0.6976795196533203,30.42135176656302,-0.3274004162762909,11.398646399214321,5,7,0.0,207,22530354158146,16,29.0,363.68560791015625,0.24770000576972961,0,0.0,0.0,,,,,0,,3,0.0,
Raw,2183526,1870070000000,,,-1330742678359878195,0.6976795196533203,30.42135176656302,-0.3274004162762909,11.398646399214321,5,8,0.0,207,22530359246161,7,37.9,-258.0272521972656,0.249099999666214,0,0.0,0.0,,,,,0,,3,0.0,
Raw,2183526,1870070000000,,,-1330742678359878195,0.6976795196533203,30.42135176656302,-0.3274004162762909,11.398646399214321,5,2,0.0,15,184548349597127,8,36.0,460.2018737792969,0.034700002521276474,0,0.0,0.0,,,,,0,,1,0.0,
Raw,2183526,1870070000000,,,-1330742678359878195,0.6976795196533203,30.42135176656302,-0.3274004162762909,11.398646399214321,5,5,0.0,15,184548360741816,12,32.8,97.4183120727539,0.023900000378489494,0,0.0,0.0,,,,,0,,1,0.0,
Raw,2183526,1870070000000,,,-1330742678359878195,0.6976795196533203,30.42135176656302,-0.3274004162762909,11.398646399214321,5,12,0.0,15,184548352291532,1697,11.9,696.807861328125,9.819499969482422,0,0.0,0.0,,,,,0,,1,0.0,
Raw,2183526,1870070000000,,,-1330742678359878195,0.6976795196533203,30.42135176656302,-0.3274004162762909,11.398646399214321,5,18,0.0,15,184548356458139,132,13.3,-389.8927307128906,2.880500078201294,0,0.0,0.0,,,,,0,,1,0.0,
Raw,2183526,1870070000000,,,-1330742678359878195,0.6976795196533203,30.42135176656302,-0.3274004162762909,11.398646399214321,5,20,0.0,15,184548356447273,12,32.9,423.96728515625,0.0479000024497509,0,0.0,0.0,,,,,0,,1,0.0,
Raw,2183526,1870070000000,,,-1330742678359878195,0.6976795196533203,30.42135176656302,-0.3274004162762909,11.398646399214321,5,26,0.0,15,184548349786031,14,30.1,-535.29296875,0.03930000215768814,0,0.0,0.0,,,,,0,,1,0.0,
Raw,2183526,1870070000000,,,-1330742678359878195,0.6976795196533203,30.42135176656302,-0.3274004162762909,11.398646399214321,5,29,0.0,15,184548360797253,10,34.6,-182.50392150878906,0.022099999710917473,0,0.0,0.0,,,,,0,,1,0.0,
Raw,2183526,1870070000000,,,-1330742678359878195,0.6976795196533203,30.42135176656302,-0.3274004162762909,11.398646399214321,5,31,0.0,15,184548346936244,80,16.4,314.49835205078125,1.0855000019073486,0,0.0,0.0,,,,,0,,1,0.0,
Fix,gps,37.427205,-122.170410,-2.209778,0.000000,3.216000,1646709331000
NMEA,$GPGSV,3,1,12,02,23,056,36,05,59,082,33,12,27,163,12,18,38,258,13,1*6D
,1646709331005
NMEA,$GPGSV,3,2,12,20,39,052,33,26,14,317,30,29,65,343,35,31,11,277,16,1*63
,1646709331005
NMEA,$GPGSV,3,3,12,13,02,115,,15,07,147,,23,07,201,,25,56,202,,1*62
,1646709331005
NMEA,$GLGSV,3,1,10,78,39,289,39,86,07,071,19,79,07,334,25,65,22,144,16,1*7F
,1646709331006
NMEA,$GLGSV,3,2,10,88,41,306,33,87,49,018,32,71,19,036,29,72,37,090,38,1*71
,1646709331006
NMEA,$GLGSV,3,3,10,77,30,217,,81,01,274,,1*77
,1646709331006
NMEA,$GAGSV,1,1,0,7*43
,1646709331006
NMEA,$PQGSV,1,1,0,0*43
,1646709331006
NMEA,$GBGSV,1,1,0,0*47
,1646709331007
NMEA,$GNGSA,A,3,02,05,20,26,29,,,,,,,,1.6,1.4,0.8,1*31
,1646709331016
NMEA,$GNGSA,A,3,71,72,78,79,86,87,88,,,,,,1.6,1.4,0.8,2*3B
,1646709331016
NMEA,$GNVTG,,T,,M,0.0,N,0.0,K,A*3D
,1646709331016
NMEA,$GNGGA,031531.00,3725.632326,N,12210.224608,W,1,12,1.4,25.7,M,-27.9,M,,*7B
,1646709331016
NMEA,$GNRMC,031531.00,A,3725.632326,N,12210.224608,W,0.0,,080322,15.0,E,A,V*5E
,1646709331016
NMEA,$AIDSTAT,0,0,0,2,14,23,3*00
,1646709331926
Raw,2184524,1871070000000,,,-1330742678359878196,0.9675226211547852,30.030336347408593,-0.35289277921670026,11.398898502586366,5,14,0.0,207,22531359973206,6,38.1,-9.153593063354492,0.21860000491142273,0,0.0,0.0,,,,,0,,3,0.0,
Raw,2184524,1871070000000,,,-1330742678359878196,0.9675226211547852,30.030336347408593,-0.35289277921670026,11.398898502586366,5,22,0.0,207,22531349924542,40,21.9,491.62921142578125,1.059999942779541,0,0.0,0.0,,,,,0,,3,0.0,
Raw,2184525,1871070000000,,,-1330742678359878196,0.9675226211547852,30.030336347408593,-0.35289277921670026,11.398898502586366,5,15,0.0,207,22531350764241,46,20.9,-595.7860717773438,1.131500005722046,0,0.0,0.0,,,,,0,,3,0.0,
Raw,2184525,1871070000000,,,-1330742678359878196,0.9675226211547852,30.030336347408593,-0.35289277921670026,11.398898502586366,5,1,0.0,207,22531355507950,74,17.7,-734.6265869140625,2.139000177383423,0,0.0,0.0,,,,,0,,3,0.0,
Raw,2184525,1871070000000,,,-1330742678359878196,0.9675226211547852,30.030336347408593,-0.35289277921670026,11.398898502586366,5,24,0.0,207,22531360535538,12,32.3,-256.62249755859375,0.22390000522136688,0,0.0,0.0,,,,,0,,3,0.0,
Raw,2184525,1871070000000,,,-1330742678359878196,0.9675226211547852,30.030336347408593,-0.35289277921670026,11.398898502586366,5,23,0.0,207,22531362127179,13,31.9,150.24305725097656,0.2282000035047531,0,0.0,0.0,,,,,0,,3,0.0,
Raw,2184525,1871070000000,,,-1330742678359878196,0.9675226211547852,30.030336347408593,-0.35289277921670026,11.398898502586366,5,7,0.0,207,22531354156961,17,28.7,364.5827941894531,0.25429999828338623,0,0.0,0.0,,,,,0,,3,0.0,
Raw,2184525,1871070000000,,,-1330742678359878196,0.9675226211547852,30.030336347408593,-0.35289277921670026,11.398898502586366,5,8,0.0,207,22531359246998,7,37.7,-257.10321044921875,0.249099999666214,0,0.0,0.0,,,,,0,,3,0.0,
Raw,2184526,1871070000000,,,-1330742678359878196,0.9675226211547852,30.030336347408593,-0.35289277921670026,11.398898502586366,5,2,0.0,15,184549349595588,9,35.8,460.947265625,0.035100001841783524,0,0.0,0.0,,,,,0,,1,0.0,
Raw,2184526,1871070000000,,,-1330742678359878196,0.9675226211547852,30.030336347408593,-0.35289277921670026,11.398898502586366,5,5,0.0,15,184549360741485,12,32.3,98.32077026367188,0.023900000378489494,0,0.0,0.0,,,,,0,,1,0.0,
Raw,2184526,1871070000000,,,-1330742678359878196,0.9675226211547852,30.030336347408593,-0.35289277921670026,11.398898502586366,5,12,0.0,15,184549352289201,395,10.9,696.9981689453125,10.69950008392334,0,0.0,0.0,,,,,0,,1,0.0,
Raw,2184526,1871070000000,,,-1330742678359878196,0.9675226211547852,30.030336347408593,-0.35289277921670026,11.398898502586366,5,18,0.0,15,184549356459440,151,13.3,-389.8927307128906,4.380500316619873,0,0.0,0.0,,,,,0,,1,0.0,
Raw,2184526,1871070000000,,,-1330742678359878196,0.9675226211547852,30.030336347408593,-0.35289277921670026,11.398898502586366,5,20,0.0,15,184549356445853,12,32.9,424.8321533203125,0.0479000024497509,0,0.0,0.0,,,,,0,,1,0.0,
Raw,2184526,1871070000000,,,-1330742678359878196,0.9675226211547852,30.030336347408593,-0.35289277921670026,11.398898502586366,5,26,0.0,15,184549349787797,17,28.0,-534.4634399414062,0.046800002455711365,0,0.0,0.0,,,,,0,,1,0.0,
Raw,2184527,1871070000000,,,-1330742678359878196,0.9675226211547852,30.030336347408593,-0.35289277921670026,11.398898502586366,5,29,0.0,15,184549360797875,11,33.4,-181.69664001464844,0.02290000021457672,0,0.0,0.0,,,,,0,,1,0.0,
Raw,2184527,1871070000000,,,-1330742678359878196,0.9675226211547852,30.030336347408593,-0.35289277921670026,11.398898502586366,5,31,0.0,15,184549346935195,89,16.4,314.49835205078125,2.5855000019073486,0,0.0,0.0,,,,,0,,1,0.0,
Fix,gps,37.427205,-122.170411,-2.023468,0.000000,3.216000,1646709332000
NMEA,$GPGSV,3,1,12,02,23,056,36,05,59,082,32,12,27,163,11,18,38,258,13,1*6F
,1646709331998
NMEA,$GPGSV,3,2,12,20,39,052,33,26,14,317,28,29,65,343,33,31,11,277,16,1*6C
,1646709331998
NMEA,$GPGSV,3,3,12,13,02,115,,15,07,147,,23,07,201,,25,56,202,,1*62
,1646709331998
NMEA,$GLGSV,3,1,10,78,39,289,38,86,07,071,22,79,07,334,21,65,22,144,18,1*7C
,1646709331998
NMEA,$GLGSV,3,2,10,88,41,306,32,87,49,018,32,71,19,036,29,72,37,090,38,1*70
,1646709331999
NMEA,$GLGSV,3,3,10,77,30,217,,81,01,274,,1*77
,1646709331999
NMEA,$GAGSV,1,1,0,7*43
,1646709332000
NMEA,$PQGSV,1,1,0,0*43
,1646709332000
NMEA,$GBGSV,1,1,0,0*47
,1646709332000
NMEA,$GNGSA,A,3,02,05,20,26,29,,,,,,,,1.6,1.4,0.8,1*31
,1646709332008
NMEA,$GNGSA,A,3,71,72,78,79,86,87,88,,,,,,1.6,1.4,0.8,2*3B
,1646709332008
NMEA,$GNVTG,,T,,M,0.0,N,0.0,K,A*3D
,1646709332008
NMEA,$GNGGA,031532.00,3725.632281,N,12210.224631,W,1,12,1.4,25.9,M,-27.9,M,,*70
,1646709332009
NMEA,$GNRMC,031532.00,A,3725.632281,N,12210.224631,W,0.0,,080322,15.0,E,A,V*5B
,1646709332009
NMEA,$AIDSTAT,0,0,0,2,,23,3*00
,1646709332927
NMEA,$GPGSV,3,1,12,02,23,056,35,05,59,082,32,12,27,163,11,18,38,258,14,1*6B
,1646709333006
NMEA,$GPGSV,3,2,12,20,39,052,32,26,14,317,27,29,65,343,32,31,11,277,16,1*63
,1646709333007
NMEA,$GPGSV,3,3,12,13,02,115,,15,07,147,,23,07,201,,25,56,202,,1*62
,1646709333007
NMEA,$GLGSV,3,1,10,78,39,289,38,86,07,071,23,79,07,334,20,65,22,144,18,1*7C
,1646709333007
NMEA,$GLGSV,3,2,10,88,41,306,32,87,49,018,31,71,19,036,28,72,37,090,37,1*7D
,1646709333008
NMEA,$GLGSV,3,3,10,77,30,217,,81,01,274,,1*77
,1646709333008
NMEA,$GAGSV,1,1,0,7*43
,1646709333008
NMEA,$PQGSV,1,1,0,0*43
,1646709333008
NMEA,$GBGSV,1,1,0,0*47
,1646709333008
Raw,2185557,1872070000000,,,-1330742678359878193,0.8657984733581543,31.80511703249067,2.2225174813807396,12.018488267914421,5,14,0.0,207,22532359973243,7,37.8,-8.715171813964844,0.2190999984741211,0,0.0,0.0,,,,,0,,3,0.0,
Raw,2185557,1872070000000,,,-1330742678359878193,0.8657984733581543,31.80511703249067,2.2225174813807396,12.018488267914421,5,22,0.0,207,22532349922969,31,23.4,491.5823974609375,0.9399999976158142,0,0.0,0.0,,,,,0,,3,0.0,
Raw,2185557,1872070000000,,,-1330742678359878193,0.8657984733581543,31.80511703249067,2.2225174813807396,12.018488267914421,5,15,0.0,207,22532350766165,46,20.0,-594.4386596679688,1.131500005722046,0,0.0,0.0,,,,,0,,3,0.0,
Raw,2185558,1872070000000,,,-1330742678359878193,0.8657984733581543,31.80511703249067,2.2225174813807396,12.018488267914421,5,1,0.0,207,22532355510401,88,17.7,-734.6265869140625,3.639000177383423,0,0.0,0.0,,,,,0,,3,0.0,
Raw,2185558,1872070000000,,,-1330742678359878193,0.8657984733581543,31.80511703249067,2.2225174813807396,12.018488267914421,5,24,0.0,207,22532360536363,13,31.5,-256.3052673339844,0.22519999742507935,0,0.0,0.0,,,,,0,,3,0.0,
Raw,2185558,1872070000000,,,-1330742678359878193,0.8657984733581543,31.80511703249067,2.2225174813807396,12.018488267914421,5,23,0.0,207,22532362126652,13,31.4,150.5989990234375,0.2282000035047531,0,0.0,0.0,,,,,0,,3,0.0,
Raw,2185558,1872070000000,,,-1330742678359878193,0.8657984733581543,31.80511703249067,2.2225174813807396,12.018488267914421,5,7,0.0,207,22532354155770,19,27.8,364.92022705078125,0.2623000144958496,0,0.0,0.0,,,,,0,,3,0.0,
Raw,2185558,1872070000000,,,-1330742678359878193,0.8657984733581543,31.80511703249067,2.2225174813807396,12.018488267914421,5,8,0.0,207,22532359247871,8,36.7,-256.67449951171875,0.24970000982284546,0,0.0,0.0,,,,,0,,3,0.0,
Raw,2185558,1872070000000,,,-1330742678359878193,0.8657984733581543,31.80511703249067,2.2225174813807396,12.018488267914421,5,2,0.0,15,184550349594070,10,34.5,461.21453857421875,0.035600002855062485,0,0.0,0.0,,,,,0,,1,0.0,
Raw,2185558,1872070000000,,,-1330742678359878193,0.8657984733581543,31.80511703249067,2.2225174813807396,12.018488267914421,5,5,0.0,15,184550360741154,12,32.2,98.76573944091797,0.023900000378489494,0,0.0,0.0,,,,,0,,1,0.0,
Raw,2185558,1872070000000,,,-1330742678359878193,0.8657984733581543,31.80511703249067,2.2225174813807396,12.018488267914421,5,12,0.0,15,184550352286877,465,10.9,696.9981689453125,12.19950008392334,0,0.0,0.0,,,,,0,,1,0.0,
Raw,2185558,1872070000000,,,-1330742678359878193,0.8657984733581543,31.80511703249067,2.2225174813807396,12.018488267914421,5,18,0.0,15,184550356460737,110,14.4,-389.2552185058594,2.0304999351501465,0,0.0,0.0,,,,,0,,1,0.0,
Raw,2185558,1872070000000,,,-1330742678359878193,0.8657984733581543,31.80511703249067,2.2225174813807396,12.018488267914421,5,20,0.0,15,184550356444451,13,31.9,425.1433410644531,0.04920000210404396,0,0.0,0.0,,,,,0,,1,0.0,
Raw,2185559,1872070000000,,,-1330742678359878193,0.8657984733581543,31.80511703249067,2.2225174813807396,12.018488267914421,5,26,0.0,15,184550349789596,21,26.8,-534.1661987304688,0.12470000237226486,0,0.0,0.0,,,,,0,,1,0.0,
Raw,2185559,1872070000000,,,-1330742678359878193,0.8657984733581543,31.80511703249067,2.2225174813807396,12.018488267914421,5,29,0.0,15,184550360798476,12,32.4,-181.39268493652344,0.023900000378489494,0,0.0,0.0,,,,,0,,1,0.0,
Raw,2185559,1872070000000,,,-1330742678359878193,0.8657984733581543,31.80511703249067,2.2225174813807396,12.018488267914421,5,31,0.0,15,184550346934145,108,16.4,314.49835205078125,4.085500240325928,0,0.0,0.0,,,,,0,,1,0.0,
Fix,gps,37.427204,-122.170411,-1.998108,0.000000,3.216000,1646709333000
NMEA,$GNGSA,A,3,02,05,20,26,29,,,,,,,,1.6,1.4,0.8,1*31
,1646709333016
NMEA,$GNGSA,A,3,71,72,78,79,86,87,88,,,,,,1.6,1.4,0.8,2*3B
,1646709333017
NMEA,$GNVTG,,T,,M,0.0,N,0.0,K,A*3D
,1646709333017
NMEA,$GNGGA,031533.00,3725.632249,N,12210.224644,W,1,12,1.4,25.9,M,-27.9,M,,*77
,1646709333017
NMEA,$GNRMC,031533.00,A,3725.632249,N,12210.224644,W,0.0,,080322,15.0,E,A,V*5C
,1646709333017
NMEA,$AIDSTAT,0,0,0,2,2,23,3*00
,1646709333928
Raw,2186503,1873070000000,,,-1330742678359878191,0.3782663345336914,32.37657074350864,3.5522088824702864,12.100750313963317,5,14,0.0,207,22533359973273,6,38.3,-8.501185417175293,0.21860000491142273,0,0.0,0.0,,,,,0,,3,0.0,
Raw,2186504,1873070000000,,,-1330742678359878191,0.3782663345336914,32.37657074350864,3.5522088824702864,12.100750313963317,5,22,0.0,207,22533349921305,31,23.2,491.5917663574219,0.9399999976158142,0,0.0,0.0,,,,,0,,3,0.0,
Raw,2186504,1873070000000,,,-1330742678359878191,0.3782663345336914,32.37657074350864,3.5522088824702864,12.100750313963317,5,15,0.0,207,22533350768231,40,21.7,-594.2609252929688,1.0614999532699585,0,0.0,0.0,,,,,0,,3,0.0,
Raw,2186504,1873070000000,,,-1330742678359878191,0.3782663345336914,32.37657074350864,3.5522088824702864,12.100750313963317,5,1,0.0,207,22533355512732,84,16.4,-733.4012451171875,2.2290000915527344,0,0.0,0.0,,,,,0,,3,0.0,
Raw,2186504,1873070000000,,,-1330742678359878191,0.3782663345336914,32.37657074350864,3.5522088824702864,12.100750313963317,5,24,0.0,207,22533360537212,12,32.1,-256.2273254394531,0.22390000522136688,0,0.0,0.0,,,,,0,,3,0.0,
Raw,2186504,1873070000000,,,-1330742678359878191,0.3782663345336914,32.37657074350864,3.5522088824702864,12.100750313963317,5,23,0.0,207,22533362126151,13,31.6,150.6815185546875,0.2282000035047531,0,0.0,0.0,,,,,0,,3,0.0,
Raw,2186504,1873070000000,,,-1330742678359878191,0.3782663345336914,32.37657074350864,3.5522088824702864,12.100750313963317,5,7,0.0,207,22533354154505,19,27.7,365.1817932128906,0.2623000144958496,0,0.0,0.0,,,,,0,,3,0.0,
Raw,2186504,1873070000000,,,-1330742678359878191,0.3782663345336914,32.37657074350864,3.5522088824702864,12.100750313963317,5,8,0.0,207,22533359248716,8,36.8,-256.4571838378906,0.24970000982284546,0,0.0,0.0,,,,,0,,3,0.0,
Raw,2186504,1873070000000,,,-1330742678359878191,0.3782663345336914,32.37657074350864,3.5522088824702864,12.100750313963317,5,2,0.0,15,184551349592535,10,34.7,461.25811767578125,0.035600002855062485,0,0.0,0.0,,,,,0,,1,0.0,
Raw,2186505,1873070000000,,,-1330742678359878191,0.3782663345336914,32.37657074350864,3.5522088824702864,12.100750313963317,5,5,0.0,15,184551360740804,12,32.0,98.93169403076172,0.023900000378489494,0,0.0,0.0,,,,,0,,1,0.0,
Raw,2186505,1873070000000,,,-1330742678359878191,0.3782663345336914,32.37657074350864,3.5522088824702864,12.100750313963317,5,12,0.0,15,184551352284552,546,10.9,696.9981689453125,13.699501037597656,0,0.0,0.0,,,,,0,,1,0.0,
Raw,2186505,1873070000000,,,-1330742678359878191,0.3782663345336914,32.37657074350864,3.5522088824702864,12.100750313963317,5,18,0.0,15,184551356462036,124,14.4,-389.2552185058594,3.5305001735687256,0,0.0,0.0,,,,,0,,1,0.0,
Raw,2186505,1873070000000,,,-1330742678359878191,0.3782663345336914,32.37657074350864,3.5522088824702864,12.100750313963317,5,20,0.0,15,184551356443026,13,31.7,425.3307800292969,0.04920000210404396,0,0.0,0.0,,,,,0,,1,0.0,
Raw,2186505,1873070000000,,,-1330742678359878191,0.3782663345336914,32.37657074350864,3.5522088824702864,12.100750313963317,5,26,0.0,15,184551349791379,21,26.5,-533.9288940429688,0.12470000237226486,0,0.0,0.0,,,,,0,,1,0.0,
Raw,2186505,1873070000000,,,-1330742678359878191,0.3782663345336914,32.37657074350864,3.5522088824702864,12.100750313963317,5,29,0.0,15,184551360799085,12,32.8,-181.31910705566406,0.023900000378489494,0,0.0,0.0,,,,,0,,1,0.0,
Raw,2186505,1873070000000,,,-1330742678359878191,0.3782663345336914,32.37657074350864,3.5522088824702864,12.100750313963317,5,31,0.0,15,184551346933096,137,16.4,314.49835205078125,5.585500240325928,0,0.0,0.0,,,,,0,,1,0.0,
Fix,gps,37.427204,-122.170411,-1.988586,0.000000,3.216000,1646709334000
NMEA,$GPGSV,3,1,12,02,23,056,35,05,59,082,32,12,27,163,11,18,38,258,14,1*6B
,1646709334006
NMEA,$GPGSV,3,2,12,20,39,052,32,26,14,317,27,29,65,343,33,31,11,277,16,1*62
,1646709334006
NMEA,$GPGSV,3,3,12,13,02,115,,15,07,147,,23,07,201,,25,56,202,,1*62
,1646709334007
NMEA,$GLGSV,3,1,10,78,39,289,38,86,07,071,23,79,07,334,22,65,22,144,16,1*70
,1646709334007
NMEA,$GLGSV,3,2,10,88,41,306,32,87,49,018,32,71,19,036,28,72,37,090,37,1*7E
,1646709334007
NMEA,$GLGSV,3,3,10,77,30,217,,81,01,274,,1*77
,1646709334008
NMEA,$GAGSV,1,1,0,7*43
,1646709334008
NMEA,$PQGSV,1,1,0,0*43
,1646709334008
NMEA,$GBGSV,1,1,0,0*47
,1646709334009
NMEA,$GNGSA,A,3,02,05,20,26,29,,,,,,,,1.6,1.4,0.8,1*31
,1646709334012
NMEA,$GNGSA,A,3,71,72,78,79,86,87,88,,,,,,1.6,1.4,0.8,2*3B
,1646709334012
NMEA,$GNVTG,,T,,M,0.0,N,0.0,K,A*3D
,1646709334013
NMEA,$GNGGA,031534.00,3725.632230,N,12210.224653,W,1,12,1.4,25.9,M,-27.9,M,,*78
,1646709334013
NMEA,$GNRMC,031534.00,A,3725.632230,N,12210.224653,W,0.0,,080322,15.0,E,A,V*53
,1646709334013
NMEA,$AIDSTAT,0,0,0,2,,23,3*00
,1646709334927
Raw,2187534,1874070000000,,,-1330742678359878187,0.7815594673156738,33.086096664192155,3.517168899592482,12.09886709382136,5,14,0.0,207,22534359973317,7,37.8,-8.937929153442383,0.2190999984741211,0,0.0,0.0,,,,,0,,3,0.0,
Raw,2187535,1874070000000,,,-1330742678359878187,0.7815594673156738,33.086096664192155,3.517168899592482,12.09886709382136,5,22,0.0,207,22534349919640,35,22.4,490.7393798828125,1.0,0,0.0,0.0,,,,,0,,3,0.0,
Raw,2187535,1874070000000,,,-1330742678359878187,0.7815594673156738,33.086096664192155,3.517168899592482,12.09886709382136,5,15,0.0,207,22534350770123,31,23.3,-595.1404418945312,0.9414999485015869,0,0.0,0.0,,,,,0,,3,0.0,
Raw,2187535,1874070000000,,,-1330742678359878187,0.7815594673156738,33.086096664192155,3.517168899592482,12.09886709382136,5,1,0.0,207,22534355515178,99,16.4,-733.4012451171875,3.7290000915527344,0,0.0,0.0,,,,,0,,3,0.0,
Raw,2187535,1874070000000,,,-1330742678359878187,0.7815594673156738,33.086096664192155,3.517168899592482,12.09886709382136,5,24,0.0,207,22534360538078,12,32.0,-256.80352783203125,0.22390000522136688,0,0.0,0.0,,,,,0,,3,0.0,
Raw,2187535,1874070000000,,,-1330742678359878187,0.7815594673156738,33.086096664192155,3.517168899592482,12.09886709382136,5,23,0.0,207,22534362125696,13,31.2,150.06590270996094,0.2282000035047531,0,0.0,0.0,,,,,0,,3,0.0,
Raw,2187535,1874070000000,,,-1330742678359878187,0.7815594673156738,33.086096664192155,3.517168899592482,12.09886709382136,5,7,0.0,207,22534354153324,17,28.5,364.7665710449219,0.25429999828338623,0,0.0,0.0,,,,,0,,3,0.0,
Raw,2187535,1874070000000,,,-1330742678359878187,0.7815594673156738,33.086096664192155,3.517168899592482,12.09886709382136,5,8,0.0,207,22534359249572,8,36.8,-256.8985595703125,0.24970000982284546,0,0.0,0.0,,,,,0,,3,0.0,
Raw,2187535,1874070000000,,,-1330742678359878187,0.7815594673156738,33.086096664192155,3.517168899592482,12.09886709382136,5,2,0.0,15,184552349591001,10,34.7,460.65948486328125,0.035600002855062485,0,0.0,0.0,,,,,0,,1,0.0,
Raw,2187536,1874070000000,,,-1330742678359878187,0.7815594673156738,33.086096664192155,3.517168899592482,12.09886709382136,5,5,0.0,15,184552360740480,12,32.4,98.45235443115234,0.023900000378489494,0,0.0,0.0,,,,,0,,1,0.0,
Raw,2187536,1874070000000,,,-1330742678359878187,0.7815594673156738,33.086096664192155,3.517168899592482,12.09886709382136,5,12,0.0,15,184552352282227,637,10.9,696.9981689453125,15.199501037597656,0,0.0,0.0,,,,,0,,1,0.0,
Raw,2187536,1874070000000,,,-1330742678359878187,0.7815594673156738,33.086096664192155,3.517168899592482,12.09886709382136,5,18,0.0,15,184552356463334,149,14.4,-389.2552185058594,5.030500411987305,0,0.0,0.0,,,,,0,,1,0.0,
Raw,2187536,1874070000000,,,-1330742678359878187,0.7815594673156738,33.086096664192155,3.517168899592482,12.09886709382136,5,20,0.0,15,184552356441595,13,31.8,424.795166015625,0.04920000210404396,0,0.0,0.0,,,,,0,,1,0.0,
Raw,2187536,1874070000000,,,-1330742678359878187,0.7815594673156738,33.086096664192155,3.517168899592482,12.09886709382136,5,26,0.0,15,184552349793149,21,26.0,-534.5338745117188,0.12470000237226486,0,0.0,0.0,,,,,0,,1,0.0,
Raw,2187536,1874070000000,,,-1330742678359878187,0.7815594673156738,33.086096664192155,3.517168899592482,12.09886709382136,5,29,0.0,15,184552360799697,12,32.7,-181.84214782714844,0.023900000378489494,0,0.0,0.0,,,,,0,,1,0.0,
Raw,2187536,1874070000000,,,-1330742678359878187,0.7815594673156738,33.086096664192155,3.517168899592482,12.09886709382136,5,31,0.0,15,184552346932047,175,16.4,314.49835205078125,7.085500240325928,0,0.0,0.0,,,,,0,,1,0.0,
Fix,gps,37.427204,-122.170411,-1.979584,0.000000,3.216000,1646709335000
NMEA,$GPGSV,3,1,12,02,23,056,35,05,59,082,32,12,27,163,11,18,38,258,14,1*6B
,1646709334999
NMEA,$GPGSV,3,2,12,20,39,052,32,26,14,317,26,29,65,343,33,31,11,277,16,1*63
,1646709334999
NMEA,$GPGSV,3,3,12,13,02,115,,15,07,147,,23,07,201,,25,56,202,,1*62
,1646709334999
NMEA,$GLGSV,3,1,10,78,39,289,38,86,07,071,22,79,08,334,23,65,22,144,16,1*7F
,1646709334999
NMEA,$GLGSV,3,2,10,88,41,306,32,87,49,018,31,71,19,036,29,72,37,090,37,1*7C
,1646709335000
NMEA,$GLGSV,3,3,10,77,30,217,,81,01,274,,1*77
,1646709335000
NMEA,$GAGSV,1,1,0,7*43
,1646709335000
NMEA,$PQGSV,1,1,0,0*43
,1646709335000
NMEA,$GBGSV,1,1,0,0*47
,1646709335002
NMEA,$GNGSA,A,3,02,05,20,26,29,,,,,,,,1.6,1.4,0.8,1*31
,1646709335007
NMEA,$GNGSA,A,3,71,72,78,79,86,87,88,,,,,,1.6,1.4,0.8,2*3B
,1646709335007
NMEA,$GNVTG,,T,,M,0.0,N,0.0,K,A*3D
,1646709335008
NMEA,$GNGGA,031535.00,3725.632222,N,12210.224659,W,1,12,1.4,26.0,M,-27.9,M,,*7A
,1646709335008
NMEA,$GNRMC,031535.00,A,3725.632222,N,12210.224659,W,0.0,,080322,15.0,E,A,V*5B
,1646709335008
NMEA,$AIDSTAT,0,0,0,2,1,23,3*00
,1646709335926
Raw,2188521,1875070000000,,,-1330742678359878188,0.045574188232421875,33.22859629406594,1.6211574937993132,12.100211114953078,5,14,0.0,207,22535359973336,6,39.2,-8.559391021728516,0.21809999644756317,0,0.0,0.0,,,,,0,,3,0.0,
Raw,2188521,1875070000000,,,-1330742678359878188,0.045574188232421875,33.22859629406594,1.6211574937993132,12.100211114953078,5,22,0.0,207,22535349918025,35,22.0,491.3107604980469,1.0,0,0.0,0.0,,,,,0,,3,0.0,
Raw,2188521,1875070000000,,,-1330742678359878188,0.045574188232421875,33.22859629406594,1.6211574937993132,12.100211114953078,5,15,0.0,207,22535350772001,24,25.8,-594.717529296875,0.5967999696731567,0,0.0,0.0,,,,,0,,3,0.0,
Raw,2188521,1875070000000,,,-1330742678359878188,0.045574188232421875,33.22859629406594,1.6211574937993132,12.100211114953078,5,1,0.0,207,22535355517624,124,16.4,-733.4012451171875,5.229000091552734,0,0.0,0.0,,,,,0,,3,0.0,
Raw,2188521,1875070000000,,,-1330742678359878188,0.045574188232421875,33.22859629406594,1.6211574937993132,12.100211114953078,5,24,0.0,207,22535360538920,13,31.9,-256.52838134765625,0.22519999742507935,0,0.0,0.0,,,,,0,,3,0.0,
Raw,2188521,1875070000000,,,-1330742678359878188,0.045574188232421875,33.22859629406594,1.6211574937993132,12.100211114953078,5,23,0.0,207,22535362125154,14,30.6,150.3648223876953,0.2287999987602234,0,0.0,0.0,,,,,0,,3,0.0,
Raw,2188521,1875070000000,,,-1330742678359878188,0.045574188232421875,33.22859629406594,1.6211574937993132,12.100211114953078,5,7,0.0,207,22535354152045,16,29.7,365.11492919921875,0.24770000576972961,0,0.0,0.0,,,,,0,,3,0.0,
Raw,2188521,1875070000000,,,-1330742678359878188,0.045574188232421875,33.22859629406594,1.6211574937993132,12.100211114953078,5,8,0.0,207,22535359250453,8,36.5,-256.56378173828125,0.24970000982284546,0,0.0,0.0,,,,,0,,3,0.0,
Raw,2188521,1875070000000,,,-1330742678359878188,0.045574188232421875,33.22859629406594,1.6211574937993132,12.100211114953078,5,2,0.0,15,184553349589467,10,34.6,460.86663818359375,0.035600002855062485,0,0.0,0.0,,,,,0,,1,0.0,
Raw,2188521,1875070000000,,,-1330742678359878188,0.045574188232421875,33.22859629406594,1.6211574937993132,12.100211114953078,5,5,0.0,15,184553360740146,12,32.1,98.80838775634766,0.023900000378489494,0,0.0,0.0,,,,,0,,1,0.0,
Raw,2188521,1875070000000,,,-1330742678359878188,0.045574188232421875,33.22859629406594,1.6211574937993132,12.100211114953078,5,12,0.0,15,184553352279902,738,10.9,696.9981689453125,16.699501037597656,0,0.0,0.0,,,,,0,,1,0.0,
Raw,2188521,1875070000000,,,-1330742678359878188,0.045574188232421875,33.22859629406594,1.6211574937993132,12.100211114953078,5,18,0.0,15,184553356464633,183,14.4,-389.2552185058594,6.530500411987305,0,0.0,0.0,,,,,0,,1,0.0,
Raw,2188521,1875070000000,,,-1330742678359878188,0.045574188232421875,33.22859629406594,1.6211574937993132,12.100211114953078,5,20,0.0,15,184553356440160,12,32.6,425.0820007324219,0.0479000024497509,0,0.0,0.0,,,,,0,,1,0.0,
Raw,2188521,1875070000000,,,-1330742678359878188,0.045574188232421875,33.22859629406594,1.6211574937993132,12.100211114953078,5,26,0.0,15,184553349794918,35,22.1,-534.0401611328125,0.6800000071525574,0,0.0,0.0,,,,,0,,1,0.0,
Raw,2188521,1875070000000,,,-1330742678359878188,0.045574188232421875,33.22859629406594,1.6211574937993132,12.100211114953078,5,29,0.0,15,184553360800296,11,33.4,-181.56182861328125,0.02290000021457672,0,0.0,0.0,,,,,0,,1,0.0,
Raw,2188522,1875070000000,,,-1330742678359878188,0.045574188232421875,33.22859629406594,1.6211574937993132,12.100211114953078,5,31,0.0,15,184553346930998,224,16.4,314.49835205078125,8.585500717163086,0,0.0,0.0,,,,,0,,1,0.0,
Fix,gps,37.427204,-122.170411,-1.979004,0.000000,3.216000,1646709336000
NMEA,$GPGSV,3,1,12,02,23,056,35,05,59,082,32,12,27,163,11,18,38,258,14,1*6B
,1646709336005
NMEA,$GPGSV,3,2,12,20,39,052,33,26,14,317,22,29,65,343,33,31,11,277,16,1*66
,1646709336006
NMEA,$GPGSV,3,3,12,13,02,115,,15,07,147,,23,07,201,,25,56,202,,1*62
,1646709336007
NMEA,$GLGSV,3,1,10,78,39,289,39,86,07,071,22,79,08,334,26,65,22,144,16,1*7B
,1646709336007
NMEA,$GLGSV,3,2,10,88,41,306,32,87,49,018,31,71,19,036,30,72,37,090,37,1*74
,1646709336007
NMEA,$GLGSV,3,3,10,77,30,217,,81,01,274,,1*77
,1646709336008
NMEA,$GAGSV,1,1,0,7*43
,1646709336009
NMEA,$PQGSV,1,1,0,0*43
,1646709336009
NMEA,$GBGSV,1,1,0,0*47
,1646709336010
NMEA,$GNGSA,A,3,02,05,20,26,29,,,,,,,,1.6,1.4,0.8,1*31
,1646709336022
NMEA,$GNGSA,A,3,71,72,78,79,86,87,88,,,,,,1.6,1.4,0.8,2*3B
,1646709336023
NMEA,$GNVTG,,T,,M,0.0,N,0.0,K,A*3D
,1646709336023
NMEA,$GNGGA,031536.00,3725.632216,N,12210.224664,W,1,12,1.4,26.0,M,-27.9,M,,*70
,1646709336023
NMEA,$GNRMC,031536.00,A,3725.632216,N,12210.224664,W,0.0,,080322,15.0,E,A,V*51
,1646709336024
NMEA,$AIDSTAT,0,0,0,2,-4,23,3*00
,1646709336927
Raw,2189534,1876070000000,,,-1330742678359878188,0.3212456703186035,34.82047759462148,2.3195512342378066,12.099457190673274,5,14,0.0,207,22536359973346,6,39.5,-8.562800407409668,0.21809999644756317,0,0.0,0.0,,,,,0,,3,0.0,
Raw,2189534,1876070000000,,,-1330742678359878188,0.3212456703186035,34.82047759462148,2.3195512342378066,12.099457190673274,5,22,0.0,207,22536349916361,31,23.6,491.160888671875,0.9399999976158142,0,0.0,0.0,,,,,0,,3,0.0,
Raw,2189534,1876070000000,,,-1330742678359878188,0.3212456703186035,34.82047759462148,2.3195512342378066,12.099457190673274,5,15,0.0,207,22536350774069,19,27.3,-594.7483520507812,0.2563000023365021,0,0.0,0.0,,,,,0,,3,0.0,
Raw,2189534,1876070000000,,,-1330742678359878188,0.3212456703186035,34.82047759462148,2.3195512342378066,12.099457190673274,5,1,0.0,207,22536355520294,117,14.2,-734.4488525390625,3.199000120162964,0,0.0,0.0,,,,,0,,3,0.0,
Raw,2189535,1876070000000,,,-1330742678359878188,0.3212456703186035,34.82047759462148,2.3195512342378066,12.099457190673274,5,24,0.0,207,22536360539800,11,33.7,-256.66864013671875,0.22290000319480896,0,0.0,0.0,,,,,0,,3,0.0,
Raw,2189535,1876070000000,,,-1330742678359878188,0.3212456703186035,34.82047759462148,2.3195512342378066,12.099457190673274,5,23,0.0,207,22536362124703,14,30.5,150.21176147460938,0.2287999987602234,0,0.0,0.0,,,,,0,,3,0.0,
Raw,2189535,1876070000000,,,-1330742678359878188,0.3212456703186035,34.82047759462148,2.3195512342378066,12.099457190673274,5,7,0.0,207,22536354150870,14,30.9,364.9742431640625,0.2468000054359436,0,0.0,0.0,,,,,0,,3,0.0,
Raw,2189535,1876070000000,,,-1330742678359878188,0.3212456703186035,34.82047759462148,2.3195512342378066,12.099457190673274,5,8,0.0,207,22536359251309,6,38.2,-256.5815734863281,0.24860000610351562,0,0.0,0.0,,,,,0,,3,0.0,
Raw,2189535,1876070000000,,,-1330742678359878188,0.3212456703186035,34.82047759462148,2.3195512342378066,12.099457190673274,5,2,0.0,15,184554349587936,9,35.4,460.6791076660156,0.035100001841783524,0,0.0,0.0,,,,,0,,1,0.0,
Raw,2189536,1876070000000,,,-1330742678359878188,0.3212456703186035,34.82047759462148,2.3195512342378066,12.099457190673274,5,5,0.0,15,184554360739827,11,33.9,98.75088500976562,0.02290000021457672,0,0.0,0.0,,,,,0,,1,0.0,
Raw,2189536,1876070000000,,,-1330742678359878188,0.3212456703186035,34.82047759462148,2.3195512342378066,12.099457190673274,5,12,0.0,15,184554352277577,848,10.9,696.9981689453125,18.199501037597656,0,0.0,0.0,,,,,0,,1,0.0,
Raw,2189536,1876070000000,,,-1330742678359878188,0.3212456703186035,34.82047759462148,2.3195512342378066,12.099457190673274,5,18,0.0,15,184554356465931,227,14.4,-389.2552185058594,8.030500411987305,0,0.0,0.0,,,,,0,,1,0.0,
Raw,2189536,1876070000000,,,-1330742678359878188,0.3212456703186035,34.82047759462148,2.3195512342378066,12.099457190673274,5,20,0.0,15,184554356438763,10,34.1,425.02862548828125,0.04610000178217888,0,0.0,0.0,,,,,0,,1,0.0,
Raw,2189536,1876070000000,,,-1330742678359878188,0.3212456703186035,34.82047759462148,2.3195512342378066,12.099457190673274,5,26,0.0,15,184554349796714,21,26.4,-534.1995849609375,0.12470000237226486,0,0.0,0.0,,,,,0,,1,0.0,
Raw,2189536,1876070000000,,,-1330742678359878188,0.3212456703186035,34.82047759462148,2.3195512342378066,12.099457190673274,5,29,0.0,15,184554360800889,11,33.5,-181.68048095703125,0.02290000021457672,0,0.0,0.0,,,,,0,,1,0.0,
