# 
# Header Description:
# 
# Version: v2.0.0.1 Platform: 9 Manufacturer: samsung Model: SM-G960U
# 
# Raw,ElapsedRealtimeMillis,TimeNanos,LeapSecond,TimeUncertaintyNanos,FullBiasNanos,BiasNanos,BiasUncertaintyNanos,DriftNanosPerSecond,DriftUncertaintyNanosPerSecond,HardwareClockDiscontinuityCount,Svid,TimeOffsetNanos,State,ReceivedSvTimeNanos,ReceivedSvTimeUncertaintyNanos,Cn0DbHz,PseudorangeRateMetersPerSecond,PseudorangeRateUncertaintyMetersPerSecond,AccumulatedDeltaRangeState,AccumulatedDeltaRangeMeters,AccumulatedDeltaRangeUncertaintyMeters,CarrierFrequencyHz,CarrierCycles,CarrierPhase,CarrierPhaseUncertainty,MultipathIndicator,SnrInDb,ConstellationType,AgcDb,CarrierFrequencyHz
# 
# Fix,Provider,Latitude,Longitude,Altitude,Speed,Accuracy,(UTC)TimeInMs
# 
# Nav,Svid,Type,Status,MessageId,Sub-messageId,Data(Bytes)
# 
NMEA,$AIDSTAT,0,0,0,2,6,23,3*00
,1646709260925
Raw,2113503,1800070000000,,,-1330742678359878093,0.2937965393066406,28.19993460434489,-2.550391635283007,10.702835525421117,5,14,0.0,207,22460359969339,6,39.9,-22.567529678344727,0.21809999644756317,0,0.0,0.0,,,,,0,,3,0.0,
Raw,2113503,1800070000000,,,-1330742678359878093,0.2937965393066406,28.19993460434489,-2.550391635283007,10.702835525421117,5,22,0.0,207,22460350040630,1506,14.5,489.8963928222656,10.121500015258789,0,0.0,0.0,,,,,0,,3,0.0,
Raw,2113503,1800070000000,,,-1330742678359878093,0.2937965393066406,28.19993460434489,-2.550391635283007,10.702835525421117,5,15,0.0,207,22460350622093,17,28.6,-603.5946044921875,0.2483000010251999,0,0.0,0.0,,,,,0,,3,0.0,
Raw,2113503,1800070000000,,,-1330742678359878093,0.2937965393066406,28.19993460434489,-2.550391635283007,10.702835525421117,5,1,0.0,207,22460355333442,148,17.7,-739.0321044921875,6.639000415802002,0,0.0,0.0,,,,,0,,3,0.0,
Raw,2113503,1800070000000,,,-1330742678359878093,0.2937965393066406,28.19993460434489,-2.550391635283007,10.702835525421117,5,24,0.0,207,22460360474169,13,31.2,-260.7618713378906,0.22519999742507935,0,0.0,0.0,,,,,0,,3,0.0,
Raw,2113504,1800070000000,,,-1330742678359878093,0.2937965393066406,28.19993460434489,-2.550391635283007,10.702835525421117,5,23,0.0,207,22460362162173,7,37.4,146.1317901611328,0.22360000014305115,0,0.0,0.0,,,,,0,,3,0.0,
Raw,2113504,1800070000000,,,-1330742678359878093,0.2937965393066406,28.19993460434489,-2.550391635283007,10.702835525421117,5,7,0.0,207,22460354241858,7,37.1,352.9281311035156,0.24160000681877136,0,0.0,0.0,,,,,0,,3,0.0,
Raw,2113504,1800070000000,,,-1330742678359878093,0.2937965393066406,28.19993460434489,-2.550391635283007,10.702835525421117,5,8,0.0,207,22460359184574,6,39.9,-269.2772521972656,0.24809999763965607,0,0.0,0.0,,,,,0,,3,0.0,
Raw,2113504,1800070000000,,,-1330742678359878093,0.2937965393066406,28.19993460434489,-2.550391635283007,10.702835525421117,5,2,0.0,15,184478349704542,10,34.0,459.5221252441406,0.035600002855062485,0,0.0,0.0,,,,,0,,1,0.0,
Raw,2113504,1800070000000,,,-1330742678359878093,0.2937965393066406,28.19993460434489,-2.550391635283007,10.702835525421117,5,5,0.0,15,184478360763382,5,40.6,87.45132446289062,0.01940000057220459,0,0.0,0.0,,,,,0,,1,0.0,
Raw,2113504,1800070000000,,,-1330742678359878093,0.2937965393066406,28.19993460434489,-2.550391635283007,10.702835525421117,5,18,0.0,15,184478356366876,7,37.8,-394.3732604980469,0.044600002467632294,0,0.0,0.0,,,,,0,,1,0.0,
Raw,2113504,1800070000000,,,-1330742678359878093,0.2937965393066406,28.19993460434489,-2.550391635283007,10.702835525421117,5,20,0.0,15,184478356545488,11,33.2,417.16864013671875,0.04690000042319298,0,0.0,0.0,,,,,0,,1,0.0,
Raw,2113504,1800070000000,,,-1330742678359878093,0.2937965393066406,28.19993460434489,-2.550391635283007,10.702835525421117,5,25,0.0,15,184478359812660,368,21.1,411.6051940917969,1.2200000286102295,0,0.0,0.0,,,,,0,,1,0.0,
Raw,2113504,1800070000000,,,-1330742678359878093,0.2937965393066406,28.19993460434489,-2.550391635283007,10.702835525421117,5,26,0.0,15,184478349660446,19,27.1,-540.69091796875,0.05480000376701355,0,0.0,0.0,,,,,0,,1,0.0,
Raw,2113504,1800070000000,,,-1330742678359878093,0.2937965393066406,28.19993460434489,-2.550391635283007,10.702835525421117,5,29,0.0,15,184478360754049,7,37.9,-187.32516479492188,0.020600000396370888,0,0.0,0.0,,,,,0,,1,0.0,
Raw,2113504,1800070000000,,,-1330742678359878093,0.2937965393066406,28.19993460434489,-2.550391635283007,10.702835525421117,5,31,0.0,15,184478347009083,13,31.8,307.7835998535156,0.0357000008225441,0,0.0,0.0,,,,,0,,1,0.0,
Fix,gps,37.427217,-122.170392,-6.293427,0.000000,3.216000,1646709261000
NMEA,$GPGSV,3,1,12,02,23,056,34,05,59,082,41,18,38,258,38,20,39,052,33,1*6D
,1646709260999
NMEA,$GPGSV,3,2,12,25,56,202,21,26,14,317,27,29,65,343,38,31,11,277,32,1*66
,1646709260999
NMEA,$GPGSV,3,3,12,12,27,163,,13,02,115,,15,07,147,,23,07,201,,1*64
,1646709260999
NMEA,$GLGSV,3,1,10,78,39,291,40,86,07,071,15,79,07,334,29,65,21,146,18,1*77
,1646709261000
NMEA,$GLGSV,3,2,10,88,41,306,31,87,49,018,37,71,19,037,37,72,36,091,40,1*77
,1646709261000
NMEA,$GLGSV,3,3,10,77,32,217,,81,01,274,,1*75
,1646709261000
NMEA,$GAGSV,1,1,0,7*43
,1646709261000
NMEA,$PQGSV,1,1,0,0*43
,1646709261000
NMEA,$GBGSV,1,1,0,0*47
,1646709261000
NMEA,$GNGSA,A,3,02,05,18,20,25,26,29,31,,,,,1.2,0.9,0.8,1*35
,1646709261002
NMEA,$GNGSA,A,3,71,72,78,79,87,88,,,,,,,1.2,0.9,0.8,2*3D
,1646709261003
NMEA,$GNVTG,,T,,M,0.0,N,0.0,K,A*3D
,1646709261003
NMEA,$GNGGA,031421.00,3725.633013,N,12210.223540,W,1,12,0.9,21.6,M,-27.9,M,,*7E
,1646709261003
NMEA,$GNRMC,031421.00,A,3725.633013,N,12210.223540,W,0.0,,080322,15.0,E,A,V*52
,1646709261003
NMEA,$AIDSTAT,0,0,0,2,,23,3*00
,1646709261925
Raw,2114582,1801070000000,,,-1330742678359878094,0.32522106170654297,25.38840453780722,-3.205170697079091,9.720577960913907,5,14,0.0,207,22461359969421,6,39.8,-22.181608200073242,0.21809999644756317,0,0.0,0.0,,,,,0,,3,0.0,
Raw,2114582,1801070000000,,,-1330742678359878094,0.32522106170654297,25.38840453780722,-3.205170697079091,9.720577960913907,5,22,0.0,207,22461350038999,346,14.5,490.01812744140625,11.246500968933105,0,0.0,0.0,,,,,0,,3,0.0,
Raw,2114582,1801070000000,,,-1330742678359878094,0.32522106170654297,25.38840453780722,-3.205170697079091,9.720577960913907,5,15,0.0,207,22461350624096,17,28.7,-603.2766723632812,0.2483000010251999,0,0.0,0.0,,,,,0,,3,0.0,
Raw,2114582,1801070000000,,,-1330742678359878094,0.32522106170654297,25.38840453780722,-3.205170697079091,9.720577960913907,5,1,0.0,207,22461355336133,142,13.1,-738.7608642578125,4.069000244140625,0,0.0,0.0,,,,,0,,3,0.0,
Raw,2114582,1801070000000,,,-1330742678359878094,0.32522106170654297,25.38840453780722,-3.205170697079091,9.720577960913907,5,24,0.0,207,22461360475022,14,30.9,-260.4439697265625,0.22579999268054962,0,0.0,0.0,,,,,0,,3,0.0,
Raw,2114583,1801070000000,,,-1330742678359878094,0.32522106170654297,25.38840453780722,-3.205170697079091,9.720577960913907,5,23,0.0,207,22461362161715,9,35.0,146.41622924804688,0.22460000216960907,0,0.0,0.0,,,,,0,,3,0.0,
Raw,2114583,1801070000000,,,-1330742678359878094,0.32522106170654297,25.38840453780722,-3.205170697079091,9.720577960913907,5,7,0.0,207,22461354240699,9,35.8,353.3495788574219,0.24260000884532928,0,0.0,0.0,,,,,0,,3,0.0,
Raw,2114583,1801070000000,,,-1330742678359878094,0.32522106170654297,25.38840453780722,-3.205170697079091,9.720577960913907,5,8,0.0,207,22461359185468,6,39.6,-268.8546447753906,0.24809999763965607,0,0.0,0.0,,,,,0,,3,0.0,
Raw,2114583,1801070000000,,,-1330742678359878094,0.32522106170654297,25.38840453780722,-3.205170697079091,9.720577960913907,5,2,0.0,15,184479349703017,10,34.4,459.7989501953125,0.035600002855062485,0,0.0,0.0,,,,,0,,1,0.0,
Raw,2114583,1801070000000,,,-1330742678359878094,0.32522106170654297,25.38840453780722,-3.205170697079091,9.720577960913907,5,5,0.0,15,184479360763099,5,40.0,87.87601470947266,0.01940000057220459,0,0.0,0.0,,,,,0,,1,0.0,
Raw,2114583,1801070000000,,,-1330742678359878094,0.32522106170654297,25.38840453780722,-3.205170697079091,9.720577960913907,5,18,0.0,15,184479356368187,6,38.1,-394.0443115234375,0.04410000145435333,0,0.0,0.0,,,,,0,,1,0.0,
Raw,2114583,1801070000000,,,-1330742678359878094,0.32522106170654297,25.38840453780722,-3.205170697079091,9.720577960913907,5,20,0.0,15,184479356544107,11,33.8,417.53436279296875,0.04690000042319298,0,0.0,0.0,,,,,0,,1,0.0,
Raw,2114583,1801070000000,,,-1330742678359878094,0.32522106170654297,25.38840453780722,-3.205170697079091,9.720577960913907,5,25,0.0,15,184479359811316,372,21.7,411.20562744140625,1.9700000286102295,0,0.0,0.0,,,,,0,,1,0.0,
Raw,2114583,1801070000000,,,-1330742678359878094,0.32522106170654297,25.38840453780722,-3.205170697079091,9.720577960913907,5,26,0.0,15,184479349662275,27,24.9,-540.3388671875,0.5900000333786011,0,0.0,0.0,,,,,0,,1,0.0,
Raw,2114583,1801070000000,,,-1330742678359878094,0.32522106170654297,25.38840453780722,-3.205170697079091,9.720577960913907,5,29,0.0,15,184479360754671,6,38.0,-187.0125732421875,0.020100001245737076,0,0.0,0.0,,,,,0,,1,0.0,
Raw,2114583,1801070000000,,,-1330742678359878094,0.32522106170654297,25.38840453780722,-3.205170697079091,9.720577960913907,5,31,0.0,15,184479347008073,14,30.5,308.2509460449219,0.03629999980330467,0,0.0,0.0,,,,,0,,1,0.0,
Fix,gps,37.427217,-122.170392,-6.324585,0.000000,3.216000,1646709262000
NMEA,$GPGSV,3,1,12,02,23,056,34,05,59,082,40,18,38,258,38,20,39,052,34,1*6B
,1646709262000
NMEA,$GPGSV,3,2,12,25,56,202,22,26,14,317,25,29,65,343,38,31,11,277,31,1*64
,1646709262001
NMEA,$GPGSV,3,3,12,12,27,163,,13,02,115,,15,07,147,,23,07,201,,1*64
,1646709262001
NMEA,$GLGSV,3,1,10,78,39,291,40,86,07,071,15,79,07,334,29,65,21,146,13,1*7C
,1646709262001
NMEA,$GLGSV,3,2,10,88,41,306,31,87,49,018,35,71,19,037,36,72,36,091,40,1*74
,1646709262002
NMEA,$GLGSV,3,3,10,77,32,217,,81,01,274,,1*75
,1646709262002
NMEA,$GAGSV,1,1,0,7*43
,1646709262002
NMEA,$PQGSV,1,1,0,0*43
,1646709262002
NMEA,$GBGSV,1,1,0,0*47
,1646709262002
NMEA,$GNGSA,A,3,02,05,18,20,25,26,29,31,,,,,1.2,0.9,0.8,1*35
,1646709262009
NMEA,$GNGSA,A,3,71,72,78,79,87,88,,,,,,,1.2,0.9,0.8,2*3D
,1646709262009
NMEA,$GNVTG,,T,,M,0.0,N,0.0,K,A*3D
,1646709262010
NMEA,$GNGGA,031422.00,3725.633033,N,12210.223495,W,1,12,0.9,21.6,M,-27.9,M,,*76
,1646709262010
NMEA,$GNRMC,031422.00,A,3725.633033,N,12210.223495,W,0.0,,080322,15.0,E,A,V*5A
,1646709262010
NMEA,$AIDSTAT,0,0,0,2,8,23,3*00
,1646709262928
Raw,2115533,1802070000000,,,-1330742678359878100,0.729835033416748,25.140871002804488,-1.9445745078005672,9.720843584025147,5,14,0.0,207,22462359969499,6,39.6,-22.184354782104492,0.21809999644756317,0,0.0,0.0,,,,,0,,3,0.0,
Raw,2115534,1802070000000,,,-1330742678359878100,0.729835033416748,25.140871002804488,-1.9445745078005672,9.720843584025147,5,22,0.0,207,22462350037364,420,14.5,490.01812744140625,12.746500968933105,0,0.0,0.0,,,,,0,,3,0.0,
Raw,2115534,1802070000000,,,-1330742678359878100,0.729835033416748,25.140871002804488,-1.9445745078005672,9.720843584025147,5,15,0.0,207,22462350626160,21,26.9,-603.4511108398438,0.326200008392334,0,0.0,0.0,,,,,0,,3,0.0,
Raw,2115534,1802070000000,,,-1330742678359878100,0.729835033416748,25.140871002804488,-1.9445745078005672,9.720843584025147,5,1,0.0,207,22462355338597,169,13.1,-738.7608642578125,5.569000244140625,0,0.0,0.0,,,,,0,,3,0.0,
Raw,2115534,1802070000000,,,-1330742678359878100,0.729835033416748,25.140871002804488,-1.9445745078005672,9.720843584025147,5,24,0.0,207,22462360475912,17,28.5,-260.509521484375,0.23330000042915344,0,0.0,0.0,,,,,0,,3,0.0,
Raw,2115534,1802070000000,,,-1330742678359878100,0.729835033416748,25.140871002804488,-1.9445745078005672,9.720843584025147,5,23,0.0,207,22462362161290,11,33.5,146.325927734375,0.22590000927448273,0,0.0,0.0,,,,,0,,3,0.0,
Raw,2115534,1802070000000,,,-1330742678359878100,0.729835033416748,25.140871002804488,-1.9445745078005672,9.720843584025147,5,7,0.0,207,22462354239505,8,36.6,353.3096008300781,0.24220001697540283,0,0.0,0.0,,,,,0,,3,0.0,
Raw,2115535,1802070000000,,,-1330742678359878100,0.729835033416748,25.140871002804488,-1.9445745078005672,9.720843584025147,5,8,0.0,207,22462359186378,6,39.5,-268.8631591796875,0.24809999763965607,0,0.0,0.0,,,,,0,,3,0.0,
Raw,2115535,1802070000000,,,-1330742678359878100,0.729835033416748,25.140871002804488,-1.9445745078005672,9.720843584025147,5,2,0.0,15,184480349701494,13,31.4,459.6820983886719,0.038700003176927567,0,0.0,0.0,,,,,0,,1,0.0,
Raw,2115535,1802070000000,,,-1330742678359878100,0.729835033416748,25.140871002804488,-1.9445745078005672,9.720843584025147,5,5,0.0,15,184480360762812,5,40.1,87.81712341308594,0.01940000057220459,0,0.0,0.0,,,,,0,,1,0.0,
Raw,2115535,1802070000000,,,-1330742678359878100,0.729835033416748,25.140871002804488,-1.9445745078005672,9.720843584025147,5,18,0.0,15,184480356369515,7,37.2,-394.1929626464844,0.044600002467632294,0,0.0,0.0,,,,,0,,1,0.0,
Raw,2115535,1802070000000,,,-1330742678359878100,0.729835033416748,25.140871002804488,-1.9445745078005672,9.720843584025147,5,20,0.0,15,184480356542755,21,26.2,417.48773193359375,0.13520000874996185,0,0.0,0.0,,,,,0,,1,0.0,
Raw,2115536,1802070000000,,,-1330742678359878100,0.729835033416748,25.140871002804488,-1.9445745078005672,9.720843584025147,5,25,0.0,15,184480359809952,56,21.3,411.2912292480469,3.0950000286102295,0,0.0,0.0,,,,,0,,1,0.0,
Raw,2115536,1802070000000,,,-1330742678359878100,0.729835033416748,25.140871002804488,-1.9445745078005672,9.720843584025147,5,26,0.0,15,184480349664010,27,24.3,-540.376953125,0.5900000333786011,0,0.0,0.0,,,,,0,,1,0.0,
Raw,2115536,1802070000000,,,-1330742678359878100,0.729835033416748,25.140871002804488,-1.9445745078005672,9.720843584025147,5,29,0.0,15,184480360755295,6,39.0,-187.14845275878906,0.019600000232458115,0,0.0,0.0,,,,,0,,1,0.0,
Raw,2115536,1802070000000,,,-1330742678359878100,0.729835033416748,25.140871002804488,-1.9445745078005672,9.720843584025147,5,31,0.0,15,184480347007047,16,29.5,308.12310791015625,0.03720000013709068,0,0.0,0.0,,,,,0,,1,0.0,
Fix,gps,37.427218,-122.170391,-5.997498,0.000000,3.216000,1646709263000
NMEA,$GPGSV,3,1,12,02,23,056,31,05,59,082,40,18,38,258,37,20,39,052,26,1*62
,1646709263001
NMEA,$GPGSV,3,2,12,25,56,202,21,26,14,317,24,29,65,343,39,31,11,277,30,1*66
,1646709263001
NMEA,$GPGSV,3,3,12,12,27,163,,13,02,115,,15,07,147,,23,07,201,,1*64
,1646709263002
NMEA,$GLGSV,3,1,10,78,39,291,40,86,07,071,15,79,07,334,27,65,21,146,13,1*72
,1646709263003
NMEA,$GLGSV,3,2,10,88,41,306,29,87,49,018,34,71,19,037,37,72,36,091,40,1*7D
,1646709263003
NMEA,$GLGSV,3,3,10,77,32,217,,81,01,274,,1*75
,1646709263003
NMEA,$GAGSV,1,1,0,7*43
,1646709263004
NMEA,$PQGSV,1,1,0,0*43
,1646709263004
NMEA,$GBGSV,1,1,0,0*47
,1646709263004
NMEA,$GNGSA,A,3,02,05,18,20,25,26,29,31,,,,,1.2,0.9,0.8,1*35
,1646709263018
NMEA,$GNGSA,A,3,71,72,78,79,87,88,,,,,,,1.2,0.9,0.8,2*3D
,1646709263019
NMEA,$GNVTG,,T,,M,0.0,N,0.0,K,A*3D
,1646709263019
NMEA,$GNGGA,031423.00,3725.633091,N,12210.223482,W,1,12,0.9,21.9,M,-27.9,M,,*76
,1646709263020
NMEA,$GNRMC,031423.00,A,3725.633091,N,12210.223482,W,0.0,,080322,15.0,E,A,V*55
,1646709263020
NMEA,$AIDSTAT,0,0,0,2,,23,3*00
,1646709263927
Raw,2116582,1803070000000,,,-1330742678359878106,0.03921365737915039,27.098794816993177,-2.431073773478425,9.902764399351533,5,14,0.0,207,22463359969580,6,38.9,-22.175086975097656,0.21860000491142273,0,0.0,0.0,,,,,0,,3,0.0,
Raw,2116582,1803070000000,,,-1330742678359878106,0.03921365737915039,27.098794816993177,-2.431073773478425,9.902764399351533,5,22,0.0,207,22463350035730,505,14.5,490.01812744140625,14.246500968933105,0,0.0,0.0,,,,,0,,3,0.0,
Raw,2116582,1803070000000,,,-1330742678359878106,0.03921365737915039,27.098794816993177,-2.431073773478425,9.902764399351533,5,15,0.0,207,22463350628296,27,24.0,-603.5896606445312,0.8814999461174011,0,0.0,0.0,,,,,0,,3,0.0,
Raw,2116582,1803070000000,,,-1330742678359878106,0.03921365737915039,27.098794816993177,-2.431073773478425,9.902764399351533,5,1,0.0,207,22463355341062,205,13.1,-738.7608642578125,7.069000244140625,0,0.0,0.0,,,,,0,,3,0.0,
Raw,2116582,1803070000000,,,-1330742678359878106,0.03921365737915039,27.098794816993177,-2.431073773478425,9.902764399351533,5,24,0.0,207,22463360476740,35,22.3,-260.7972412109375,0.9864999651908875,0,0.0,0.0,,,,,0,,3,0.0,
Raw,2116582,1803070000000,,,-1330742678359878106,0.03921365737915039,27.098794816993177,-2.431073773478425,9.902764399351533,5,23,0.0,207,22463362160803,11,33.0,146.15977478027344,0.22590000927448273,0,0.0,0.0,,,,,0,,3,0.0,
Raw,2116582,1803070000000,,,-1330742678359878106,0.03921365737915039,27.098794816993177,-2.431073773478425,9.902764399351533,5,7,0.0,207,22463354238362,8,36.5,353.2567138671875,0.24220001697540283,0,0.0,0.0,,,,,0,,3,0.0,
Raw,2116583,1803070000000,,,-1330742678359878106,0.03921365737915039,27.098794816993177,-2.431073773478425,9.902764399351533,5,8,0.0,207,22463359187276,5,40.8,-268.91302490234375,0.24790000915527344,0,0.0,0.0,,,,,0,,3,0.0,
Raw,2116583,1803070000000,,,-1330742678359878106,0.03921365737915039,27.098794816993177,-2.431073773478425,9.902764399351533,5,2,0.0,15,184481349699954,13,31.6,459.4422912597656,0.038700003176927567,0,0.0,0.0,,,,,0,,1,0.0,
Raw,2116583,1803070000000,,,-1330742678359878106,0.03921365737915039,27.098794816993177,-2.431073773478425,9.902764399351533,5,5,0.0,15,184481360762519,6,39.2,87.76187133789062,0.019600000232458115,0,0.0,0.0,,,,,0,,1,0.0,
Raw,2116583,1803070000000,,,-1330742678359878106,0.03921365737915039,27.098794816993177,-2.431073773478425,9.902764399351533,5,18,0.0,15,184481356370814,9,35.9,-394.2984619140625,0.04560000076889992,0,0.0,0.0,,,,,0,,1,0.0,
Raw,2116583,1803070000000,,,-1330742678359878106,0.03921365737915039,27.098794816993177,-2.431073773478425,9.902764399351533,5,20,0.0,15,184481356541392,19,27.3,417.3673400878906,0.06530000269412994,0,0.0,0.0,,,,,0,,1,0.0,
Raw,2116583,1803070000000,,,-1330742678359878106,0.03921365737915039,27.098794816993177,-2.431073773478425,9.902764399351533,5,25,0.0,15,184481359808580,80,21.3,411.2912292480469,4.595000267028809,0,0.0,0.0,,,,,0,,1,0.0,
Raw,2116583,1803070000000,,,-1330742678359878106,0.03921365737915039,27.098794816993177,-2.431073773478425,9.902764399351533,5,26,0.0,15,184481349665842,21,26.0,-540.63671875,0.12470000237226486,0,0.0,0.0,,,,,0,,1,0.0,
Raw,2116583,1803070000000,,,-1330742678359878106,0.03921365737915039,27.098794816993177,-2.431073773478425,9.902764399351533,5,29,0.0,15,184481360755915,5,40.2,-187.24609375,0.01940000057220459,0,0.0,0.0,,,,,0,,1,0.0,
Raw,2116583,1803070000000,,,-1330742678359878106,0.03921365737915039,27.098794816993177,-2.431073773478425,9.902764399351533,5,31,0.0,15,184481347005971,13,31.1,308.0061340332031,0.0357000008225441,0,0.0,0.0,,,,,0,,1,0.0,
Fix,gps,37.427221,-122.170391,-5.778687,0.000000,3.216000,1646709264000
NMEA,$GPGSV,3,1,12,02,23,056,32,05,59,082,39,18,38,258,36,20,39,052,27,1*6F
,1646709264006
NMEA,$GPGSV,3,2,12,25,56,202,21,26,14,317,26,29,65,343,40,31,11,277,31,1*6B
,1646709264006
NMEA,$GPGSV,3,3,12,12,27,163,,13,02,115,,15,07,147,,23,07,201,,1*64
,1646709264006
NMEA,$GLGSV,3,1,10,78,39,291,39,86,07,071,15,79,07,334,24,65,21,146,13,1*7F
,1646709264007
NMEA,$GLGSV,3,2,10,88,41,306,22,87,49,018,33,71,19,037,37,72,36,091,41,1*70
,1646709264007
NMEA,$GLGSV,3,3,10,77,32,217,,81,01,274,,1*75
,1646709264007
NMEA,$GAGSV,1,1,0,7*43
,1646709264009
NMEA,$PQGSV,1,1,0,0*43
,1646709264010
NMEA,$GBGSV,1,1,0,0*47
,1646709264010
NMEA,$GNGSA,A,3,02,05,18,20,25,26,29,31,,,,,1.2,0.9,0.8,1*35
,1646709264019
NMEA,$GNGSA,A,3,71,72,78,79,87,88,,,,,,,1.2,0.9,0.8,2*3D
,1646709264020
NMEA,$GNVTG,,T,,M,0.0,N,0.0,K,A*3D
,1646709264020
NMEA,$GNGGA,031424.00,3725.633255,N,12210.223440,W,1,12,0.9,22.2,M,-27.9,M,,*7D
,1646709264020
NMEA,$GNRMC,031424.00,A,3725.633255,N,12210.223440,W,0.0,,080322,15.0,E,A,V*56
,1646709264020
NMEA,$AIDSTAT,0,0,0,2,,23,3*00
,1646709264926
Raw,2117556,1804070000000,,,-1330742678359878112,0.421475887298584,27.63964766927529,-3.2465699278708002,9.726245912751631,5,14,0.0,207,22464359969654,6,38.7,-21.34117889404297,0.21860000491142273,0,0.0,0.0,,,,,0,,3,0.0,
Raw,2117557,1804070000000,,,-1330742678359878112,0.421475887298584,27.63964766927529,-3.2465699278708002,9.726245912751631,5,22,0.0,207,22464350034095,599,14.5,490.01812744140625,15.746500968933105,0,0.0,0.0,,,,,0,,3,0.0,
Raw,2117557,1804070000000,,,-1330742678359878112,0.421475887298584,27.63964766927529,-3.2465699278708002,9.726245912751631,5,15,0.0,207,22464350630112,31,23.2,-603.1873168945312,0.9414999485015869,0,0.0,0.0,,,,,0,,3,0.0,
Raw,2117557,1804070000000,,,-1330742678359878112,0.421475887298584,27.63964766927529,-3.2465699278708002,9.726245912751631,5,1,0.0,207,22464355343526,251,13.1,-738.7608642578125,8.569000244140625,0,0.0,0.0,,,,,0,,3,0.0,
Raw,2117557,1804070000000,,,-1330742678359878112,0.421475887298584,27.63964766927529,-3.2465699278708002,9.726245912751631,5,24,0.0,207,22464360477518,35,22.9,-259.6097412109375,0.9864999651908875,0,0.0,0.0,,,,,0,,3,0.0,
Raw,2117557,1804070000000,,,-1330742678359878112,0.421475887298584,27.63964766927529,-3.2465699278708002,9.726245912751631,5,23,0.0,207,22464362160270,9,35.2,146.8729705810547,0.22460000216960907,0,0.0,0.0,,,,,0,,3,0.0,
Raw,2117557,1804070000000,,,-1330742678359878112,0.421475887298584,27.63964766927529,-3.2465699278708002,9.726245912751631,5,7,0.0,207,22464354237171,7,37.0,354.11236572265625,0.24160000681877136,0,0.0,0.0,,,,,0,,3,0.0,
Raw,2117558,1804070000000,,,-1330742678359878112,0.421475887298584,27.63964766927529,-3.2465699278708002,9.726245912751631,5,8,0.0,207,22464359188168,5,40.9,-268.07855224609375,0.24790000915527344,0,0.0,0.0,,,,,0,,3,0.0,
Raw,2117558,1804070000000,,,-1330742678359878112,0.421475887298584,27.63964766927529,-3.2465699278708002,9.726245912751631,5,2,0.0,15,184482349698422,13,31.9,460.1366882324219,0.038700003176927567,0,0.0,0.0,,,,,0,,1,0.0,
Raw,2117558,1804070000000,,,-1330742678359878112,0.421475887298584,27.63964766927529,-3.2465699278708002,9.726245912751631,5,5,0.0,15,184482360762222,6,38.4,88.60834503173828,0.020100001245737076,0,0.0,0.0,,,,,0,,1,0.0,
Raw,2117558,1804070000000,,,-1330742678359878112,0.421475887298584,27.63964766927529,-3.2465699278708002,9.726245912751631,5,18,0.0,15,184482356372136,7,37.8,-393.5928649902344,0.044600002467632294,0,0.0,0.0,,,,,0,,1,0.0,
Raw,2117558,1804070000000,,,-1330742678359878112,0.421475887298584,27.63964766927529,-3.2465699278708002,9.726245912751631,5,20,0.0,15,184482356539944,14,30.9,418.0614318847656,0.049800001084804535,0,0.0,0.0,,,,,0,,1,0.0,
Raw,2117559,1804070000000,,,-1330742678359878112,0.421475887298584,27.63964766927529,-3.2465699278708002,9.726245912751631,5,25,0.0,15,184482359807208,113,21.3,411.2912292480469,6.095000267028809,0,0.0,0.0,,,,,0,,1,0.0,
Raw,2117559,1804070000000,,,-1330742678359878112,0.421475887298584,27.63964766927529,-3.2465699278708002,9.726245912751631,5,26,0.0,15,184482349667686,19,27.0,-539.955810546875,0.05480000376701355,0,0.0,0.0,,,,,0,,1,0.0,
Raw,2117559,1804070000000,,,-1330742678359878112,0.421475887298584,27.63964766927529,-3.2465699278708002,9.726245912751631,5,29,0.0,15,184482360756544,5,41.9,-186.509521484375,0.019100001081824303,0,0.0,0.0,,,,,0,,1,0.0,
Raw,2117559,1804070000000,,,-1330742678359878112,0.421475887298584,27.63964766927529,-3.2465699278708002,9.726245912751631,5,31,0.0,15,184482347004950,19,27.0,308.8286437988281,0.05180000141263008,0,0.0,0.0,,,,,0,,1,0.0,
Fix,gps,37.427223,-122.170390,-5.696411,0.000000,3.216000,1646709265000
NMEA,$GPGSV,3,1,12,02,23,056,32,05,59,082,38,18,38,258,38,20,39,052,31,1*67
,1646709265006
NMEA,$GPGSV,3,2,12,25,56,202,21,26,14,317,27,29,65,343,42,31,11,277,27,1*6F
,1646709265007
NMEA,$GPGSV,3,3,12,12,27,163,,13,02,115,,15,07,147,,23,07,201,,1*64
,1646709265007
NMEA,$GLGSV,3,1,10,78,39,291,39,86,07,071,15,79,07,334,23,65,21,146,13,1*78
,1646709265008
NMEA,$GLGSV,3,2,10,88,41,306,23,87,49,018,35,71,19,037,37,72,36,091,41,1*77
,1646709265009
NMEA,$GLGSV,3,3,10,77,32,217,,81,01,274,,1*75
,1646709265009
NMEA,$GAGSV,1,1,0,7*43
,1646709265010
NMEA,$PQGSV,1,1,0,0*43
,1646709265011
NMEA,$GBGSV,1,1,0,0*47
,1646709265011
NMEA,$GNGSA,A,3,02,05,18,20,25,26,29,31,,,,,1.2,0.9,0.8,1*35
,1646709265021
NMEA,$GNGSA,A,3,71,72,78,79,87,88,,,,,,,1.2,0.9,0.8,2*3D
,1646709265021
NMEA,$GNVTG,,T,,M,0.0,N,0.0,K,A*3D
,1646709265022
NMEA,$GNGGA,031425.00,3725.633384,N,12210.223407,W,1,12,0.9,22.2,M,-27.9,M,,*72
,1646709265022
NMEA,$GNRMC,031425.00,A,3725.633384,N,12210.223407,W,0.0,,080322,15.0,E,A,V*59
,1646709265022
NMEA,$AIDSTAT,0,0,0,2,,23,3*00
,1646709265926
Raw,2118583,1805070000000,,,-1330742678359878113,0.683868408203125,28.156691769254394,-1.079307123529953,10.889355437910062,5,14,0.0,207,22465359969738,6,39.2,-21.577646255493164,0.21809999644756317,0,0.0,0.0,,,,,0,,3,0.0,
Raw,2118583,1805070000000,,,-1330742678359878113,0.683868408203125,28.156691769254394,-1.079307123529953,10.889355437910062,5,22,0.0,207,22465350032461,704,14.5,490.01812744140625,17.24650001525879,0,0.0,0.0,,,,,0,,3,0.0,
Raw,2118583,1805070000000,,,-1330742678359878113,0.683868408203125,28.156691769254394,-1.079307123529953,10.889355437910062,5,15,0.0,207,22465350632069,31,23.8,-603.4212036132812,0.9414999485015869,0,0.0,0.0,,,,,0,,3,0.0,
Raw,2118583,1805070000000,,,-1330742678359878113,0.683868408203125,28.156691769254394,-1.079307123529953,10.889355437910062,5,1,0.0,207,22465355345990,307,13.1,-738.7608642578125,10.069000244140625,0,0.0,0.0,,,,,0,,3,0.0,
Raw,2118583,1805070000000,,,-1330742678359878113,0.683868408203125,28.156691769254394,-1.079307123529953,10.889355437910062,5,24,0.0,207,22465360478356,35,22.9,-260.27362060546875,0.9864999651908875,0,0.0,0.0,,,,,0,,3,0.0,
Raw,2118583,1805070000000,,,-1330742678359878113,0.683868408203125,28.156691769254394,-1.079307123529953,10.889355437910062,5,23,0.0,207,22465362159767,8,36.4,146.5084686279297,0.22420001029968262,0,0.0,0.0,,,,,0,,3,0.0,
Raw,2118583,1805070000000,,,-1330742678359878113,0.683868408203125,28.156691769254394,-1.079307123529953,10.889355437910062,5,7,0.0,207,22465354235992,7,37.3,353.87542724609375,0.24160000681877136,0,0.0,0.0,,,,,0,,3,0.0,
Raw,2118583,1805070000000,,,-1330742678359878113,0.683868408203125,28.156691769254394,-1.079307123529953,10.889355437910062,5,8,0.0,207,22465359189063,5,40.7,-268.31719970703125,0.24790000915527344,0,0.0,0.0,,,,,0,,3,0.0,
Raw,2118583,1805070000000,,,-1330742678359878113,0.683868408203125,28.156691769254394,-1.079307123529953,10.889355437910062,5,2,0.0,15,184483349696901,13,31.6,459.728271484375,0.038700003176927567,0,0.0,0.0,,,,,0,,1,0.0,
Raw,2118583,1805070000000,,,-1330742678359878113,0.683868408203125,28.156691769254394,-1.079307123529953,10.889355437910062,5,5,0.0,15,184483360761931,6,39.7,88.31355285644531,0.019600000232458115,0,0.0,0.0,,,,,0,,1,0.0,
Raw,2118583,1805070000000,,,-1330742678359878113,0.683868408203125,28.156691769254394,-1.079307123529953,10.889355437910062,5,12,0.0,15,184483352442200,651,17.8,693.6680297851562,1.8845000267028809,0,0.0,0.0,,,,,0,,1,0.0,
Raw,2118584,1805070000000,,,-1330742678359878113,0.683868408203125,28.156691769254394,-1.079307123529953,10.889355437910062,5,18,0.0,15,184483356373454,6,38.6,-393.90692138671875,0.04410000145435333,0,0.0,0.0,,,,,0,,1,0.0,
Raw,2118584,1805070000000,,,-1330742678359878113,0.683868408203125,28.156691769254394,-1.079307123529953,10.889355437910062,5,20,0.0,15,184483356538578,17,28.9,417.8108825683594,0.05730000138282776,0,0.0,0.0,,,,,0,,1,0.0,
Raw,2118584,1805070000000,,,-1330742678359878113,0.683868408203125,28.156691769254394,-1.079307123529953,10.889355437910062,5,25,0.0,15,184483359805836,156,21.3,411.2912292480469,7.595000267028809,0,0.0,0.0,,,,,0,,1,0.0,
Raw,2118584,1805070000000,,,-1330742678359878113,0.683868408203125,28.156691769254394,-1.079307123529953,10.889355437910062,5,26,0.0,15,184483349669445,16,29.0,-540.2208862304688,0.04020000249147415,0,0.0,0.0,,,,,0,,1,0.0,
Raw,2118584,1805070000000,,,-1330742678359878113,0.683868408203125,28.156691769254394,-1.079307123529953,10.889355437910062,5,29,0.0,15,184483360757160,4,42.2,-186.86322021484375,0.018800001591444016,0,0.0,0.0,,,,,0,,1,0.0,
Raw,2118584,1805070000000,,,-1330742678359878113,0.683868408203125,28.156691769254394,-1.079307123529953,10.889355437910062,5,31,0.0,15,184483347003866,24,25.5,308.4336242675781,0.392300009727478,0,0.0,0.0,,,,,0,,1,0.0,
Fix,gps,37.427224,-122.170390,-5.738007,0.000000,3.216000,1646709266000
NMEA,$GPGSV,3,1,12,02,23,056,32,05,59,082,40,12,27,163,18,18,38,258,39,1*6F
,1646709266004
NMEA,$GPGSV,3,2,12,20,39,052,29,25,56,202,21,26,14,317,29,29,65,343,42,1*60
,1646709266004
NMEA,$GPGSV,3,3,12,31,11,277,26,13,02,115,,15,07,147,,23,07,201,,1*62
,1646709266005
NMEA,$GLGSV,3,1,10,78,39,291,39,86,07,071,15,79,07,334,24,65,21,146,13,1*7F
,1646709266005
NMEA,$GLGSV,3,2,10,88,41,306,23,87,49,018,36,71,19,037,37,72,36,091,41,1*74
,1646709266005
NMEA,$GLGSV,3,3,10,77,32,217,,81,01,274,,1*75
,1646709266005
NMEA,$GAGSV,1,1,0,7*43
,1646709266005
NMEA,$PQGSV,1,1,0,0*43
,1646709266005
NMEA,$GBGSV,1,1,0,0*47
,1646709266005
NMEA,$GNGSA,A,3,02,05,18,20,25,26,29,31,,,,,1.2,0.9,0.8,1*35
,1646709266010
NMEA,$GNGSA,A,3,71,72,78,79,87,88,,,,,,,1.2,0.9,0.8,2*3D
,1646709266010
NMEA,$GNVTG,,T,,M,0.0,N,0.0,K,A*3D
,1646709266011
NMEA,$GNGGA,031426.00,3725.633459,N,12210.223393,W,1,12,0.9,22.2,M,-27.9,M,,*7C
,1646709266011
NMEA,$GNRMC,031426.00,A,3725.633459,N,12210.223393,W,0.0,,080322,15.0,E,A,V*57
,1646709266011
NMEA,$AIDSTAT,0,0,0,2,,23,3*00
,1646709266927
Raw,2119532,1806070000000,,,-1330742678359878117,0.8617205619812012,29.442362574627623,-2.2376176383234676,11.935637715571165,5,14,0.0,207,22466359969794,5,40.1,-21.70442008972168,0.21790000796318054,0,0.0,0.0,,,,,0,,3,0.0,
Raw,2119533,1806070000000,,,-1330742678359878117,0.8617205619812012,29.442362574627623,-2.2376176383234676,11.935637715571165,5,22,0.0,207,22466350030826,818,14.5,490.01812744140625,18.74650001525879,0,0.0,0.0,,,,,0,,3,0.0,
Raw,2119533,1806070000000,,,-1330742678359878117,0.8617205619812012,29.442362574627623,-2.2376176383234676,11.935637715571165,5,15,0.0,207,22466350634072,70,17.5,-603.8796997070312,1.381500005722046,0,0.0,0.0,,,,,0,,3,0.0,
Raw,2119533,1806070000000,,,-1330742678359878117,0.8617205619812012,29.442362574627623,-2.2376176383234676,11.935637715571165,5,1,0.0,207,22466355348454,374,13.1,-738.7608642578125,11.569000244140625,0,0.0,0.0,,,,,0,,3,0.0,
Raw,2119533,1806070000000,,,-1330742678359878117,0.8617205619812012,29.442362574627623,-2.2376176383234676,11.935637715571165,5,24,0.0,207,22466360479383,17,28.9,-260.566162109375,0.23330000042915344,0,0.0,0.0,,,,,0,,3,0.0,
Raw,2119533,1806070000000,,,-1330742678359878117,0.8617205619812012,29.442362574627623,-2.2376176383234676,11.935637715571165,5,23,0.0,207,22466362159253,8,36.3,146.2701873779297,0.22420001029968262,0,0.0,0.0,,,,,0,,3,0.0,
Raw,2119533,1806070000000,,,-1330742678359878117,0.8617205619812012,29.442362574627623,-2.2376176383234676,11.935637715571165,5,7,0.0,207,22466354234817,7,37.2,353.672607421875,0.24160000681877136,0,0.0,0.0,,,,,0,,3,0.0,
Raw,2119533,1806070000000,,,-1330742678359878117,0.8617205619812012,29.442362574627623,-2.2376176383234676,11.935637715571165,5,8,0.0,207,22466359189978,6,39.8,-268.48187255859375,0.24809999763965607,0,0.0,0.0,,,,,0,,3,0.0,
Raw,2119533,1806070000000,,,-1330742678359878117,0.8617205619812012,29.442362574627623,-2.2376176383234676,11.935637715571165,5,2,0.0,15,184484349695372,14,30.4,459.4089660644531,0.03930000215768814,0,0.0,0.0,,,,,0,,1,0.0,
Raw,2119534,1806070000000,,,-1330742678359878117,0.8617205619812012,29.442362574627623,-2.2376176383234676,11.935637715571165,5,5,0.0,15,184484360761626,6,39.7,88.14944458007812,0.019600000232458115,0,0.0,0.0,,,,,0,,1,0.0,
Raw,2119534,1806070000000,,,-1330742678359878117,0.8617205619812012,29.442362574627623,-2.2376176383234676,11.935637715571165,5,12,0.0,15,184484352439906,656,17.6,693.8012084960938,2.634500026702881,0,0.0,0.0,,,,,0,,1,0.0,
Raw,2119534,1806070000000,,,-1330742678359878117,0.8617205619812012,29.442362574627623,-2.2376176383234676,11.935637715571165,5,18,0.0,15,184484356374767,6,38.5,-394.15924072265625,0.04410000145435333,0,0.0,0.0,,,,,0,,1,0.0,
Raw,2119534,1806070000000,,,-1330742678359878117,0.8617205619812012,29.442362574627623,-2.2376176383234676,11.935637715571165,5,20,0.0,15,184484356537166,17,28.8,417.57421875,0.05730000138282776,0,0.0,0.0,,,,,0,,1,0.0,
Raw,2119534,1806070000000,,,-1330742678359878117,0.8617205619812012,29.442362574627623,-2.2376176383234676,11.935637715571165,5,25,0.0,15,184484359804346,148,13.9,411.2436828613281,4.205000400543213,0,0.0,0.0,,,,,0,,1,0.0,
Raw,2119534,1806070000000,,,-1330742678359878117,0.8617205619812012,29.442362574627623,-2.2376176383234676,11.935637715571165,5,26,0.0,15,184484349671242,19,27.9,-540.5673217773438,0.05480000376701355,0,0.0,0.0,,,,,0,,1,0.0,
Raw,2119534,1806070000000,,,-1330742678359878117,0.8617205619812012,29.442362574627623,-2.2376176383234676,11.935637715571165,5,29,0.0,15,184484360757790,5,41.0,-187.08160400390625,0.019100001081824303,0,0.0,0.0,,,,,0,,1,0.0,
Raw,2119535,1806070000000,,,-1330742678359878117,0.8617205619812012,29.442362574627623,-2.2376176383234676,11.935637715571165,5,31,0.0,15,184484347002913,17,28.6,308.1796875,0.043800000101327896,0,0.0,0.0,,,,,0,,1,0.0,
Fix,gps,37.427225,-122.170389,-5.901093,0.000000,3.216000,1646709267000
NMEA,$GPGSV,3,1,12,02,23,056,30,05,59,082,40,12,27,163,18,18,38,258,39,1*6D
,1646709267004
NMEA,$GPGSV,3,2,12,20,39,052,29,25,56,202,14,26,14,317,28,29,65,343,41,1*64
,1646709267007
NMEA,$GPGSV,3,3,12,31,11,277,29,13,02,115,,15,07,147,,23,07,201,,1*6D
,1646709267008
NMEA,$GLGSV,3,1,10,78,39,291,40,86,07,071,15,79,07,334,18,65,21,146,13,1*7E
,1646709267008
NMEA,$GLGSV,3,2,10,88,41,306,29,87,49,018,36,71,19,037,37,72,36,091,40,1*7F
,1646709267009
NMEA,$GLGSV,3,3,10,77,32,217,,81,01,274,,1*75
,1646709267009
NMEA,$GAGSV,1,1,0,7*43
,1646709267009
NMEA,$PQGSV,1,1,0,0*43
,1646709267009
NMEA,$GBGSV,1,1,0,0*47
,1646709267009
NMEA,$GNGSA,A,3,02,05,18,20,25,26,29,31,,,,,1.2,0.9,0.8,1*35
,1646709267012
NMEA,$GNGSA,A,3,71,72,78,79,87,88,,,,,,,1.2,0.9,0.8,2*3D
,1646709267012
NMEA,$GNVTG,,T,,M,0.0,N,0.0,K,A*3D
,1646709267012
NMEA,$GNGGA,031427.00,3725.633480,N,12210.223353,W,1,12,0.9,22.0,M,-27.9,M,,*77
,1646709267012
NMEA,$GNRMC,031427.00,A,3725.633480,N,12210.223353,W,0.0,,080322,15.0,E,A,V*5E
,1646709267013
NMEA,$AIDSTAT,0,0,0,2,12,23,3*00
,1646709267927
Raw,2120589,1807070000000,,,-1330742678359878120,0.18113374710083008,26.783824068843387,-3.4153087986625676,9.90687440006675,5,14,0.0,207,22467359969870,6,39.5,-21.52874183654785,0.21809999644756317,0,0.0,0.0,,,,,0,,3,0.0,
Raw,2120589,1807070000000,,,-1330742678359878120,0.18113374710083008,26.783824068843387,-3.4153087986625676,9.90687440006675,5,22,0.0,207,22467350029192,943,14.5,490.01812744140625,20.24650001525879,0,0.0,0.0,,,,,0,,3,0.0,
Raw,2120589,1807070000000,,,-1330742678359878120,0.18113374710083008,26.783824068843387,-3.4153087986625676,9.90687440006675,5,15,0.0,207,22467350636065,81,16.1,-603.9171752929688,1.471500039100647,0,0.0,0.0,,,,,0,,3,0.0,
Raw,2120589,1807070000000,,,-1330742678359878120,0.18113374710083008,26.783824068843387,-3.4153087986625676,9.90687440006675,5,1,0.0,207,22467355350919,450,13.1,-738.7608642578125,13.069000244140625,0,0.0,0.0,,,,,0,,3,0.0,
Raw,2120590,1807070000000,,,-1330742678359878120,0.18113374710083008,26.783824068843387,-3.4153087986625676,9.90687440006675,5,24,0.0,207,22467360480227,19,27.0,-260.5181884765625,0.24130000174045563,0,0.0,0.0,,,,,0,,3,0.0,
Raw,2120590,1807070000000,,,-1330742678359878120,0.18113374710083008,26.783824068843387,-3.4153087986625676,9.90687440006675,5,23,0.0,207,22467362158745,9,35.1,146.28094482421875,0.22460000216960907,0,0.0,0.0,,,,,0,,3,0.0,
Raw,2120590,1807070000000,,,-1330742678359878120,0.18113374710083008,26.783824068843387,-3.4153087986625676,9.90687440006675,5,7,0.0,207,22467354233628,9,35.5,353.8182678222656,0.24260000884532928,0,0.0,0.0,,,,,0,,3,0.0,
Raw,2120590,1807070000000,,,-1330742678359878120,0.18113374710083008,26.783824068843387,-3.4153087986625676,9.90687440006675,5,8,0.0,207,22467359190863,6,39.7,-268.3350830078125,0.24809999763965607,0,0.0,0.0,,,,,0,,3,0.0,
Raw,2120590,1807070000000,,,-1330742678359878120,0.18113374710083008,26.783824068843387,-3.4153087986625676,9.90687440006675,5,2,0.0,15,184485349693845,17,28.6,459.5086669921875,0.046800002455711365,0,0.0,0.0,,,,,0,,1,0.0,
Raw,2120590,1807070000000,,,-1330742678359878120,0.18113374710083008,26.783824068843387,-3.4153087986625676,9.90687440006675,5,5,0.0,15,184485360761332,6,38.3,88.29033660888672,0.020100001245737076,0,0.0,0.0,,,,,0,,1,0.0,
Raw,2120590,1807070000000,,,-1330742678359878120,0.18113374710083008,26.783824068843387,-3.4153087986625676,9.90687440006675,5,12,0.0,15,184485352437672,764,16.8,693.658447265625,3.4644999504089355,0,0.0,0.0,,,,,0,,1,0.0,
Raw,2120590,1807070000000,,,-1330742678359878120,0.18113374710083008,26.783824068843387,-3.4153087986625676,9.90687440006675,5,18,0.0,15,184485356376080,8,36.0,-394.11370849609375,0.04520000144839287,0,0.0,0.0,,,,,0,,1,0.0,
Raw,2120590,1807070000000,,,-1330742678359878120,0.18113374710083008,26.783824068843387,-3.4153087986625676,9.90687440006675,5,20,0.0,15,184485356535821,24,25.6,417.7157897949219,0.4058000147342682,0,0.0,0.0,,,,,0,,1,0.0,
Raw,2120590,1807070000000,,,-1330742678359878120,0.18113374710083008,26.783824068843387,-3.4153087986625676,9.90687440006675,5,25,0.0,15,184485359802906,80,16.1,412.90875244140625,1.0749999284744263,0,0.0,0.0,,,,,0,,1,0.0,
Raw,2120590,1807070000000,,,-1330742678359878120,0.18113374710083008,26.783824068843387,-3.4153087986625676,9.90687440006675,5,26,0.0,15,184485349673069,19,27.1,-540.3843383789062,0.05480000376701355,0,0.0,0.0,,,,,0,,1,0.0,
Raw,2120590,1807070000000,,,-1330742678359878120,0.18113374710083008,26.783824068843387,-3.4153087986625676,9.90687440006675,5,29,0.0,15,184485360758414,5,40.0,-187.03347778320312,0.01940000057220459,0,0.0,0.0,,,,,0,,1,0.0,
Raw,2120590,1807070000000,,,-1330742678359878120,0.18113374710083008,26.783824068843387,-3.4153087986625676,9.90687440006675,5,31,0.0,15,184485347001904,14,30.1,308.2887268066406,0.03629999980330467,0,0.0,0.0,,,,,0,,1,0.0,
Fix,gps,37.427225,-122.170389,-5.934418,0.000000,3.216000,1646709268000
NMEA,$GPGSV,3,1,12,02,23,056,29,05,59,082,38,12,27,163,17,18,38,258,36,1*6A
,1646709268001
NMEA,$GPGSV,3,2,12,20,39,052,26,25,56,202,16,26,14,317,27,29,65,343,40,1*67
,1646709268002
NMEA,$GPGSV,3,3,12,31,11,277,30,13,02,115,,15,07,147,,23,07,201,,1*65
,1646709268002
NMEA,$GLGSV,3,1,10,78,39,291,40,86,07,071,15,79,07,334,16,65,21,146,13,1*70
,1646709268003
NMEA,$GLGSV,3,2,10,88,41,306,27,87,49,018,35,71,19,037,36,72,36,091,40,1*73
,1646709268004
NMEA,$GLGSV,3,3,10,77,32,217,,81,01,274,,1*75
,1646709268006
NMEA,$GAGSV,1,1,0,7*43
,1646709268007
NMEA,$PQGSV,1,1,0,0*43
,1646709268008
NMEA,$GBGSV,1,1,0,0*47
,1646709268008
NMEA,$GNGSA,A,3,02,05,18,20,25,26,29,31,,,,,1.2,0.9,0.8,1*35
,1646709268014
NMEA,$GNGSA,A,3,71,72,78,79,87,88,,,,,,,1.2,0.9,0.8,2*3D
,1646709268014
NMEA,$GNVTG,,T,,M,0.0,N,0.0,K,A*3D
,1646709268014
NMEA,$GNGGA,031428.00,3725.633484,N,12210.223348,W,1,12,0.9,22.0,M,-27.9,M,,*76
,1646709268014
NMEA,$GNRMC,031428.00,A,3725.633484,N,12210.223348,W,0.0,,080322,15.0,E,A,V*5F
,1646709268015
NMEA,$AIDSTAT,0,0,0,2,10,23,3*00
,1646709268925
Raw,2121515,1808070000000,,,-1330742678359878122,0.9145350456237793,27.57971924438607,-3.1345280715893464,10.95585903500926,5,14,0.0,207,22468359969935,5,40.3,-20.770034790039062,0.21790000796318054,0,0.0,0.0,,,,,0,,3,0.0,
Raw,2121515,1808070000000,,,-1330742678359878122,0.9145350456237793,27.57971924438607,-3.1345280715893464,10.95585903500926,5,22,0.0,207,22468350027557,1078,14.5,490.01812744140625,21.746501922607422,0,0.0,0.0,,,,,0,,3,0.0,
Raw,2121515,1808070000000,,,-1330742678359878122,0.9145350456237793,27.57971924438607,-3.1345280715893464,10.95585903500926,5,15,0.0,207,22468350638264,40,21.1,-602.3826293945312,1.0614999532699585,0,0.0,0.0,,,,,0,,3,0.0,
Raw,2121515,1808070000000,,,-1330742678359878122,0.9145350456237793,27.57971924438607,-3.1345280715893464,10.95585903500926,5,1,0.0,207,22468355353027,204,12.4,-737.9376831054688,6.449000358581543,0,0.0,0.0,,,,,0,,3,0.0,
Raw,2121516,1808070000000,,,-1330742678359878122,0.9145350456237793,27.57971924438607,-3.1345280715893464,10.95585903500926,5,24,0.0,207,22468360480944,35,22.3,-259.9557189941406,0.9864999651908875,0,0.0,0.0,,,,,0,,3,0.0,
Raw,2121516,1808070000000,,,-1330742678359878122,0.9145350456237793,27.57971924438607,-3.1345280715893464,10.95585903500926,5,23,0.0,207,22468362158227,8,36.2,146.88714599609375,0.22420001029968262,0,0.0,0.0,,,,,0,,3,0.0,
Raw,2121516,1808070000000,,,-1330742678359878122,0.9145350456237793,27.57971924438607,-3.1345280715893464,10.95585903500926,5,7,0.0,207,22468354232466,10,34.8,354.5975646972656,0.24310001730918884,0,0.0,0.0,,,,,0,,3,0.0,
Raw,2121516,1808070000000,,,-1330742678359878122,0.9145350456237793,27.57971924438607,-3.1345280715893464,10.95585903500926,5,8,0.0,207,22468359191750,5,40.5,-267.5672607421875,0.24790000915527344,0,0.0,0.0,,,,,0,,3,0.0,
Raw,2121516,1808070000000,,,-1330742678359878122,0.9145350456237793,27.57971924438607,-3.1345280715893464,10.95585903500926,5,2,0.0,15,184486349692284,14,30.2,460.0318908691406,0.03930000215768814,0,0.0,0.0,,,,,0,,1,0.0,
Raw,2121517,1808070000000,,,-1330742678359878122,0.9145350456237793,27.57971924438607,-3.1345280715893464,10.95585903500926,5,5,0.0,15,184486360761032,6,38.8,89.00989532470703,0.020100001245737076,0,0.0,0.0,,,,,0,,1,0.0,
Raw,2121517,1808070000000,,,-1330742678359878122,0.9145350456237793,27.57971924438607,-3.1345280715893464,10.95585903500926,5,12,0.0,15,184486352435379,775,16.0,693.7821655273438,4.2144999504089355,0,0.0,0.0,,,,,0,,1,0.0,
Raw,2121517,1808070000000,,,-1330742678359878122,0.9145350456237793,27.57971924438607,-3.1345280715893464,10.95585903500926,5,18,0.0,15,184486356377397,8,36.9,-393.4119873046875,0.04520000144839287,0,0.0,0.0,,,,,0,,1,0.0,
Raw,2121517,1808070000000,,,-1330742678359878122,0.9145350456237793,27.57971924438607,-3.1345280715893464,10.95585903500926,5,20,0.0,15,184486356534353,14,30.0,418.3898620605469,0.049800001084804535,0,0.0,0.0,,,,,0,,1,0.0,
Raw,2121518,1808070000000,,,-1330742678359878122,0.9145350456237793,27.57971924438607,-3.1345280715893464,10.95585903500926,5,25,0.0,15,184486359801699,61,18.6,410.7488708496094,0.9149999618530273,0,0.0,0.0,,,,,0,,1,0.0,
Raw,2121518,1808070000000,,,-1330742678359878122,0.9145350456237793,27.57971924438607,-3.1345280715893464,10.95585903500926,5,26,0.0,15,184486349674872,21,26.5,-539.8099975585938,0.12470000237226486,0,0.0,0.0,,,,,0,,1,0.0,
Raw,2121518,1808070000000,,,-1330742678359878122,0.9145350456237793,27.57971924438607,-3.1345280715893464,10.95585903500926,5,29,0.0,15,184486360759036,5,41.3,-186.3983917236328,0.019100001081824303,0,0.0,0.0,,,,,0,,1,0.0,
Raw,2121518,1808070000000,,,-1330742678359878122,0.9145350456237793,27.57971924438607,-3.1345280715893464,10.95585903500926,5,31,0.0,15,184486347000871,13,31.8,308.9277648925781,0.0357000008225441,0,0.0,0.0,,,,,0,,1,0.0,
Fix,gps,37.427225,-122.170389,-6.000732,0.000000,3.216000,1646709269000
NMEA,$GPGSV,3,1,12,02,23,056,30,05,59,082,39,12,27,163,16,18,38,258,37,1*63
,1646709269009
NMEA,$GPGSV,3,2,12,20,39,052,30,25,56,202,19,26,14,317,27,29,65,343,41,1*6E
,1646709269010
NMEA,$GPGSV,3,3,12,31,11,277,32,13,02,115,,15,07,147,,23,07,201,,1*67
,1646709269010
NMEA,$GLGSV,3,1,10,78,39,291,40,86,07,071,15,79,07,334,21,65,21,146,12,1*75
,1646709269010
NMEA,$GLGSV,3,2,10,88,41,306,22,87,49,018,36,71,19,037,35,72,36,091,41,1*77
,1646709269010
NMEA,$GLGSV,3,3,10,77,32,217,,81,01,274,,1*75
,1646709269010
NMEA,$GAGSV,1,1,0,7*43
,1646709269010
NMEA,$PQGSV,1,1,0,0*43
,1646709269010
NMEA,$GBGSV,1,1,0,0*47
,1646709269010
NMEA,$GNGSA,A,3,02,05,18,20,26,29,31,,,,,,1.4,1.1,0.8,1*3D
,1646709269013
NMEA,$GNGSA,A,3,71,72,78,79,87,88,,,,,,,1.4,1.1,0.8,2*32
,1646709269013
NMEA,$GNVTG,,T,,M,0.0,N,0.0,K,A*3D
,1646709269013
NMEA,$GNGGA,031429.00,3725.633500,N,12210.223349,W,1,12,1.1,21.9,M,-27.9,M,,*78
,1646709269013
NMEA,$GNRMC,031429.00,A,3725.633500,N,12210.223349,W,0.0,,080322,15.0,E,A,V*52
,1646709269014
NMEA,$AIDSTAT,0,0,0,2,8,23,3*00
,1646709269927
Raw,2122580,1809070000000,,,-1330742678359878123,0.9683113098144531,26.932477339869365,-1.168761571420632,9.725270900972053,5,14,0.0,207,22469359970013,5,40.8,-20.971393585205078,0.21790000796318054,0,0.0,0.0,,,,,0,,3,0.0,
Raw,2122580,1809070000000,,,-1330742678359878123,0.9683113098144531,26.932477339869365,-1.168761571420632,9.725270900972053,5,22,0.0,207,22469350025922,1222,14.5,490.01812744140625,23.246501922607422,0,0.0,0.0,,,,,0,,3,0.0,
Raw,2122580,1809070000000,,,-1330742678359878123,0.9683113098144531,26.932477339869365,-1.168761571420632,9.725270900972053,5,15,0.0,207,22469350640376,40,21.8,-603.3557739257812,1.0614999532699585,0,0.0,0.0,,,,,0,,3,0.0,
Raw,2122580,1809070000000,,,-1330742678359878123,0.9683113098144531,26.932477339869365,-1.168761571420632,9.725270900972053,5,1,0.0,207,22469355355488,246,12.4,-737.9376831054688,7.949000358581543,0,0.0,0.0,,,,,0,,3,0.0,
Raw,2122581,1809070000000,,,-1330742678359878123,0.9683113098144531,26.932477339869365,-1.168761571420632,9.725270900972053,5,24,0.0,207,22469360481884,46,20.5,-260.5821838378906,1.1165000200271606,0,0.0,0.0,,,,,0,,3,0.0,
Raw,2122581,1809070000000,,,-1330742678359878123,0.9683113098144531,26.932477339869365,-1.168761571420632,9.725270900972053,5,23,0.0,207,22469362157699,8,36.8,146.5666961669922,0.22420001029968262,0,0.0,0.0,,,,,0,,3,0.0,
Raw,2122581,1809070000000,,,-1330742678359878123,0.9683113098144531,26.932477339869365,-1.168761571420632,9.725270900972053,5,7,0.0,207,22469354231251,10,34.5,354.3491516113281,0.24310001730918884,0,0.0,0.0,,,,,0,,3,0.0,
Raw,2122581,1809070000000,,,-1330742678359878123,0.9683113098144531,26.932477339869365,-1.168761571420632,9.725270900972053,5,8,0.0,207,22469359192640,5,41.2,-267.7968444824219,0.2476000040769577,0,0.0,0.0,,,,,0,,3,0.0,
Raw,2122581,1809070000000,,,-1330742678359878123,0.9683113098144531,26.932477339869365,-1.168761571420632,9.725270900972053,5,2,0.0,15,184487349690777,14,30.5,459.6370849609375,0.03930000215768814,0,0.0,0.0,,,,,0,,1,0.0,
Raw,2122581,1809070000000,,,-1330742678359878123,0.9683113098144531,26.932477339869365,-1.168761571420632,9.725270900972053,5,5,0.0,15,184487360760732,6,39.2,88.76583099365234,0.019600000232458115,0,0.0,0.0,,,,,0,,1,0.0,
Raw,2122581,1809070000000,,,-1330742678359878123,0.9683113098144531,26.932477339869365,-1.168761571420632,9.725270900972053,5,18,0.0,15,184487356378716,8,36.9,-393.7355041503906,0.04520000144839287,0,0.0,0.0,,,,,0,,1,0.0,
Raw,2122581,1809070000000,,,-1330742678359878123,0.9683113098144531,26.932477339869365,-1.168761571420632,9.725270900972053,5,20,0.0,15,184487356532956,14,30.9,418.0616760253906,0.049800001084804535,0,0.0,0.0,,,,,0,,1,0.0,
Raw,2122581,1809070000000,,,-1330742678359878123,0.9683113098144531,26.932477339869365,-1.168761571420632,9.725270900972053,5,25,0.0,15,184487359800254,80,16.7,411.6337890625,1.0749999284744263,0,0.0,0.0,,,,,0,,1,0.0,
Raw,2122581,1809070000000,,,-1330742678359878123,0.9683113098144531,26.932477339869365,-1.168761571420632,9.725270900972053,5,26,0.0,15,184487349676698,21,26.7,-540.0798950195312,0.12470000237226486,0,0.0,0.0,,,,,0,,1,0.0,
Raw,2122581,1809070000000,,,-1330742678359878123,0.9683113098144531,26.932477339869365,-1.168761571420632,9.725270900972053,5,29,0.0,15,184487360759651,5,41.7,-186.7222137451172,0.019100001081824303,0,0.0,0.0,,,,,0,,1,0.0,
Raw,2122581,1809070000000,,,-1330742678359878123,0.9683113098144531,26.932477339869365,-1.168761571420632,9.725270900972053,5,31,0.0,15,184487346999845,11,33.2,308.62249755859375,0.03189999982714653,0,0.0,0.0,,,,,0,,1,0.0,
Fix,gps,37.427225,-122.170389,-6.038055,0.000000,3.216000,1646709270000
NMEA,$GPGSV,3,1,12,02,23,056,31,05,59,082,39,18,38,258,37,20,39,052,31,1*6A
,1646709270000
NMEA,$GPGSV,3,2,12,25,56,202,17,26,14,317,27,29,65,343,42,31,11,277,33,1*6F
,1646709270001
NMEA,$GPGSV,3,3,12,12,27,163,,13,02,115,,15,07,147,,23,07,201,,1*64
,1646709270001
NMEA,$GLGSV,3,1,10,78,39,291,41,86,07,071,15,79,07,334,22,65,21,146,12,1*77
,1646709270001
NMEA,$GLGSV,3,2,10,88,41,306,21,87,49,018,37,71,19,037,35,72,36,091,41,1*75
,1646709270001
NMEA,$GLGSV,3,3,10,77,32,217,,81,01,274,,1*75
,1646709270001
NMEA,$GAGSV,1,1,0,7*43
,1646709270002
NMEA,$PQGSV,1,1,0,0*43
,1646709270002
NMEA,$GBGSV,1,1,0,0*47
,1646709270004
NMEA,$GNGSA,A,3,02,05,18,20,26,29,31,,,,,,1.4,1.1,0.8,1*3D
,1646709270008
NMEA,$GNGSA,A,3,71,72,78,79,87,88,,,,,,,1.4,1.1,0.8,2*32
,1646709270008
NMEA,$GNVTG,,T,,M,0.0,N,0.0,K,A*3D
,1646709270008
NMEA,$GNGGA,031430.00,3725.633502,N,12210.223357,W,1,12,1.1,21.9,M,-27.9,M,,*7D
,1646709270009
NMEA,$GNRMC,031430.00,A,3725.633502,N,12210.223357,W,0.0,,080322,15.0,E,A,V*57
,1646709270009
NMEA,$AIDSTAT,0,0,0,2,,23,3*00
,1646709270926
NMEA,$GPGSV,3,1,12,02,23,056,29,05,59,082,39,18,38,258,37,20,39,052,28,1*6B
,1646709271000
NMEA,$GPGSV,3,2,12,25,56,202,18,26,14,317,27,29,65,343,41,31,11,277,33,1*63
,1646709271001
NMEA,$GPGSV,3,3,12,12,27,163,,13,02,115,,15,07,147,,23,07,201,,1*64
,1646709271003
NMEA,$GLGSV,3,1,10,78,39,291,40,86,07,071,15,79,07,334,21,65,21,146,17,1*70
,1646709271005
NMEA,$GLGSV,3,2,10,88,41,306,22,87,49,018,36,71,19,037,35,72,36,091,41,1*77
,1646709271009
Raw,2123538,1810070000000,,,-1330742678359878126,0.9657273292541504,28.93527562264353,-2.4496604325758575,9.725196144767095,5,14,0.0,207,22470359970105,5,40.3,-20.604101181030273,0.21790000796318054,0,0.0,0.0,,,,,0,,3,0.0,
Raw,2123538,1810070000000,,,-1330742678359878126,0.9657273292541504,28.93527562264353,-2.4496604325758575,9.725196144767095,5,22,0.0,207,22470350024288,1377,14.5,490.01812744140625,24.746501922607422,0,0.0,0.0,,,,,0,,3,0.0,
Raw,2123538,1810070000000,,,-1330742678359878126,0.9657273292541504,28.93527562264353,-2.4496604325758575,9.725196144767095,5,15,0.0,207,22470350642394,40,21.0,-602.4013061523438,1.0614999532699585,0,0.0,0.0,,,,,0,,3,0.0,
Raw,2123538,1810070000000,,,-1330742678359878126,0.9657273292541504,28.93527562264353,-2.4496604325758575,9.725196144767095,5,1,0.0,207,22470355358103,84,16.8,-739.1256103515625,2.2290000915527344,0,0.0,0.0,,,,,0,,3,0.0,
Raw,2123538,1810070000000,,,-1330742678359878126,0.9657273292541504,28.93527562264353,-2.4496604325758575,9.725196144767095,5,24,0.0,207,22470360482708,40,21.6,-260.3858337402344,1.0464999675750732,0,0.0,0.0,,,,,0,,3,0.0,
Raw,2123538,1810070000000,,,-1330742678359878126,0.9657273292541504,28.93527562264353,-2.4496604325758575,9.725196144767095,5,23,0.0,207,22470362157214,9,35.7,146.79837036132812,0.22460000216960907,0,0.0,0.0,,,,,0,,3,0.0,
Raw,2123538,1810070000000,,,-1330742678359878126,0.9657273292541504,28.93527562264353,-2.4496604325758575,9.725196144767095,5,7,0.0,207,22470354230106,10,34.9,354.6664733886719,0.24310001730918884,0,0.0,0.0,,,,,0,,3,0.0,
Raw,2123539,1810070000000,,,-1330742678359878126,0.9657273292541504,28.93527562264353,-2.4496604325758575,9.725196144767095,5,8,0.0,207,22470359193537,5,40.5,-267.44073486328125,0.24790000915527344,0,0.0,0.0,,,,,0,,3,0.0,
Raw,2123539,1810070000000,,,-1330742678359878126,0.9657273292541504,28.93527562264353,-2.4496604325758575,9.725196144767095,5,2,0.0,15,184488349689243,16,29.0,459.8296813964844,0.04020000249147415,0,0.0,0.0,,,,,0,,1,0.0,
Raw,2123539,1810070000000,,,-1330742678359878126,0.9657273292541504,28.93527562264353,-2.4496604325758575,9.725196144767095,5,5,0.0,15,184488360760440,6,38.7,89.09446716308594,0.020100001245737076,0,0.0,0.0,,,,,0,,1,0.0,
Raw,2123539,1810070000000,,,-1330742678359878126,0.9657273292541504,28.93527562264353,-2.4496604325758575,9.725196144767095,5,18,0.0,15,184488356380033,8,36.8,-393.51983642578125,0.04520000144839287,0,0.0,0.0,,,,,0,,1,0.0,
Raw,2123539,1810070000000,,,-1330742678359878126,0.9657273292541504,28.93527562264353,-2.4496604325758575,9.725196144767095,5,20,0.0,15,184488356531585,17,28.1,418.40283203125,0.05730000138282776,0,0.0,0.0,,,,,0,,1,0.0,
Raw,2123539,1810070000000,,,-1330742678359878126,0.9657273292541504,28.93527562264353,-2.4496604325758575,9.725196144767095,5,25,0.0,15,184488359798885,61,18.0,412.2236633300781,0.9149999618530273,0,0.0,0.0,,,,,0,,1,0.0,
Raw,2123539,1810070000000,,,-1330742678359878126,0.9657273292541504,28.93527562264353,-2.4496604325758575,9.725196144767095,5,26,0.0,15,184488349678450,21,26.9,-539.8728637695312,0.12470000237226486,0,0.0,0.0,,,,,0,,1,0.0,
Raw,2123539,1810070000000,,,-1330742678359878126,0.9657273292541504,28.93527562264353,-2.4496604325758575,9.725196144767095,5,29,0.0,15,184488360760280,5,41.1,-186.46266174316406,0.019100001081824303,0,0.0,0.0,,,,,0,,1,0.0,
Raw,2123539,1810070000000,,,-1330742678359878126,0.9657273292541504,28.93527562264353,-2.4496604325758575,9.725196144767095,5,31,0.0,15,184488346998819,12,32.8,308.8783874511719,0.03290000185370445,0,0.0,0.0,,,,,0,,1,0.0,
NMEA,$GLGSV,3,3,10,77,32,217,,81,01,274,,1*75
,1646709271009
NMEA,$GAGSV,1,1,0,7*43
,1646709271010
NMEA,$PQGSV,1,1,0,0*43
,1646709271010
NMEA,$GBGSV,1,1,0,0*47
,1646709271010
Fix,gps,37.427225,-122.170389,-6.062012,0.000000,3.216000,1646709271000
NMEA,$GNGSA,A,3,02,05,18,20,26,29,31,,,,,,1.4,1.1,0.8,1*3D
,1646709271020
NMEA,$GNGSA,A,3,71,72,78,79,87,88,,,,,,,1.4,1.1,0.8,2*32
,1646709271020
NMEA,$GNVTG,,T,,M,0.0,N,0.0,K,A*3D
,1646709271020
NMEA,$GNGGA,031431.00,3725.633502,N,12210.223367,W,1,12,1.1,21.9,M,-27.9,M,,*7F
,1646709271020
NMEA,$GNRMC,031431.00,A,3725.633502,N,12210.223367,W,0.0,,080322,15.0,E,A,V*55
,1646709271020
NMEA,$AIDSTAT,0,0,0,2,8,23,3*00
,1646709271925
Raw,2124581,1811070000000,,,-1330742678359878132,0.19314956665039062,32.22676241421141,-1.8622216011514954,9.972669403776385,5,14,0.0,207,22471359970164,6,39.3,-20.251394271850586,0.21809999644756317,0,0.0,0.0,,,,,0,,3,0.0,
Raw,2124581,1811070000000,,,-1330742678359878132,0.19314956665039062,32.22676241421141,-1.8622216011514954,9.972669403776385,5,22,0.0,207,22471350022653,1541,14.5,490.01812744140625,26.246501922607422,0,0.0,0.0,,,,,0,,3,0.0,
Raw,2124581,1811070000000,,,-1330742678359878132,0.19314956665039062,32.22676241421141,-1.8622216011514954,9.972669403776385,5,15,0.0,207,22471350644363,81,16.2,-601.2691650390625,1.471500039100647,0,0.0,0.0,,,,,0,,3,0.0,
Raw,2124581,1811070000000,,,-1330742678359878132,0.19314956665039062,32.22676241421141,-1.8622216011514954,9.972669403776385,5,1,0.0,207,22471355360568,99,16.8,-739.1256103515625,3.7290000915527344,0,0.0,0.0,,,,,0,,3,0.0,
Raw,2124581,1811070000000,,,-1330742678359878132,0.19314956665039062,32.22676241421141,-1.8622216011514954,9.972669403776385,5,24,0.0,207,22471360483564,40,21.6,-259.97442626953125,1.0464999675750732,0,0.0,0.0,,,,,0,,3,0.0,
Raw,2124581,1811070000000,,,-1330742678359878132,0.19314956665039062,32.22676241421141,-1.8622216011514954,9.972669403776385,5,23,0.0,207,22471362156744,11,33.9,147.0468292236328,0.22590000927448273,0,0.0,0.0,,,,,0,,3,0.0,
Raw,2124581,1811070000000,,,-1330742678359878132,0.19314956665039062,32.22676241421141,-1.8622216011514954,9.972669403776385,5,7,0.0,207,22471354228883,10,34.6,355.00787353515625,0.24310001730918884,0,0.0,0.0,,,,,0,,3,0.0,
Raw,2124581,1811070000000,,,-1330742678359878132,0.19314956665039062,32.22676241421141,-1.8622216011514954,9.972669403776385,5,8,0.0,207,22471359194437,6,39.7,-267.1060791015625,0.24809999763965607,0,0.0,0.0,,,,,0,,3,0.0,
Raw,2124581,1811070000000,,,-1330742678359878132,0.19314956665039062,32.22676241421141,-1.8622216011514954,9.972669403776385,5,2,0.0,15,184489349687715,19,27.8,460.04180908203125,0.05480000376701355,0,0.0,0.0,,,,,0,,1,0.0,
Raw,2124581,1811070000000,,,-1330742678359878132,0.19314956665039062,32.22676241421141,-1.8622216011514954,9.972669403776385,5,5,0.0,15,184489360760140,7,37.9,89.41329956054688,0.020600000396370888,0,0.0,0.0,,,,,0,,1,0.0,
Raw,2124581,1811070000000,,,-1330742678359878132,0.19314956665039062,32.22676241421141,-1.8622216011514954,9.972669403776385,5,18,0.0,15,184489356381340,9,35.6,-393.2719421386719,0.04560000076889992,0,0.0,0.0,,,,,0,,1,0.0,
Raw,2124582,1811070000000,,,-1330742678359878132,0.19314956665039062,32.22676241421141,-1.8622216011514954,9.972669403776385,5,20,0.0,15,184489356530169,24,25.4,418.6460876464844,0.5504999756813049,0,0.0,0.0,,,,,0,,1,0.0,
Raw,2124582,1811070000000,,,-1330742678359878132,0.19314956665039062,32.22676241421141,-1.8622216011514954,9.972669403776385,5,25,0.0,15,184489359797501,53,19.4,412.7469787597656,0.8449999690055847,0,0.0,0.0,,,,,0,,1,0.0,
Raw,2124582,1811070000000,,,-1330742678359878132,0.19314956665039062,32.22676241421141,-1.8622216011514954,9.972669403776385,5,26,0.0,15,184489349680244,21,26.9,-539.6077880859375,0.12470000237226486,0,0.0,0.0,,,,,0,,1,0.0,
Raw,2124582,1811070000000,,,-1330742678359878132,0.19314956665039062,32.22676241421141,-1.8622216011514954,9.972669403776385,5,29,0.0,15,184489360760895,5,40.3,-186.20681762695312,0.01940000057220459,0,0.0,0.0,,,,,0,,1,0.0,
Raw,2124582,1811070000000,,,-1330742678359878132,0.19314956665039062,32.22676241421141,-1.8622216011514954,9.972669403776385,5,31,0.0,15,184489346997784,13,31.7,309.181396484375,0.03420000150799751,0,0.0,0.0,,,,,0,,1,0.0,
Fix,gps,37.427225,-122.170390,-6.071167,0.000000,3.216000,1646709272000
NMEA,$GPGSV,3,1,12,02,23,056,28,05,59,082,38,18,38,258,36,20,39,052,25,1*67
,1646709271998
NMEA,$GPGSV,3,2,12,25,56,202,19,26,14,317,27,29,65,343,40,31,11,277,32,1*62
,1646709271999
NMEA,$GPGSV,3,3,12,12,27,163,,13,02,115,,15,07,147,,23,07,201,,1*64
,1646709271999
NMEA,$GLGSV,3,1,10,78,39,291,39,86,07,071,15,79,07,334,16,65,21,146,17,1*7A
,1646709271999
NMEA,$GLGSV,3,2,10,88,41,306,22,87,49,018,34,71,19,037,35,72,36,091,40,1*74
,1646709271999
NMEA,$GLGSV,3,3,10,77,32,217,,81,01,274,,1*75
,1646709271999
NMEA,$GAGSV,1,1,0,7*43
,1646709272000
NMEA,$PQGSV,1,1,0,0*43
,1646709272000
NMEA,$GBGSV,1,1,0,0*47
,1646709272000
NMEA,$GNGSA,A,3,02,05,18,20,26,29,31,,,,,,1.4,1.1,0.8,1*3D
,1646709272008
NMEA,$GNGSA,A,3,71,72,78,79,87,88,,,,,,,1.4,1.1,0.8,2*32
,1646709272008
NMEA,$GNVTG,,T,,M,0.0,N,0.0,K,A*3D
,1646709272008
NMEA,$GNGGA,031432.00,3725.633496,N,12210.223374,W,1,12,1.1,21.9,M,-27.9,M,,*72
,1646709272009
NMEA,$GNRMC,031432.00,A,3725.633496,N,12210.223374,W,0.0,,080322,15.0,E,A,V*58
,1646709272009
NMEA,$AIDSTAT,0,0,0,2,6,23,3*00
,1646709272926
Raw,2125533,1812070000000,,,-1330742678359878131,0.564056396484375,33.88139884918928,-1.095224926464425,9.983315800752898,5,14,0.0,207,22472359970222,5,40.4,-19.963790893554688,0.21790000796318054,0,0.0,0.0,,,,,0,,3,0.0,
Raw,2125533,1812070000000,,,-1330742678359878131,0.564056396484375,33.88139884918928,-1.095224926464425,9.983315800752898,5,22,0.0,207,22472350021019,1716,14.5,490.01812744140625,27.746501922607422,0,0.0,0.0,,,,,0,,3,0.0,
Raw,2125534,1812070000000,,,-1330742678359878131,0.564056396484375,33.88139884918928,-1.095224926464425,9.983315800752898,5,15,0.0,207,22472350646228,27,24.0,-602.3077392578125,0.8814999461174011,0,0.0,0.0,,,,,0,,3,0.0,
Raw,2125534,1812070000000,,,-1330742678359878131,0.564056396484375,33.88139884918928,-1.095224926464425,9.983315800752898,5,1,0.0,207,22472355363077,84,16.2,-738.0780029296875,2.2290000915527344,0,0.0,0.0,,,,,0,,3,0.0,
Raw,2125534,1812070000000,,,-1330742678359878131,0.564056396484375,33.88139884918928,-1.095224926464425,9.983315800752898,5,24,0.0,207,22472360484478,40,21.1,-260.4232177734375,1.0464999675750732,0,0.0,0.0,,,,,0,,3,0.0,
Raw,2125534,1812070000000,,,-1330742678359878131,0.564056396484375,33.88139884918928,-1.095224926464425,9.983315800752898,5,23,0.0,207,22472362156302,10,34.0,147.20358276367188,0.22510001063346863,0,0.0,0.0,,,,,0,,3,0.0,
Raw,2125534,1812070000000,,,-1330742678359878131,0.564056396484375,33.88139884918928,-1.095224926464425,9.983315800752898,5,7,0.0,207,22472354227706,8,36.4,355.2802734375,0.24220001697540283,0,0.0,0.0,,,,,0,,3,0.0,
Raw,2125534,1812070000000,,,-1330742678359878131,0.564056396484375,33.88139884918928,-1.095224926464425,9.983315800752898,5,8,0.0,207,22472359195314,5,40.2,-266.82318115234375,0.24790000915527344,0,0.0,0.0,,,,,0,,3,0.0,
