# 
# Header Description:
# 
# Version: v2.0.0.1 Platform: 9 Manufacturer: samsung Model: SM-G960U
# 
# Raw,ElapsedRealtimeMillis,TimeNanos,LeapSecond,TimeUncertaintyNanos,FullBiasNanos,BiasNanos,BiasUncertaintyNanos,DriftNanosPerSecond,DriftUncertaintyNanosPerSecond,HardwareClockDiscontinuityCount,Svid,TimeOffsetNanos,State,ReceivedSvTimeNanos,ReceivedSvTimeUncertaintyNanos,Cn0DbHz,PseudorangeRateMetersPerSecond,PseudorangeRateUncertaintyMetersPerSecond,AccumulatedDeltaRangeState,AccumulatedDeltaRangeMeters,AccumulatedDeltaRangeUncertaintyMeters,CarrierFrequencyHz,CarrierCycles,CarrierPhase,CarrierPhaseUncertainty,MultipathIndicator,SnrInDb,ConstellationType,AgcDb,CarrierFrequencyHz
# 
# Fix,Provider,Latitude,Longitude,Altitude,Speed,Accuracy,(UTC)TimeInMs
# 
# Nav,Svid,Type,Status,MessageId,Sub-messageId,Data(Bytes)
# 
NMEA,$AIDSTAT,0,0,0,2,,23,3*00
,1646709183926
Raw,2036511,1723070000000,,,-1330742678359877102,0.4147310256958008,27.903861337108538,-21.899017467963173,10.646044668015216,5,14,0.0,207,22383359961128,6,39.1,-40.14935302734375,0.21809999644756317,0,0.0,0.0,,,,,0,,3,0.0,
Raw,2036511,1723070000000,,,-1330742678359877102,0.4147310256958008,27.903861337108538,-21.899017467963173,10.646044668015216,5,22,0.0,207,22383350165763,56,19.7,485.0069580078125,1.9615000486373901,0,0.0,0.0,,,,,0,,3,0.0,
Raw,2036511,1723070000000,,,-1330742678359877102,0.4147310256958008,27.903861337108538,-21.899017467963173,10.646044668015216,5,13,0.0,207,22383358030279,728,17.0,656.65478515625,17.89350128173828,0,0.0,0.0,,,,,0,,3,0.0,
Raw,2036511,1723070000000,,,-1330742678359877102,0.4147310256958008,27.903861337108538,-21.899017467963173,10.646044668015216,5,15,0.0,207,22383350465427,17,28.5,-615.7891845703125,0.2483000010251999,0,0.0,0.0,,,,,0,,3,0.0,
Raw,2036511,1723070000000,,,-1330742678359877102,0.4147310256958008,27.903861337108538,-21.899017467963173,10.646044668015216,5,1,0.0,207,22383355142570,9,35.9,-746.9755249023438,0.24410000443458557,0,0.0,0.0,,,,,0,,3,0.0,
Raw,2036511,1723070000000,,,-1330742678359877102,0.4147310256958008,27.903861337108538,-21.899017467963173,10.646044668015216,5,24,0.0,207,22383360406118,6,38.4,-268.14691162109375,0.22010000050067902,0,0.0,0.0,,,,,0,,3,0.0,
Raw,2036511,1723070000000,,,-1330742678359877102,0.4147310256958008,27.903861337108538,-21.899017467963173,10.646044668015216,5,23,0.0,207,22383362198612,6,39.5,138.6526336669922,0.22259999811649323,0,0.0,0.0,,,,,0,,3,0.0,
Raw,2036511,1723070000000,,,-1330742678359877102,0.4147310256958008,27.903861337108538,-21.899017467963173,10.646044668015216,5,7,0.0,207,22383354330338,17,28.9,337.1864013671875,0.25429999828338623,0,0.0,0.0,,,,,0,,3,0.0,
Raw,2036511,1723070000000,,,-1330742678359877102,0.4147310256958008,27.903861337108538,-21.899017467963173,10.646044668015216,5,8,0.0,207,22383359113204,8,36.4,-285.3610534667969,0.24970000982284546,0,0.0,0.0,,,,,0,,3,0.0,
Raw,2036511,1723070000000,,,-1330742678359877102,0.4147310256958008,27.903861337108538,-21.899017467963173,10.646044668015216,5,2,0.0,15,184401349821835,10,34.1,455.0591125488281,0.035600002855062485,0,0.0,0.0,,,,,0,,1,0.0,
Raw,2036511,1723070000000,,,-1330742678359877102,0.4147310256958008,27.903861337108538,-21.899017467963173,10.646044668015216,5,5,0.0,15,184401360783774,5,41.0,72.67250061035156,0.019100001081824303,0,0.0,0.0,,,,,0,,1,0.0,
Raw,2036511,1723070000000,,,-1330742678359877102,0.4147310256958008,27.903861337108538,-21.899017467963173,10.646044668015216,5,12,0.0,15,184401352631191,27,24.5,685.9039916992188,0.5945000052452087,0,0.0,0.0,,,,,0,,1,0.0,
Raw,2036512,1723070000000,,,-1330742678359877102,0.4147310256958008,27.903861337108538,-21.899017467963173,10.646044668015216,5,18,0.0,15,184401356264250,6,39.0,-403.2502136230469,0.04360000044107437,0,0.0,0.0,,,,,0,,1,0.0,
Raw,2036512,1723070000000,,,-1330742678359877102,0.4147310256958008,27.903861337108538,-21.899017467963173,10.646044668015216,5,20,0.0,15,184401356651000,7,37.3,405.79034423828125,0.044600002467632294,0,0.0,0.0,,,,,0,,1,0.0,
Raw,2036512,1723070000000,,,-1330742678359877102,0.4147310256958008,27.903861337108538,-21.899017467963173,10.646044668015216,5,25,0.0,15,184401359916690,13,31.9,398.80120849609375,0.02370000071823597,0,0.0,0.0,,,,,0,,1,0.0,
Raw,2036512,1723070000000,,,-1330742678359877102,0.4147310256958008,27.903861337108538,-21.899017467963173,10.646044668015216,5,26,0.0,15,184401349520114,17,28.6,-550.552490234375,0.046800002455711365,0,0.0,0.0,,,,,0,,1,0.0,
Raw,2036512,1723070000000,,,-1330742678359877102,0.4147310256958008,27.903861337108538,-21.899017467963173,10.646044668015216,5,29,0.0,15,184401360704572,10,34.2,-196.34190368652344,0.022099999710917473,0,0.0,0.0,,,,,0,,1,0.0,
Raw,2036512,1723070000000,,,-1330742678359877102,0.4147310256958008,27.903861337108538,-21.899017467963173,10.646044668015216,5,31,0.0,15,184401347086718,24,25.0,297.4861145019531,0.5370000004768372,0,0.0,0.0,,,,,0,,1,0.0,
Fix,gps,37.427263,-122.170370,-6.941681,0.000000,3.216000,1646709184000
NMEA,$GPGSV,3,1,12,02,24,056,34,05,59,084,41,12,28,163,25,18,37,257,39,1*68
,1646709183997
NMEA,$GPGSV,3,2,12,20,39,052,37,25,57,203,32,26,14,317,29,29,64,341,34,1*6F
,1646709183997
NMEA,$GPGSV,3,3,12,31,11,278,25,13,01,115,,15,06,147,,23,07,201,,1*6C
,1646709183997
NMEA,$GLGSV,3,1,10,78,39,291,39,86,07,071,20,77,32,217,17,79,07,334,29,1*76
,1646709183997
NMEA,$GLGSV,3,2,10,65,21,146,36,88,40,306,38,87,49,016,40,71,19,037,29,1*74
,1646709183997
NMEA,$GLGSV,3,3,10,72,36,091,36,81,00,000,,1*7D
,1646709183997
NMEA,$GAGSV,1,1,0,7*43
,1646709183997
NMEA,$PQGSV,1,1,0,0*43
,1646709183997
NMEA,$GBGSV,1,1,0,0*47
,1646709183997
NMEA,$GNGSA,A,3,02,05,12,18,20,25,26,29,31,,,,1.0,0.7,0.7,1*35
,1646709183999
NMEA,$GNGSA,A,3,65,71,72,78,86,87,88,,,,,,1.0,0.7,0.7,2*3D
,1646709184000
NMEA,$GNVTG,,T,,M,0.0,N,0.0,K,A*3D
,1646709184000
NMEA,$GNGGA,031304.00,3725.635791,N,12210.222172,W,1,12,0.7,21.0,M,-27.9,M,,*79
,1646709184000
NMEA,$GNRMC,031304.00,A,3725.635791,N,12210.222172,W,0.0,,080322,15.0,E,A,V*5D
,1646709184000
NMEA,$AIDSTAT,0,0,0,2,37,23,3*00
,1646709184927
Raw,2037542,1724070000000,,,-1330742678359877117,0.9755058288574219,28.386240956024267,-18.58175540849881,9.883536944380205,5,14,0.0,207,22384359961261,5,40.5,-40.08946228027344,0.21790000796318054,0,0.0,0.0,,,,,0,,3,0.0,
Raw,2037542,1724070000000,,,-1330742678359877117,0.9755058288574219,28.386240956024267,-18.58175540849881,9.883536944380205,5,22,0.0,207,22384350164120,40,21.4,485.6064147949219,1.0614999532699585,0,0.0,0.0,,,,,0,,3,0.0,
Raw,2037542,1724070000000,,,-1330742678359877117,0.9755058288574219,28.386240956024267,-18.58175540849881,9.883536944380205,5,13,0.0,207,22384358028089,848,17.0,656.65478515625,19.39350128173828,0,0.0,0.0,,,,,0,,3,0.0,
Raw,2037542,1724070000000,,,-1330742678359877117,0.9755058288574219,28.386240956024267,-18.58175540849881,9.883536944380205,5,15,0.0,207,22384350467434,13,31.0,-615.809326171875,0.2401999980211258,0,0.0,0.0,,,,,0,,3,0.0,
Raw,2037542,1724070000000,,,-1330742678359877117,0.9755058288574219,28.386240956024267,-18.58175540849881,9.883536944380205,5,1,0.0,207,22384355145085,9,35.6,-746.9607543945312,0.24410000443458557,0,0.0,0.0,,,,,0,,3,0.0,
Raw,2037542,1724070000000,,,-1330742678359877117,0.9755058288574219,28.386240956024267,-18.58175540849881,9.883536944380205,5,24,0.0,207,22384360406993,8,36.9,-268.21722412109375,0.22120000422000885,0,0.0,0.0,,,,,0,,3,0.0,
Raw,2037543,1724070000000,,,-1330742678359877117,0.9755058288574219,28.386240956024267,-18.58175540849881,9.883536944380205,5,23,0.0,207,22384362198142,5,40.1,138.5756378173828,0.2224000096321106,0,0.0,0.0,,,,,0,,3,0.0,
Raw,2037543,1724070000000,,,-1330742678359877117,0.9755058288574219,28.386240956024267,-18.58175540849881,9.883536944380205,5,7,0.0,207,22384354329180,16,29.3,337.3558349609375,0.24770000576972961,0,0.0,0.0,,,,,0,,3,0.0,
Raw,2037543,1724070000000,,,-1330742678359877117,0.9755058288574219,28.386240956024267,-18.58175540849881,9.883536944380205,5,8,0.0,207,22384359114150,7,37.7,-285.2856140136719,0.249099999666214,0,0.0,0.0,,,,,0,,3,0.0,
Raw,2037543,1724070000000,,,-1330742678359877117,0.9755058288574219,28.386240956024267,-18.58175540849881,9.883536944380205,5,2,0.0,15,184402349820299,11,33.9,454.9723205566406,0.036400001496076584,0,0.0,0.0,,,,,0,,1,0.0,
Raw,2037544,1724070000000,,,-1330742678359877117,0.9755058288574219,28.386240956024267,-18.58175540849881,9.883536944380205,5,5,0.0,15,184402360783525,5,41.3,72.68728637695312,0.019100001081824303,0,0.0,0.0,,,,,0,,1,0.0,
Raw,2037544,1724070000000,,,-1330742678359877117,0.9755058288574219,28.386240956024267,-18.58175540849881,9.883536944380205,5,12,0.0,15,184402352628916,27,24.5,685.9230346679688,0.5945000052452087,0,0.0,0.0,,,,,0,,1,0.0,
Raw,2037544,1724070000000,,,-1330742678359877117,0.9755058288574219,28.386240956024267,-18.58175540849881,9.883536944380205,5,18,0.0,15,184402356265602,6,38.1,-403.2694091796875,0.04410000145435333,0,0.0,0.0,,,,,0,,1,0.0,
Raw,2037544,1724070000000,,,-1330742678359877117,0.9755058288574219,28.386240956024267,-18.58175540849881,9.883536944380205,5,20,0.0,15,184402356649643,9,35.9,405.8097839355469,0.04560000076889992,0,0.0,0.0,,,,,0,,1,0.0,
Raw,2037544,1724070000000,,,-1330742678359877117,0.9755058288574219,28.386240956024267,-18.58175540849881,9.883536944380205,5,25,0.0,15,184402359915368,14,30.6,398.8304443359375,0.024300001561641693,0,0.0,0.0,,,,,0,,1,0.0,
Raw,2037544,1724070000000,,,-1330742678359877117,0.9755058288574219,28.386240956024267,-18.58175540849881,9.883536944380205,5,26,0.0,15,184402349522031,19,27.0,-550.6253662109375,0.05480000376701355,0,0.0,0.0,,,,,0,,1,0.0,
Raw,2037544,1724070000000,,,-1330742678359877117,0.9755058288574219,28.386240956024267,-18.58175540849881,9.883536944380205,5,29,0.0,15,184402360705239,11,33.6,-196.4047393798828,0.02290000021457672,0,0.0,0.0,,,,,0,,1,0.0,
Raw,2037545,1724070000000,,,-1330742678359877117,0.9755058288574219,28.386240956024267,-18.58175540849881,9.883536944380205,5,31,0.0,15,184402347085765,35,22.1,297.26727294921875,0.6769999861717224,0,0.0,0.0,,,,,0,,1,0.0,
Fix,gps,37.427260,-122.170370,-7.164703,0.000000,3.216000,1646709185000
NMEA,$GPGSV,3,1,12,02,24,056,34,05,59,084,41,12,28,163,25,18,37,257,38,1*69
,1646709185001
NMEA,$GPGSV,3,2,12,20,39,052,36,25,57,203,31,26,14,317,27,29,64,341,34,1*63
,1646709185001
NMEA,$GPGSV,3,3,12,31,11,278,22,13,01,115,,15,06,147,,23,07,201,,1*6B
,1646709185002
NMEA,$GLGSV,3,1,10,78,39,291,41,86,07,071,21,77,32,217,17,79,07,334,31,1*71
,1646709185002
NMEA,$GLGSV,3,2,10,65,21,146,36,88,40,306,37,87,49,016,40,71,19,037,29,1*7B
,1646709185002
NMEA,$GLGSV,3,3,10,72,36,091,38,81,00,000,,1*73
,1646709185002
NMEA,$GAGSV,1,1,0,7*43
,1646709185002
NMEA,$PQGSV,1,1,0,0*43
,1646709185003
NMEA,$GBGSV,1,1,0,0*47
,1646709185003
NMEA,$GNGSA,A,3,02,05,12,18,20,25,26,29,31,,,,1.0,0.7,0.7,1*35
,1646709185015
NMEA,$GNGSA,A,3,65,71,72,78,86,87,88,,,,,,1.0,0.7,0.7,2*3D
,1646709185016
NMEA,$GNVTG,,T,,M,0.0,N,0.0,K,A*3D
,1646709185016
NMEA,$GNGGA,031305.00,3725.635622,N,12210.222223,W,1,12,0.7,20.8,M,-27.9,M,,*7F
,1646709185016
NMEA,$GNRMC,031305.00,A,3725.635622,N,12210.222223,W,0.0,,080322,15.0,E,A,V*52
,1646709185017
NMEA,$AIDSTAT,0,0,0,2,33,23,3*00
,1646709185928
Raw,2038526,1725070000000,,,-1330742678359877132,0.15792322158813477,29.0724856313318,-18.652535219577445,10.864430605786293,5,14,0.0,207,22385359961408,6,38.8,-40.25382995605469,0.21860000491142273,0,0.0,0.0,,,,,0,,3,0.0,
Raw,2038526,1725070000000,,,-1330742678359877132,0.15792322158813477,29.0724856313318,-18.652535219577445,10.864430605786293,5,22,0.0,207,22385350162500,49,21.4,485.6064147949219,2.561500072479248,0,0.0,0.0,,,,,0,,3,0.0,
Raw,2038527,1725070000000,,,-1330742678359877132,0.15792322158813477,29.0724856313318,-18.652535219577445,10.864430605786293,5,13,0.0,207,22385358025898,978,17.0,656.65478515625,20.89350128173828,0,0.0,0.0,,,,,0,,3,0.0,
Raw,2038527,1725070000000,,,-1330742678359877132,0.15792322158813477,29.0724856313318,-18.652535219577445,10.864430605786293,5,15,0.0,207,22385350469463,12,32.6,-616.0740966796875,0.23890000581741333,0,0.0,0.0,,,,,0,,3,0.0,
Raw,2038527,1725070000000,,,-1330742678359877132,0.15792322158813477,29.0724856313318,-18.652535219577445,10.864430605786293,5,1,0.0,207,22385355147577,10,34.2,-747.2459106445312,0.24460001289844513,0,0.0,0.0,,,,,0,,3,0.0,
Raw,2038527,1725070000000,,,-1330742678359877132,0.15792322158813477,29.0724856313318,-18.652535219577445,10.864430605786293,5,24,0.0,207,22385360407846,9,35.2,-268.51275634765625,0.2215999960899353,0,0.0,0.0,,,,,0,,3,0.0,
Raw,2038527,1725070000000,,,-1330742678359877132,0.15792322158813477,29.0724856313318,-18.652535219577445,10.864430605786293,5,23,0.0,207,22385362197660,11,33.8,138.3151397705078,0.22590000927448273,0,0.0,0.0,,,,,0,,3,0.0,
Raw,2038527,1725070000000,,,-1330742678359877132,0.15792322158813477,29.0724856313318,-18.652535219577445,10.864430605786293,5,7,0.0,207,22385354328096,16,29.5,337.1258850097656,0.24770000576972961,0,0.0,0.0,,,,,0,,3,0.0,
Raw,2038528,1725070000000,,,-1330742678359877132,0.15792322158813477,29.0724856313318,-18.652535219577445,10.864430605786293,5,8,0.0,207,22385359115079,7,37.7,-285.5250549316406,0.249099999666214,0,0.0,0.0,,,,,0,,3,0.0,
Raw,2038528,1725070000000,,,-1330742678359877132,0.15792322158813477,29.0724856313318,-18.652535219577445,10.864430605786293,5,2,0.0,15,184403349818791,12,32.0,454.5947570800781,0.03739999979734421,0,0.0,0.0,,,,,0,,1,0.0,
Raw,2038528,1725070000000,,,-1330742678359877132,0.15792322158813477,29.0724856313318,-18.652535219577445,10.864430605786293,5,5,0.0,15,184403360783295,5,40.1,72.50912475585938,0.01940000057220459,0,0.0,0.0,,,,,0,,1,0.0,
Raw,2038528,1725070000000,,,-1330742678359877132,0.15792322158813477,29.0724856313318,-18.652535219577445,10.864430605786293,5,12,0.0,15,184403352626518,40,21.8,685.6851806640625,0.7444999814033508,0,0.0,0.0,,,,,0,,1,0.0,
Raw,2038528,1725070000000,,,-1330742678359877132,0.15792322158813477,29.0724856313318,-18.652535219577445,10.864430605786293,5,18,0.0,15,184403356266945,9,35.4,-403.5517272949219,0.04560000076889992,0,0.0,0.0,,,,,0,,1,0.0,
Raw,2038529,1725070000000,,,-1330742678359877132,0.15792322158813477,29.0724856313318,-18.652535219577445,10.864430605786293,5,20,0.0,15,184403356648341,19,27.6,405.4117431640625,0.06530000269412994,0,0.0,0.0,,,,,0,,1,0.0,
Raw,2038529,1725070000000,,,-1330742678359877132,0.15792322158813477,29.0724856313318,-18.652535219577445,10.864430605786293,5,25,0.0,15,184403359914022,14,30.0,398.5366516113281,0.024300001561641693,0,0.0,0.0,,,,,0,,1,0.0,
Raw,2038529,1725070000000,,,-1330742678359877132,0.15792322158813477,29.0724856313318,-18.652535219577445,10.864430605786293,5,26,0.0,15,184403349523807,27,24.0,-550.4054565429688,0.5900000333786011,0,0.0,0.0,,,,,0,,1,0.0,
Raw,2038529,1725070000000,,,-1330742678359877132,0.15792322158813477,29.0724856313318,-18.652535219577445,10.864430605786293,5,29,0.0,15,184403360705900,11,33.1,-196.64878845214844,0.02290000021457672,0,0.0,0.0,,,,,0,,1,0.0,
Raw,2038529,1725070000000,,,-1330742678359877132,0.15792322158813477,29.0724856313318,-18.652535219577445,10.864430605786293,5,31,0.0,15,184403347084619,19,27.2,297.520263671875,0.05180000141263008,0,0.0,0.0,,,,,0,,1,0.0,
Fix,gps,37.427258,-122.170371,-7.382996,0.000000,3.216000,1646709186000
NMEA,$GPGSV,3,1,12,02,24,056,32,05,59,084,40,12,28,163,22,18,37,257,35,1*64
,1646709185998
NMEA,$GPGSV,3,2,12,20,39,052,28,25,57,203,30,26,14,317,24,29,64,341,33,1*69
,1646709185998
NMEA,$GPGSV,3,3,12,31,11,278,27,13,01,115,,15,06,147,,23,07,201,,1*6E
,1646709185999
NMEA,$GLGSV,3,1,10,78,39,291,39,86,07,071,21,77,32,217,17,79,07,334,33,1*7C
,1646709185999
NMEA,$GLGSV,3,2,10,65,21,146,34,88,40,306,35,87,49,016,34,71,19,037,30,1*70
,1646709185999
NMEA,$GLGSV,3,3,10,72,36,091,38,81,00,000,,1*73
,1646709185999
NMEA,$GAGSV,1,1,0,7*43
,1646709185999
NMEA,$PQGSV,1,1,0,0*43
,1646709185999
NMEA,$GBGSV,1,1,0,0*47
,1646709185999
NMEA,$GNGSA,A,3,02,05,12,18,20,25,26,29,31,,,,1.0,0.7,0.7,1*35
,1646709186005
NMEA,$GNGSA,A,3,65,71,72,78,86,87,88,,,,,,1.0,0.7,0.7,2*3D
,1646709186006
NMEA,$GNVTG,,T,,M,0.0,N,0.0,K,A*3D
,1646709186006
NMEA,$GNGGA,031306.00,3725.635459,N,12210.222234,W,1,12,0.7,20.6,M,-27.9,M,,*7A
,1646709186006
NMEA,$GNRMC,031306.00,A,3725.635459,N,12210.222234,W,0.0,,080322,15.0,E,A,V*59
,1646709186006
NMEA,$AIDSTAT,0,0,0,2,36,23,3*00
,1646709186929
Raw,2039528,1726070000000,,,-1330742678359877154,0.2606668472290039,31.408635550178587,-20.08108176074117,10.861498412938575,5,14,0.0,207,22386359961554,6,39.9,-39.96472930908203,0.21809999644756317,0,0.0,0.0,,,,,0,,3,0.0,
Raw,2039528,1726070000000,,,-1330742678359877154,0.2606668472290039,31.408635550178587,-20.08108176074117,10.861498412938575,5,22,0.0,207,22386350160880,67,21.4,485.6064147949219,4.061500072479248,0,0.0,0.0,,,,,0,,3,0.0,
Raw,2039528,1726070000000,,,-1330742678359877154,0.2606668472290039,31.408635550178587,-20.08108176074117,10.861498412938575,5,13,0.0,207,22386358023708,1118,17.0,656.65478515625,22.39350128173828,0,0.0,0.0,,,,,0,,3,0.0,
Raw,2039528,1726070000000,,,-1330742678359877154,0.2606668472290039,31.408635550178587,-20.08108176074117,10.861498412938575,5,15,0.0,207,22386350471541,10,34.9,-615.8070068359375,0.2371000051498413,0,0.0,0.0,,,,,0,,3,0.0,
Raw,2039528,1726070000000,,,-1330742678359877154,0.2606668472290039,31.408635550178587,-20.08108176074117,10.861498412938575,5,1,0.0,207,22386355150069,8,36.0,-747.0752563476562,0.24370001256465912,0,0.0,0.0,,,,,0,,3,0.0,
Raw,2039528,1726070000000,,,-1330742678359877154,0.2606668472290039,31.408635550178587,-20.08108176074117,10.861498412938575,5,24,0.0,207,22386360408784,7,37.3,-268.3446960449219,0.22059999406337738,0,0.0,0.0,,,,,0,,3,0.0,
Raw,2039528,1726070000000,,,-1330742678359877154,0.2606668472290039,31.408635550178587,-20.08108176074117,10.861498412938575,5,23,0.0,207,22386362197150,24,25.9,138.50257873535156,0.5848000049591064,0,0.0,0.0,,,,,0,,3,0.0,
Raw,2039528,1726070000000,,,-1330742678359877154,0.2606668472290039,31.408635550178587,-20.08108176074117,10.861498412938575,5,7,0.0,207,22386354326940,14,30.2,337.38330078125,0.2468000054359436,0,0.0,0.0,,,,,0,,3,0.0,
Raw,2039529,1726070000000,,,-1330742678359877154,0.2606668472290039,31.408635550178587,-20.08108176074117,10.861498412938575,5,8,0.0,207,22386359116052,6,38.7,-285.184326171875,0.24860000610351562,0,0.0,0.0,,,,,0,,3,0.0,
Raw,2039529,1726070000000,,,-1330742678359877154,0.2606668472290039,31.408635550178587,-20.08108176074117,10.861498412938575,5,2,0.0,15,184404349817310,14,30.8,454.7132873535156,0.03930000215768814,0,0.0,0.0,,,,,0,,1,0.0,
Raw,2039529,1726070000000,,,-1330742678359877154,0.2606668472290039,31.408635550178587,-20.08108176074117,10.861498412938575,5,5,0.0,15,184404360783049,5,41.0,72.77496337890625,0.019100001081824303,0,0.0,0.0,,,,,0,,1,0.0,
Raw,2039529,1726070000000,,,-1330742678359877154,0.2606668472290039,31.408635550178587,-20.08108176074117,10.861498412938575,5,12,0.0,15,184404352624304,27,24.2,686.189453125,0.5945000052452087,0,0.0,0.0,,,,,0,,1,0.0,
Raw,2039529,1726070000000,,,-1330742678359877154,0.2606668472290039,31.408635550178587,-20.08108176074117,10.861498412938575,5,18,0.0,15,184404356268280,7,37.4,-403.387451171875,0.044600002467632294,0,0.0,0.0,,,,,0,,1,0.0,
Raw,2039529,1726070000000,,,-1330742678359877154,0.2606668472290039,31.408635550178587,-20.08108176074117,10.861498412938575,5,20,0.0,15,184404356646954,10,34.7,405.7653503417969,0.04610000178217888,0,0.0,0.0,,,,,0,,1,0.0,
Raw,2039529,1726070000000,,,-1330742678359877154,0.2606668472290039,31.408635550178587,-20.08108176074117,10.861498412938575,5,25,0.0,15,184404359912691,13,31.3,398.77532958984375,0.02370000071823597,0,0.0,0.0,,,,,0,,1,0.0,
Raw,2039529,1726070000000,,,-1330742678359877154,0.2606668472290039,31.408635550178587,-20.08108176074117,10.861498412938575,5,26,0.0,15,184404349525588,14,30.2,-550.723388671875,0.03930000215768814,0,0.0,0.0,,,,,0,,1,0.0,
Raw,2039529,1726070000000,,,-1330742678359877154,0.2606668472290039,31.408635550178587,-20.08108176074117,10.861498412938575,5,29,0.0,15,184404360706571,11,33.9,-196.48194885253906,0.02290000021457672,0,0.0,0.0,,,,,0,,1,0.0,
Raw,2039529,1726070000000,,,-1330742678359877154,0.2606668472290039,31.408635550178587,-20.08108176074117,10.861498412938575,5,31,0.0,15,184404347083660,13,31.7,297.63665771484375,0.0357000008225441,0,0.0,0.0,,,,,0,,1,0.0,
Fix,gps,37.427256,-122.170370,-7.478241,0.000000,3.216000,1646709187000
NMEA,$GPGSV,3,1,12,02,24,056,31,05,59,084,41,12,28,163,24,18,37,257,37,1*62
,1646709187001
NMEA,$GPGSV,3,2,12,20,39,052,35,25,57,203,31,26,14,317,30,29,64,341,34,1*66
,1646709187002
NMEA,$GPGSV,3,3,12,31,11,278,32,13,01,115,,15,06,147,,23,07,201,,1*6A
,1646709187002
NMEA,$GLGSV,3,1,10,78,39,291,40,86,07,071,21,77,32,217,17,79,07,334,35,1*74
,1646709187002
NMEA,$GLGSV,3,2,10,65,21,146,36,88,40,306,37,87,49,016,26,71,19,037,30,1*73
,1646709187002
NMEA,$GLGSV,3,3,10,72,36,091,39,81,00,000,,1*72
,1646709187002
NMEA,$GAGSV,1,1,0,7*43
,1646709187004
NMEA,$PQGSV,1,1,0,0*43
,1646709187007
NMEA,$GBGSV,1,1,0,0*47
,1646709187008
NMEA,$GNGSA,A,3,02,05,12,18,20,25,26,29,31,,,,1.0,0.7,0.7,1*35
,1646709187016
NMEA,$GNGSA,A,3,65,71,72,78,86,87,88,,,,,,1.0,0.7,0.7,2*3D
,1646709187016
NMEA,$GNVTG,,T,,M,0.0,N,0.0,K,A*3D
,1646709187017
NMEA,$GNGGA,031307.00,3725.635340,N,12210.222229,W,1,12,0.7,20.5,M,-27.9,M,,*7B
,1646709187017
NMEA,$GNRMC,031307.00,A,3725.635340,N,12210.222229,W,0.0,,080322,15.0,E,A,V*5B
,1646709187017
NMEA,$AIDSTAT,0,0,0,2,,23,3*00
,1646709187931
NMEA,$GPGSV,3,1,12,02,24,056,32,05,59,084,42,12,28,163,21,18,37,257,36,1*66
,1646709188001
NMEA,$GPGSV,3,2,12,20,39,052,27,25,57,203,31,26,14,317,31,29,64,341,34,1*64
,1646709188002
NMEA,$GPGSV,3,3,12,31,11,278,28,13,01,115,,15,06,147,,23,07,201,,1*61
,1646709188004
Raw,2040527,1727070000000,,,-1330742678359877178,0.9179978370666504,29.953691409900784,-19.709336649610876,10.64592139980491,5,14,0.0,207,22387359961703,6,39.3,-40.00868606567383,0.21809999644756317,0,0.0,0.0,,,,,0,,3,0.0,
Raw,2040527,1727070000000,,,-1330742678359877178,0.9179978370666504,29.953691409900784,-19.709336649610876,10.64592139980491,5,22,0.0,207,22387350159260,96,21.4,485.6064147949219,5.561500072479248,0,0.0,0.0,,,,,0,,3,0.0,
Raw,2040527,1727070000000,,,-1330742678359877178,0.9179978370666504,29.953691409900784,-19.709336649610876,10.64592139980491,5,13,0.0,207,22387358021518,1268,17.0,656.65478515625,23.89350128173828,0,0.0,0.0,,,,,0,,3,0.0,
Raw,2040527,1727070000000,,,-1330742678359877178,0.9179978370666504,29.953691409900784,-19.709336649610876,10.64592139980491,5,15,0.0,207,22387350473607,9,35.2,-615.9050903320312,0.23659999668598175,0,0.0,0.0,,,,,0,,3,0.0,
Raw,2040528,1727070000000,,,-1330742678359877178,0.9179978370666504,29.953691409900784,-19.709336649610876,10.64592139980491,5,1,0.0,207,22387355152557,7,37.1,-747.2488403320312,0.24310000240802765,0,0.0,0.0,,,,,0,,3,0.0,
Raw,2040528,1727070000000,,,-1330742678359877178,0.9179978370666504,29.953691409900784,-19.709336649610876,10.64592139980491,5,24,0.0,207,22387360409711,9,35.0,-268.53790283203125,0.2215999960899353,0,0.0,0.0,,,,,0,,3,0.0,
Raw,2040528,1727070000000,,,-1330742678359877178,0.9179978370666504,29.953691409900784,-19.709336649610876,10.64592139980491,5,23,0.0,207,22387362196770,8,36.4,138.25003051757812,0.22420001029968262,0,0.0,0.0,,,,,0,,3,0.0,
Raw,2040528,1727070000000,,,-1330742678359877178,0.9179978370666504,29.953691409900784,-19.709336649610876,10.64592139980491,5,7,0.0,207,22387354325887,14,30.8,337.30712890625,0.2468000054359436,0,0.0,0.0,,,,,0,,3,0.0,
Raw,2040528,1727070000000,,,-1330742678359877178,0.9179978370666504,29.953691409900784,-19.709336649610876,10.64592139980491,5,8,0.0,207,22387359116990,5,40.2,-285.2507019042969,0.24790000915527344,0,0.0,0.0,,,,,0,,3,0.0,
Raw,2040528,1727070000000,,,-1330742678359877178,0.9179978370666504,29.953691409900784,-19.709336649610876,10.64592139980491,5,2,0.0,15,184405349815762,13,31.6,454.531494140625,0.038700003176927567,0,0.0,0.0,,,,,0,,1,0.0,
Raw,2040528,1727070000000,,,-1330742678359877178,0.9179978370666504,29.953691409900784,-19.709336649610876,10.64592139980491,5,5,0.0,15,184405360782812,5,41.8,72.68846130371094,0.019100001081824303,0,0.0,0.0,,,,,0,,1,0.0,
Raw,2040528,1727070000000,,,-1330742678359877178,0.9179978370666504,29.953691409900784,-19.709336649610876,10.64592139980491,5,12,0.0,15,184405352622065,40,21.3,686.2655639648438,0.7444999814033508,0,0.0,0.0,,,,,0,,1,0.0,
Raw,2040528,1727070000000,,,-1330742678359877178,0.9179978370666504,29.953691409900784,-19.709336649610876,10.64592139980491,5,18,0.0,15,184405356269645,8,36.1,-403.57537841796875,0.04520000144839287,0,0.0,0.0,,,,,0,,1,0.0,
Raw,2040528,1727070000000,,,-1330742678359877178,0.9179978370666504,29.953691409900784,-19.709336649610876,10.64592139980491,5,20,0.0,15,184405356645625,19,27.0,405.6441650390625,0.06530000269412994,0,0.0,0.0,,,,,0,,1,0.0,
Raw,2040528,1727070000000,,,-1330742678359877178,0.9179978370666504,29.953691409900784,-19.709336649610876,10.64592139980491,5,25,0.0,15,184405359911363,14,30.7,398.6351013183594,0.024300001561641693,0,0.0,0.0,,,,,0,,1,0.0,
Raw,2040529,1727070000000,,,-1330742678359877178,0.9179978370666504,29.953691409900784,-19.709336649610876,10.64592139980491,5,26,0.0,15,184405349527393,14,30.5,-550.87060546875,0.03930000215768814,0,0.0,0.0,,,,,0,,1,0.0,
Raw,2040529,1727070000000,,,-1330742678359877178,0.9179978370666504,29.953691409900784,-19.709336649610876,10.64592139980491,5,29,0.0,15,184405360707218,10,34.0,-196.64451599121094,0.022099999710917473,0,0.0,0.0,,,,,0,,1,0.0,
Raw,2040529,1727070000000,,,-1330742678359877178,0.9179978370666504,29.953691409900784,-19.709336649610876,10.64592139980491,5,31,0.0,15,184405347082676,17,28.3,297.53533935546875,0.043800000101327896,0,0.0,0.0,,,,,0,,1,0.0,
Fix,gps,37.427255,-122.170371,-7.602295,0.000000,3.216000,1646709188000
NMEA,$GLGSV,3,1,10,78,39,291,39,86,07,071,21,77,32,217,17,79,07,334,35,1*7A
,1646709188006
NMEA,$GLGSV,3,2,10,65,21,146,37,88,40,306,35,87,49,016,36,71,19,037,31,1*70
,1646709188006
NMEA,$GLGSV,3,3,10,72,36,091,40,81,00,000,,1*7C
,1646709188006
NMEA,$GAGSV,1,1,0,7*43
,1646709188007
NMEA,$PQGSV,1,1,0,0*43
,1646709188007
NMEA,$GBGSV,1,1,0,0*47
,1646709188007
NMEA,$GNGSA,A,3,02,05,12,18,20,25,26,29,31,,,,1.0,0.7,0.7,1*35
,1646709188015
NMEA,$GNGSA,A,3,65,71,72,78,86,87,88,,,,,,1.0,0.7,0.7,2*3D
,1646709188015
NMEA,$GNVTG,,T,,M,0.0,N,0.0,K,A*3D
,1646709188016
NMEA,$GNGGA,031308.00,3725.635285,N,12210.222286,W,1,12,0.7,20.3,M,-27.9,M,,*7F
,1646709188017
NMEA,$GNRMC,031308.00,A,3725.635285,N,12210.222286,W,0.0,,080322,15.0,E,A,V*59
,1646709188017
NMEA,$AIDSTAT,0,0,0,2,,23,3*00
,1646709188928
NMEA,$GPGSV,3,1,12,02,24,056,33,05,59,084,41,12,28,163,22,18,37,257,36,1*67
,1646709188999
NMEA,$GPGSV,3,2,12,20,39,052,22,25,57,203,32,26,14,317,26,29,64,341,34,1*64
,1646709189000
Raw,2041529,1728070000000,,,-1330742678359877205,0.9394454956054688,30.50960549444426,-20.355460891305654,10.747802973261782,5,14,0.0,207,22388359961819,5,40.3,-39.18003845214844,0.21790000796318054,0,0.0,0.0,,,,,0,,3,0.0,
Raw,2041529,1728070000000,,,-1330742678359877205,0.9394454956054688,30.50960549444426,-20.355460891305654,10.747802973261782,5,22,0.0,207,22388350157600,142,13.1,486.0466613769531,4.061500072479248,0,0.0,0.0,,,,,0,,3,0.0,
Raw,2041530,1728070000000,,,-1330742678359877205,0.9394454956054688,30.50960549444426,-20.355460891305654,10.747802973261782,5,13,0.0,207,22388358019327,1428,17.0,656.65478515625,25.39350128173828,0,0.0,0.0,,,,,0,,3,0.0,
Raw,2041530,1728070000000,,,-1330742678359877205,0.9394454956054688,30.50960549444426,-20.355460891305654,10.747802973261782,5,15,0.0,207,22388350475613,11,33.8,-615.1605224609375,0.2379000037908554,0,0.0,0.0,,,,,0,,3,0.0,
Raw,2041530,1728070000000,,,-1330742678359877205,0.9394454956054688,30.50960549444426,-20.355460891305654,10.747802973261782,5,1,0.0,207,22388355155051,8,36.3,-746.6083374023438,0.24370001256465912,0,0.0,0.0,,,,,0,,3,0.0,
Raw,2041530,1728070000000,,,-1330742678359877205,0.9394454956054688,30.50960549444426,-20.355460891305654,10.747802973261782,5,24,0.0,207,22388360410582,7,37.0,-267.8336486816406,0.22059999406337738,0,0.0,0.0,,,,,0,,3,0.0,
Raw,2041530,1728070000000,,,-1330742678359877205,0.9394454956054688,30.50960549444426,-20.355460891305654,10.747802973261782,5,23,0.0,207,22388362196311,8,36.7,138.94277954101562,0.22420001029968262,0,0.0,0.0,,,,,0,,3,0.0,
Raw,2041530,1728070000000,,,-1330742678359877205,0.9394454956054688,30.50960549444426,-20.355460891305654,10.747802973261782,5,7,0.0,207,22388354324712,13,31.4,338.0843811035156,0.24620001018047333,0,0.0,0.0,,,,,0,,3,0.0,
Raw,2041530,1728070000000,,,-1330742678359877205,0.9394454956054688,30.50960549444426,-20.355460891305654,10.747802973261782,5,8,0.0,207,22388359117947,6,39.8,-284.50286865234375,0.24809999763965607,0,0.0,0.0,,,,,0,,3,0.0,
Raw,2041530,1728070000000,,,-1330742678359877205,0.9394454956054688,30.50960549444426,-20.355460891305654,10.747802973261782,5,2,0.0,15,184406349814238,12,32.7,455.1419982910156,0.03739999979734421,0,0.0,0.0,,,,,0,,1,0.0,
Raw,2041530,1728070000000,,,-1330742678359877205,0.9394454956054688,30.50960549444426,-20.355460891305654,10.747802973261782,5,5,0.0,15,184406360782560,5,41.4,73.44800567626953,0.019100001081824303,0,0.0,0.0,,,,,0,,1,0.0,
Raw,2041530,1728070000000,,,-1330742678359877205,0.9394454956054688,30.50960549444426,-20.355460891305654,10.747802973261782,5,12,0.0,15,184406352619683,40,21.8,685.808837890625,0.7444999814033508,0,0.0,0.0,,,,,0,,1,0.0,
Raw,2041530,1728070000000,,,-1330742678359877205,0.9394454956054688,30.50960549444426,-20.355460891305654,10.747802973261782,5,18,0.0,15,184406356270989,8,36.4,-402.8769226074219,0.04520000144839287,0,0.0,0.0,,,,,0,,1,0.0,
Raw,2041531,1728070000000,,,-1330742678359877205,0.9394454956054688,30.50960549444426,-20.355460891305654,10.747802973261782,5,20,0.0,15,184406356644368,40,21.9,406.2769775390625,0.750499963760376,0,0.0,0.0,,,,,0,,1,0.0,
Raw,2041531,1728070000000,,,-1330742678359877205,0.9394454956054688,30.50960549444426,-20.355460891305654,10.747802973261782,5,25,0.0,15,184406359910019,13,31.7,399.3817138671875,0.02370000071823597,0,0.0,0.0,,,,,0,,1,0.0,
Raw,2041531,1728070000000,,,-1330742678359877205,0.9394454956054688,30.50960549444426,-20.355460891305654,10.747802973261782,5,26,0.0,15,184406349529268,21,26.3,-550.1700439453125,0.12470000237226486,0,0.0,0.0,,,,,0,,1,0.0,
Raw,2041531,1728070000000,,,-1330742678359877205,0.9394454956054688,30.50960549444426,-20.355460891305654,10.747802973261782,5,29,0.0,15,184406360707885,11,33.5,-195.9606170654297,0.02290000021457672,0,0.0,0.0,,,,,0,,1,0.0,
Raw,2041531,1728070000000,,,-1330742678359877205,0.9394454956054688,30.50960549444426,-20.355460891305654,10.747802973261782,5,31,0.0,15,184406347081668,16,29.5,298.29052734375,0.03720000013709068,0,0.0,0.0,,,,,0,,1,0.0,
NMEA,$GPGSV,3,3,12,31,11,278,30,13,01,115,,15,06,147,,23,07,201,,1*68
,1646709189000
NMEA,$GLGSV,3,1,10,78,39,291,40,86,07,071,13,77,32,217,17,79,07,334,34,1*74
,1646709189000
NMEA,$GLGSV,3,2,10,65,21,146,36,88,40,306,37,87,49,016,37,71,19,037,31,1*72
,1646709189000
NMEA,$GLGSV,3,3,10,72,36,091,40,81,00,000,,1*7C
,1646709189000
NMEA,$GAGSV,1,1,0,7*43
,1646709189000
NMEA,$PQGSV,1,1,0,0*43
,1646709189001
NMEA,$GBGSV,1,1,0,0*47
,1646709189001
Fix,gps,37.427254,-122.170373,-7.681793,0.000000,3.216000,1646709189000
NMEA,$GNGSA,A,3,02,05,12,18,20,25,26,29,31,,,,1.0,0.7,0.7,1*35
,1646709189014
NMEA,$GNGSA,A,3,65,71,72,78,86,87,88,,,,,,1.0,0.7,0.7,2*3D
,1646709189014
NMEA,$GNVTG,,T,,M,0.0,N,0.0,K,A*3D
,1646709189014
NMEA,$GNGGA,031309.00,3725.635233,N,12210.222351,W,1,12,0.7,20.3,M,-27.9,M,,*78
,1646709189015
NMEA,$GNRMC,031309.00,A,3725.635233,N,12210.222351,W,0.0,,080322,15.0,E,A,V*5E
,1646709189015
NMEA,$AIDSTAT,0,0,0,2,42,23,3*00
,1646709189927
Raw,2042506,1729070000000,,,-1330742678359877220,0.6136012077331543,30.3151009575231,-18.274171798471908,10.84787290166655,5,14,0.0,207,22389359961930,6,39.5,-38.78724670410156,0.21809999644756317,0,0.0,0.0,,,,,0,,3,0.0,
Raw,2042507,1729070000000,,,-1330742678359877220,0.6136012077331543,30.3151009575231,-18.274171798471908,10.84787290166655,5,22,0.0,207,22389350155979,168,13.1,486.0466613769531,5.561500072479248,0,0.0,0.0,,,,,0,,3,0.0,
Raw,2042507,1729070000000,,,-1330742678359877220,0.6136012077331543,30.3151009575231,-18.274171798471908,10.84787290166655,5,13,0.0,207,22389358017137,1597,17.0,656.65478515625,26.89350128173828,0,0.0,0.0,,,,,0,,3,0.0,
Raw,2042507,1729070000000,,,-1330742678359877220,0.6136012077331543,30.3151009575231,-18.274171798471908,10.84787290166655,5,15,0.0,207,22389350477715,12,32.1,-614.8698120117188,0.23890000581741333,0,0.0,0.0,,,,,0,,3,0.0,
Raw,2042507,1729070000000,,,-1330742678359877220,0.6136012077331543,30.3151009575231,-18.274171798471908,10.84787290166655,5,1,0.0,207,22389355157545,9,35.6,-746.2549438476562,0.24410000443458557,0,0.0,0.0,,,,,0,,3,0.0,
Raw,2042508,1729070000000,,,-1330742678359877220,0.6136012077331543,30.3151009575231,-18.274171798471908,10.84787290166655,5,24,0.0,207,22389360411452,8,36.7,-267.6004333496094,0.22120000422000885,0,0.0,0.0,,,,,0,,3,0.0,
Raw,2042508,1729070000000,,,-1330742678359877220,0.6136012077331543,30.3151009575231,-18.274171798471908,10.84787290166655,5,23,0.0,207,22389362195835,8,36.8,139.24374389648438,0.22420001029968262,0,0.0,0.0,,,,,0,,3,0.0,
Raw,2042508,1729070000000,,,-1330742678359877220,0.6136012077331543,30.3151009575231,-18.274171798471908,10.84787290166655,5,7,0.0,207,22389354323611,16,29.9,338.4826354980469,0.24770000576972961,0,0.0,0.0,,,,,0,,3,0.0,
Raw,2042509,1729070000000,,,-1330742678359877220,0.6136012077331543,30.3151009575231,-18.274171798471908,10.84787290166655,5,8,0.0,207,22389359118893,6,39.3,-284.10443115234375,0.24809999763965607,0,0.0,0.0,,,,,0,,3,0.0,
Raw,2042509,1729070000000,,,-1330742678359877220,0.6136012077331543,30.3151009575231,-18.274171798471908,10.84787290166655,5,2,0.0,15,184407349812736,13,31.7,455.38543701171875,0.038700003176927567,0,0.0,0.0,,,,,0,,1,0.0,
Raw,2042509,1729070000000,,,-1330742678359877220,0.6136012077331543,30.3151009575231,-18.274171798471908,10.84787290166655,5,5,0.0,15,184407360782321,5,40.3,73.84603118896484,0.01940000057220459,0,0.0,0.0,,,,,0,,1,0.0,
Raw,2042509,1729070000000,,,-1330742678359877220,0.6136012077331543,30.3151009575231,-18.274171798471908,10.84787290166655,5,12,0.0,15,184407352617501,46,20.9,686.5130004882812,0.8044999837875366,0,0.0,0.0,,,,,0,,1,0.0,
Raw,2042509,1729070000000,,,-1330742678359877220,0.6136012077331543,30.3151009575231,-18.274171798471908,10.84787290166655,5,18,0.0,15,184407356272333,8,36.1,-402.5651550292969,0.04520000144839287,0,0.0,0.0,,,,,0,,1,0.0,
Raw,2042509,1729070000000,,,-1330742678359877220,0.6136012077331543,30.3151009575231,-18.274171798471908,10.84787290166655,5,20,0.0,15,184407356642908,21,26.4,406.6968688964844,0.13520000874996185,0,0.0,0.0,,,,,0,,1,0.0,
Raw,2042510,1729070000000,,,-1330742678359877220,0.6136012077331543,30.3151009575231,-18.274171798471908,10.84787290166655,5,25,0.0,15,184407359908679,14,30.8,399.7681579589844,0.024300001561641693,0,0.0,0.0,,,,,0,,1,0.0,
Raw,2042510,1729070000000,,,-1330742678359877220,0.6136012077331543,30.3151009575231,-18.274171798471908,10.84787290166655,5,26,0.0,15,184407349531283,53,19.9,-549.6537475585938,0.8600000143051147,0,0.0,0.0,,,,,0,,1,0.0,
Raw,2042510,1729070000000,,,-1330742678359877220,0.6136012077331543,30.3151009575231,-18.274171798471908,10.84787290166655,5,29,0.0,15,184407360708576,12,32.5,-195.6728515625,0.023900000378489494,0,0.0,0.0,,,,,0,,1,0.0,
Raw,2042510,1729070000000,,,-1330742678359877220,0.6136012077331543,30.3151009575231,-18.274171798471908,10.84787290166655,5,31,0.0,15,184407347080671,19,27.4,298.5589904785156,0.05180000141263008,0,0.0,0.0,,,,,0,,1,0.0,
Fix,gps,37.427253,-122.170372,-7.717194,0.000000,3.216000,1646709190000
NMEA,$GPGSV,3,1,12,02,24,056,32,05,59,084,40,12,28,163,21,18,37,257,36,1*64
,1646709190004
NMEA,$GPGSV,3,2,12,20,39,052,26,25,57,203,31,26,14,317,20,29,64,341,33,1*62
,1646709190005
NMEA,$GPGSV,3,3,12,31,11,278,27,13,01,115,,15,06,147,,23,07,201,,1*6E
,1646709190005
NMEA,$GLGSV,3,1,10,78,39,291,40,86,07,071,13,77,32,217,17,79,07,334,32,1*72
,1646709190006
NMEA,$GLGSV,3,2,10,65,21,146,36,88,40,306,37,87,49,016,37,71,19,037,30,1*73
,1646709190006
NMEA,$GLGSV,3,3,10,72,36,091,39,81,00,000,,1*72
,1646709190007
NMEA,$GAGSV,1,1,0,7*43
,1646709190007
NMEA,$PQGSV,1,1,0,0*43
,1646709190007
NMEA,$GBGSV,1,1,0,0*47
,1646709190008
NMEA,$GNGSA,A,3,02,05,12,18,20,25,26,29,31,,,,1.0,0.7,0.7,1*35
,1646709190011
NMEA,$GNGSA,A,3,65,71,72,78,86,87,88,,,,,,1.0,0.7,0.7,2*3D
,1646709190012
NMEA,$GNVTG,,T,,M,0.0,N,0.0,K,A*3D
,1646709190012
NMEA,$GNGGA,031310.00,3725.635179,N,12210.222349,W,1,12,0.7,20.2,M,-27.9,M,,*75
,1646709190012
NMEA,$GNRMC,031310.00,A,3725.635179,N,12210.222349,W,0.0,,080322,15.0,E,A,V*52
,1646709190013
NMEA,$AIDSTAT,0,0,0,2,,23,3*00
,1646709190925
Raw,2043535,1730070000000,,,-1330742678359877237,0.9019489288330078,30.336217605508864,-17.40378371357142,10.861264600978384,5,14,0.0,207,22390359962064,5,40.5,-38.241981506347656,0.21790000796318054,0,0.0,0.0,,,,,0,,3,0.0,
Raw,2043535,1730070000000,,,-1330742678359877237,0.9019489288330078,30.336217605508864,-17.40378371357142,10.861264600978384,5,22,0.0,207,22390350154662,74,17.3,485.6439208984375,2.131500005722046,0,0.0,0.0,,,,,0,,3,0.0,
Raw,2043535,1730070000000,,,-1330742678359877237,0.9019489288330078,30.336217605508864,-17.40378371357142,10.861264600978384,5,13,0.0,207,22390358014947,1777,17.0,656.65478515625,28.39350128173828,0,0.0,0.0,,,,,0,,3,0.0,
Raw,2043535,1730070000000,,,-1330742678359877237,0.9019489288330078,30.336217605508864,-17.40378371357142,10.861264600978384,5,15,0.0,207,22390350479732,11,33.8,-614.3637084960938,0.2379000037908554,0,0.0,0.0,,,,,0,,3,0.0,
Raw,2043535,1730070000000,,,-1330742678359877237,0.9019489288330078,30.336217605508864,-17.40378371357142,10.861264600978384,5,1,0.0,207,22390355160031,8,36.7,-745.8731689453125,0.24370001256465912,0,0.0,0.0,,,,,0,,3,0.0,
Raw,2043535,1730070000000,,,-1330742678359877237,0.9019489288330078,30.336217605508864,-17.40378371357142,10.861264600978384,5,24,0.0,207,22390360412333,6,39.0,-267.16973876953125,0.21959999203681946,0,0.0,0.0,,,,,0,,3,0.0,
Raw,2043535,1730070000000,,,-1330742678359877237,0.9019489288330078,30.336217605508864,-17.40378371357142,10.861264600978384,5,23,0.0,207,22390362195367,7,37.3,139.6616973876953,0.22360000014305115,0,0.0,0.0,,,,,0,,3,0.0,
Raw,2043535,1730070000000,,,-1330742678359877237,0.9019489288330078,30.336217605508864,-17.40378371357142,10.861264600978384,5,7,0.0,207,22390354322483,14,30.4,339.04010009765625,0.2468000054359436,0,0.0,0.0,,,,,0,,3,0.0,
Raw,2043535,1730070000000,,,-1330742678359877237,0.9019489288330078,30.336217605508864,-17.40378371357142,10.861264600978384,5,8,0.0,207,22390359119866,6,39.4,-283.57794189453125,0.24809999763965607,0,0.0,0.0,,,,,0,,3,0.0,
Raw,2043535,1730070000000,,,-1330742678359877237,0.9019489288330078,30.336217605508864,-17.40378371357142,10.861264600978384,5,2,0.0,15,184408349811218,12,32.7,455.7481689453125,0.03739999979734421,0,0.0,0.0,,,,,0,,1,0.0,
Raw,2043535,1730070000000,,,-1330742678359877237,0.9019489288330078,30.336217605508864,-17.40378371357142,10.861264600978384,5,5,0.0,15,184408360782071,5,41.6,74.32730865478516,0.019100001081824303,0,0.0,0.0,,,,,0,,1,0.0,
Raw,2043536,1730070000000,,,-1330742678359877237,0.9019489288330078,30.336217605508864,-17.40378371357142,10.861264600978384,5,12,0.0,15,184408352615170,35,22.1,687.8164672851562,0.684499979019165,0,0.0,0.0,,,,,0,,1,0.0,
Raw,2043536,1730070000000,,,-1330742678359877237,0.9019489288330078,30.336217605508864,-17.40378371357142,10.861264600978384,5,18,0.0,15,184408356273669,7,37.3,-402.12591552734375,0.044600002467632294,0,0.0,0.0,,,,,0,,1,0.0,
Raw,2043536,1730070000000,,,-1330742678359877237,0.9019489288330078,30.336217605508864,-17.40378371357142,10.861264600978384,5,20,0.0,15,184408356641664,40,21.7,407.1808776855469,0.750499963760376,0,0.0,0.0,,,,,0,,1,0.0,
Raw,2043536,1730070000000,,,-1330742678359877237,0.9019489288330078,30.336217605508864,-17.40378371357142,10.861264600978384,5,25,0.0,15,184408359907343,11,33.0,400.2605285644531,0.021400000900030136,0,0.0,0.0,,,,,0,,1,0.0,
Raw,2043536,1730070000000,,,-1330742678359877237,0.9019489288330078,30.336217605508864,-17.40378371357142,10.861264600978384,5,26,0.0,15,184408349532961,21,26.0,-549.388916015625,0.12470000237226486,0,0.0,0.0,,,,,0,,1,0.0,
Raw,2043536,1730070000000,,,-1330742678359877237,0.9019489288330078,30.336217605508864,-17.40378371357142,10.861264600978384,5,29,0.0,15,184408360709210,10,34.1,-195.1982421875,0.022099999710917473,0,0.0,0.0,,,,,0,,1,0.0,
Raw,2043536,1730070000000,,,-1330742678359877237,0.9019489288330078,30.336217605508864,-17.40378371357142,10.861264600978384,5,31,0.0,15,184408347079674,17,28.5,298.99700927734375,0.043800000101327896,0,0.0,0.0,,,,,0,,1,0.0,
Fix,gps,37.427252,-122.170372,-7.806946,0.000000,3.216000,1646709191000
NMEA,$GPGSV,3,1,12,02,24,056,33,05,59,084,42,12,28,163,22,18,37,257,37,1*65
,1646709190999
NMEA,$GPGSV,3,2,12,20,39,052,22,25,57,203,33,26,14,317,26,29,64,341,34,1*65
,1646709191000
NMEA,$GPGSV,3,3,12,31,11,278,29,13,01,115,,15,06,147,,23,07,201,,1*60
,1646709191000
NMEA,$GLGSV,3,1,10,78,39,291,41,86,07,071,17,77,32,217,17,79,07,334,34,1*71
,1646709191000
NMEA,$GLGSV,3,2,10,65,21,146,37,88,40,306,39,87,49,016,37,71,19,037,30,1*7C
,1646709191000
NMEA,$GLGSV,3,3,10,72,36,091,39,81,00,000,,1*72
,1646709191000
NMEA,$GAGSV,1,1,0,7*43
,1646709191001
NMEA,$PQGSV,1,1,0,0*43
,1646709191001
NMEA,$GBGSV,1,1,0,0*47
,1646709191001
NMEA,$GNGSA,A,3,02,05,12,18,20,25,26,29,31,,,,1.0,0.7,0.8,1*3A
,1646709191014
NMEA,$GNGSA,A,3,65,71,72,78,87,88,,,,,,,1.0,0.7,0.8,2*3C
,1646709191014
NMEA,$GNVTG,,T,,M,0.0,N,0.0,K,A*3D
,1646709191014
NMEA,$GNGGA,031311.00,3725.635122,N,12210.222323,W,1,12,0.7,20.1,M,-27.9,M,,*75
,1646709191014
NMEA,$GNRMC,031311.00,A,3725.635122,N,12210.222323,W,0.0,,080322,15.0,E,A,V*51
,1646709191015
NMEA,$AIDSTAT,0,0,0,2,26,23,3*00
,1646709191927
Raw,2044527,1731070000000,,,-1330742678359877252,0.06946516036987305,29.465636544045992,-16.22420237440107,10.851329978506538,5,14,0.0,207,22391359962182,5,40.8,-38.25669479370117,0.21790000796318054,0,0.0,0.0,,,,,0,,3,0.0,
Raw,2044528,1731070000000,,,-1330742678359877252,0.06946516036987305,29.465636544045992,-16.22420237440107,10.851329978506538,5,22,0.0,207,22391350153042,88,17.3,485.6439208984375,3.631500244140625,0,0.0,0.0,,,,,0,,3,0.0,
Raw,2044528,1731070000000,,,-1330742678359877252,0.06946516036987305,29.465636544045992,-16.22420237440107,10.851329978506538,5,13,0.0,207,22391358012756,1967,17.0,656.65478515625,29.89350128173828,0,0.0,0.0,,,,,0,,3,0.0,
Raw,2044528,1731070000000,,,-1330742678359877252,0.06946516036987305,29.465636544045992,-16.22420237440107,10.851329978506538,5,15,0.0,207,22391350481799,10,34.2,-614.4627685546875,0.2371000051498413,0,0.0,0.0,,,,,0,,3,0.0,
Raw,2044528,1731070000000,,,-1330742678359877252,0.06946516036987305,29.465636544045992,-16.22420237440107,10.851329978506538,5,1,0.0,207,22391355162533,8,36.5,-745.997802734375,0.24370001256465912,0,0.0,0.0,,,,,0,,3,0.0,
Raw,2044528,1731070000000,,,-1330742678359877252,0.06946516036987305,29.465636544045992,-16.22420237440107,10.851329978506538,5,24,0.0,207,22391360413223,6,38.7,-267.294677734375,0.22010000050067902,0,0.0,0.0,,,,,0,,3,0.0,
Raw,2044529,1731070000000,,,-1330742678359877252,0.06946516036987305,29.465636544045992,-16.22420237440107,10.851329978506538,5,23,0.0,207,22391362194884,9,35.4,139.52491760253906,0.22460000216960907,0,0.0,0.0,,,,,0,,3,0.0,
Raw,2044529,1731070000000,,,-1330742678359877252,0.06946516036987305,29.465636544045992,-16.22420237440107,10.851329978506538,5,7,0.0,207,22391354321348,16,29.6,338.9220275878906,0.24770000576972961,0,0.0,0.0,,,,,0,,3,0.0,
Raw,2044529,1731070000000,,,-1330742678359877252,0.06946516036987305,29.465636544045992,-16.22420237440107,10.851329978506538,5,8,0.0,207,22391359120810,6,39.4,-283.587890625,0.24809999763965607,0,0.0,0.0,,,,,0,,3,0.0,
Raw,2044529,1731070000000,,,-1330742678359877252,0.06946516036987305,29.465636544045992,-16.22420237440107,10.851329978506538,5,2,0.0,15,184409349809705,12,32.9,455.59942626953125,0.03739999979734421,0,0.0,0.0,,,,,0,,1,0.0,
Raw,2044529,1731070000000,,,-1330742678359877252,0.06946516036987305,29.465636544045992,-16.22420237440107,10.851329978506538,5,5,0.0,15,184409360781824,5,41.8,74.29080200195312,0.019100001081824303,0,0.0,0.0,,,,,0,,1,0.0,
Raw,2044529,1731070000000,,,-1330742678359877252,0.06946516036987305,29.465636544045992,-16.22420237440107,10.851329978506538,5,12,0.0,15,184409352612842,35,22.7,687.54052734375,0.684499979019165,0,0.0,0.0,,,,,0,,1,0.0,
Raw,2044529,1731070000000,,,-1330742678359877252,0.06946516036987305,29.465636544045992,-16.22420237440107,10.851329978506538,5,18,0.0,15,184409356275021,8,36.6,-402.2408142089844,0.04520000144839287,0,0.0,0.0,,,,,0,,1,0.0,
Raw,2044529,1731070000000,,,-1330742678359877252,0.06946516036987305,29.465636544045992,-16.22420237440107,10.851329978506538,5,20,0.0,15,184409356640233,24,25.6,407.08197021484375,0.4058000147342682,0,0.0,0.0,,,,,0,,1,0.0,
Raw,2044529,1731070000000,,,-1330742678359877252,0.06946516036987305,29.465636544045992,-16.22420237440107,10.851329978506538,5,25,0.0,15,184409359906022,11,33.2,400.1739196777344,0.021400000900030136,0,0.0,0.0,,,,,0,,1,0.0,
Raw,2044530,1731070000000,,,-1330742678359877252,0.06946516036987305,29.465636544045992,-16.22420237440107,10.851329978506538,5,26,0.0,15,184409349534769,19,27.8,-549.5402221679688,0.05480000376701355,0,0.0,0.0,,,,,0,,1,0.0,
Raw,2044530,1731070000000,,,-1330742678359877252,0.06946516036987305,29.465636544045992,-16.22420237440107,10.851329978506538,5,29,0.0,15,184409360709884,11,33.6,-195.31199645996094,0.02290000021457672,0,0.0,0.0,,,,,0,,1,0.0,
Raw,2044530,1731070000000,,,-1330742678359877252,0.06946516036987305,29.465636544045992,-16.22420237440107,10.851329978506538,5,31,0.0,15,184409347078678,17,28.0,298.91937255859375,0.043800000101327896,0,0.0,0.0,,,,,0,,1,0.0,
Fix,gps,37.427251,-122.170371,-7.919250,0.000000,3.216000,1646709192000
NMEA,$GPGSV,3,1,12,02,24,056,33,05,59,084,42,12,28,163,23,18,37,257,37,1*64
,1646709192002
NMEA,$GPGSV,3,2,12,20,39,052,26,25,57,203,33,26,14,317,28,29,64,341,34,1*6F
,1646709192002
NMEA,$GPGSV,3,3,12,31,11,278,28,13,01,115,,15,06,147,,23,07,201,,1*61
,1646709192002
NMEA,$GLGSV,3,1,10,78,39,291,41,86,07,071,17,77,32,217,17,79,07,334,34,1*71
,1646709192005
NMEA,$GLGSV,3,2,10,65,21,146,37,88,40,306,39,87,49,016,35,71,19,037,30,1*7E
,1646709192006
NMEA,$GLGSV,3,3,10,72,36,091,39,81,00,000,,1*72
,1646709192006
NMEA,$GAGSV,1,1,0,7*43
,1646709192006
NMEA,$PQGSV,1,1,0,0*43
,1646709192007
NMEA,$GBGSV,1,1,0,0*47
,1646709192007
NMEA,$GNGSA,A,3,02,05,12,18,20,25,26,29,31,,,,1.0,0.7,0.8,1*3A
,1646709192021
NMEA,$GNGSA,A,3,65,71,72,78,87,88,,,,,,,1.0,0.7,0.8,2*3C
,1646709192021
NMEA,$GNVTG,,T,,M,0.0,N,0.0,K,A*3D
,1646709192021
NMEA,$GNGGA,031312.00,3725.635070,N,12210.222264,W,1,12,0.7,20.0,M,-27.9,M,,*73
,1646709192022
NMEA,$GNRMC,031312.00,A,3725.635070,N,12210.222264,W,0.0,,080322,15.0,E,A,V*56
,1646709192022
NMEA,$AIDSTAT,0,0,0,2,34,23,3*00
,1646709192926
Raw,2045541,1732070000000,,,-1330742678359877272,0.25092077255249023,30.268520276877098,-16.71472078019397,10.855131411056602,5,14,0.0,207,22392359962329,5,40.8,-37.72665786743164,0.21790000796318054,0,0.0,0.0,,,,,0,,3,0.0,
Raw,2045542,1732070000000,,,-1330742678359877272,0.25092077255249023,30.268520276877098,-16.71472078019397,10.855131411056602,5,22,0.0,207,22392350151296,84,16.2,485.8125,2.2215001583099365,0,0.0,0.0,,,,,0,,3,0.0,
Raw,2045542,1732070000000,,,-1330742678359877272,0.25092077255249023,30.268520276877098,-16.71472078019397,10.855131411056602,5,13,0.0,207,22392358010566,2167,17.0,656.65478515625,31.39350128173828,0,0.0,0.0,,,,,0,,3,0.0,
Raw,2045542,1732070000000,,,-1330742678359877272,0.25092077255249023,30.268520276877098,-16.71472078019397,10.855131411056602,5,15,0.0,207,22392350483854,12,32.8,-613.9358520507812,0.23890000581741333,0,0.0,0.0,,,,,0,,3,0.0,
Raw,2045542,1732070000000,,,-1330742678359877272,0.25092077255249023,30.268520276877098,-16.71472078019397,10.855131411056602,5,1,0.0,207,22392355165002,9,35.5,-745.6165161132812,0.24410000443458557,0,0.0,0.0,,,,,0,,3,0.0,
Raw,2045542,1732070000000,,,-1330742678359877272,0.25092077255249023,30.268520276877098,-16.71472078019397,10.855131411056602,5,24,0.0,207,22392360414118,7,37.9,-266.8902587890625,0.22059999406337738,0,0.0,0.0,,,,,0,,3,0.0,
Raw,2045542,1732070000000,,,-1330742678359877272,0.25092077255249023,30.268520276877098,-16.71472078019397,10.855131411056602,5,23,0.0,207,22392362194435,8,36.7,139.88943481445312,0.22420001029968262,0,0.0,0.0,,,,,0,,3,0.0,
Raw,2045542,1732070000000,,,-1330742678359877272,0.25092077255249023,30.268520276877098,-16.71472078019397,10.855131411056602,5,7,0.0,207,22392354320207,16,29.6,339.4600830078125,0.24770000576972961,0,0.0,0.0,,,,,0,,3,0.0,
Raw,2045542,1732070000000,,,-1330742678359877272,0.25092077255249023,30.268520276877098,-16.71472078019397,10.855131411056602,5,8,0.0,207,22392359121733,6,38.7,-283.0999450683594,0.24860000610351562,0,0.0,0.0,,,,,0,,3,0.0,
Raw,2045543,1732070000000,,,-1330742678359877272,0.25092077255249023,30.268520276877098,-16.71472078019397,10.855131411056602,5,2,0.0,15,184410349808165,11,33.2,455.9226379394531,0.036400001496076584,0,0.0,0.0,,,,,0,,1,0.0,
Raw,2045543,1732070000000,,,-1330742678359877272,0.25092077255249023,30.268520276877098,-16.71472078019397,10.855131411056602,5,5,0.0,15,184410360781586,5,41.7,74.76929473876953,0.019100001081824303,0,0.0,0.0,,,,,0,,1,0.0,
Raw,2045543,1732070000000,,,-1330742678359877272,0.25092077255249023,30.268520276877098,-16.71472078019397,10.855131411056602,5,12,0.0,15,184410352610654,40,21.3,687.0648193359375,0.7444999814033508,0,0.0,0.0,,,,,0,,1,0.0,
Raw,2045543,1732070000000,,,-1330742678359877272,0.25092077255249023,30.268520276877098,-16.71472078019397,10.855131411056602,5,18,0.0,15,184410356276365,8,36.2,-401.8174743652344,0.04520000144839287,0,0.0,0.0,,,,,0,,1,0.0,
Raw,2045543,1732070000000,,,-1330742678359877272,0.25092077255249023,30.268520276877098,-16.71472078019397,10.855131411056602,5,20,0.0,15,184410356638940,31,23.4,407.3997497558594,0.640500009059906,0,0.0,0.0,,,,,0,,1,0.0,
Raw,2045543,1732070000000,,,-1330742678359877272,0.25092077255249023,30.268520276877098,-16.71472078019397,10.855131411056602,5,25,0.0,15,184410359904696,13,31.9,400.6097412109375,0.02370000071823597,0,0.0,0.0,,,,,0,,1,0.0,
Raw,2045544,1732070000000,,,-1330742678359877272,0.25092077255249023,30.268520276877098,-16.71472078019397,10.855131411056602,5,26,0.0,15,184410349536622,21,26.3,-549.0755615234375,0.12470000237226486,0,0.0,0.0,,,,,0,,1,0.0,
Raw,2045544,1732070000000,,,-1330742678359877272,0.25092077255249023,30.268520276877098,-16.71472078019397,10.855131411056602,5,29,0.0,15,184410360710529,12,32.0,-194.8917999267578,0.023900000378489494,0,0.0,0.0,,,,,0,,1,0.0,
Raw,2045544,1732070000000,,,-1330742678359877272,0.25092077255249023,30.268520276877098,-16.71472078019397,10.855131411056602,5,31,0.0,15,184410347077688,21,26.1,299.239501953125,0.12170000374317169,0,0.0,0.0,,,,,0,,1,0.0,
Fix,gps,37.427251,-122.170371,-7.863647,0.000000,3.216000,1646709193000
NMEA,$GPGSV,3,1,12,02,24,056,33,05,59,084,42,12,28,163,21,18,37,257,36,1*67
,1646709193007
NMEA,$GPGSV,3,2,12,20,39,052,23,25,57,203,32,26,14,317,26,29,64,341,32,1*63
,1646709193007
NMEA,$GPGSV,3,3,12,31,11,278,26,13,01,115,,15,06,147,,23,07,201,,1*6F
,1646709193007
NMEA,$GLGSV,3,1,10,78,39,291,41,86,07,071,16,77,32,217,17,79,07,334,33,1*77
,1646709193007
NMEA,$GLGSV,3,2,10,65,21,146,36,88,40,306,38,87,49,016,37,71,19,037,30,1*7C
,1646709193007
NMEA,$GLGSV,3,3,10,72,36,091,39,81,00,000,,1*72
,1646709193008
NMEA,$GAGSV,1,1,0,7*43
,1646709193008
NMEA,$PQGSV,1,1,0,0*43
,1646709193008
NMEA,$GBGSV,1,1,0,0*47
,1646709193008
NMEA,$GNGSA,A,3,02,05,12,18,20,25,26,29,31,,,,1.0,0.7,0.8,1*3A
,1646709193010
NMEA,$GNGSA,A,3,65,71,72,78,87,88,,,,,,,1.0,0.7,0.8,2*3C
,1646709193010
NMEA,$GNVTG,,T,,M,0.0,N,0.0,K,A*3D
,1646709193010
NMEA,$GNGGA,031313.00,3725.635030,N,12210.222244,W,1,12,0.7,20.1,M,-27.9,M,,*75
,1646709193010
NMEA,$GNRMC,031313.00,A,3725.635030,N,12210.222244,W,0.0,,080322,15.0,E,A,V*51
,1646709193015
NMEA,$AIDSTAT,0,0,0,2,,23,3*00
,1646709193928
Fix,gps,37.427250,-122.170371,-7.825012,0.000000,3.216000,1646709194000
Raw,2046521,1733070000000,,,-1330742678359877288,0.6196026802062988,29.67467298731208,-15.619618724300462,9.891396684525038,5,14,0.0,207,22393359962446,6,39.1,-37.434932708740234,0.21809999644756317,0,0.0,0.0,,,,,0,,3,0.0,
Raw,2046521,1733070000000,,,-1330742678359877288,0.6196026802062988,29.67467298731208,-15.619618724300462,9.891396684525038,5,22,0.0,207,22393350149706,70,17.5,486.70233154296875,1.381500005722046,0,0.0,0.0,,,,,0,,3,0.0,
Raw,2046521,1733070000000,,,-1330742678359877288,0.6196026802062988,29.67467298731208,-15.619618724300462,9.891396684525038,5,13,0.0,207,22393358008375,2377,17.0,656.65478515625,32.89350128173828,0,0.0,0.0,,,,,0,,3,0.0,
Raw,2046521,1733070000000,,,-1330742678359877288,0.6196026802062988,29.67467298731208,-15.619618724300462,9.891396684525038,5,15,0.0,207,22393350485876,12,32.0,-613.7547607421875,0.23890000581741333,0,0.0,0.0,,,,,0,,3,0.0,
Raw,2046521,1733070000000,,,-1330742678359877288,0.6196026802062988,29.67467298731208,-15.619618724300462,9.891396684525038,5,1,0.0,207,22393355167452,10,34.4,-745.3411254882812,0.24460001289844513,0,0.0,0.0,,,,,0,,3,0.0,
Raw,2046522,1733070000000,,,-1330742678359877288,0.6196026802062988,29.67467298731208,-15.619618724300462,9.891396684525038,5,24,0.0,207,22393360415002,8,36.0,-266.7449035644531,0.22120000422000885,0,0.0,0.0,,,,,0,,3,0.0,
Raw,2046522,1733070000000,,,-1330742678359877288,0.6196026802062988,29.67467298731208,-15.619618724300462,9.891396684525038,5,23,0.0,207,22393362193957,9,35.7,140.1107635498047,0.22460000216960907,0,0.0,0.0,,,,,0,,3,0.0,
Raw,2046522,1733070000000,,,-1330742678359877288,0.6196026802062988,29.67467298731208,-15.619618724300462,9.891396684525038,5,7,0.0,207,22393354319055,17,28.9,339.9456481933594,0.25429999828338623,0,0.0,0.0,,,,,0,,3,0.0,
Raw,2046522,1733070000000,,,-1330742678359877288,0.6196026802062988,29.67467298731208,-15.619618724300462,9.891396684525038,5,8,0.0,207,22393359122689,7,37.8,-282.7583312988281,0.249099999666214,0,0.0,0.0,,,,,0,,3,0.0,
Raw,2046522,1733070000000,,,-1330742678359877288,0.6196026802062988,29.67467298731208,-15.619618724300462,9.891396684525038,5,2,0.0,15,184411349806668,12,32.0,456.0920715332031,0.03739999979734421,0,0.0,0.0,,,,,0,,1,0.0,
Raw,2046522,1733070000000,,,-1330742678359877288,0.6196026802062988,29.67467298731208,-15.619618724300462,9.891396684525038,5,5,0.0,15,184411360781322,5,40.1,75.07785034179688,0.01940000057220459,0,0.0,0.0,,,,,0,,1,0.0,
Raw,2046522,1733070000000,,,-1330742678359877288,0.6196026802062988,29.67467298731208,-15.619618724300462,9.891396684525038,5,12,0.0,15,184411352608193,35,22.4,687.6737670898438,0.684499979019165,0,0.0,0.0,,,,,0,,1,0.0,
Raw,2046522,1733070000000,,,-1330742678359877288,0.6196026802062988,29.67467298731208,-15.619618724300462,9.891396684525038,5,18,0.0,15,184411356277700,9,35.8,-401.5945739746094,0.04560000076889992,0,0.0,0.0,,,,,0,,1,0.0,
Raw,2046522,1733070000000,,,-1330742678359877288,0.6196026802062988,29.67467298731208,-15.619618724300462,9.891396684525038,5,20,0.0,15,184411356637545,35,22.0,407.4853820800781,0.6904999613761902,0,0.0,0.0,,,,,0,,1,0.0,
Raw,2046522,1733070000000,,,-1330742678359877288,0.6196026802062988,29.67467298731208,-15.619618724300462,9.891396684525038,5,25,0.0,15,184411359903363,16,29.3,400.87847900390625,0.025200001895427704,0,0.0,0.0,,,,,0,,1,0.0,
Raw,2046522,1733070000000,,,-1330742678359877288,0.6196026802062988,29.67467298731208,-15.619618724300462,9.891396684525038,5,26,0.0,15,184411349538476,17,28.0,-548.7424926757812,0.046800002455711365,0,0.0,0.0,,,,,0,,1,0.0,
Raw,2046522,1733070000000,,,-1330742678359877288,0.6196026802062988,29.67467298731208,-15.619618724300462,9.891396684525038,5,29,0.0,15,184411360711195,13,31.0,-194.67518615722656,0.025200000032782555,0,0.0,0.0,,,,,0,,1,0.0,
Raw,2046522,1733070000000,,,-1330742678359877288,0.6196026802062988,29.67467298731208,-15.619618724300462,9.891396684525038,5,31,0.0,15,184411347076764,21,26.0,299.527099609375,0.12170000374317169,0,0.0,0.0,,,,,0,,1,0.0,
NMEA,$GPGSV,3,1,12,02,24,056,32,05,59,084,40,12,28,163,22,18,37,257,36,1*67
,1646709193999
NMEA,$GPGSV,3,2,12,20,39,052,22,25,57,203,29,26,14,317,28,29,64,341,31,1*65
,1646709193999
NMEA,$GPGSV,3,3,12,31,11,278,26,13,01,115,,15,06,147,,23,07,201,,1*6F
,1646709193999
NMEA,$GLGSV,3,1,10,78,39,291,39,86,07,071,18,77,32,217,17,79,07,334,32,1*77
,1646709193999
NMEA,$GLGSV,3,2,10,65,21,146,34,88,40,306,36,87,49,016,36,71,19,037,29,1*79
,1646709194000
NMEA,$GLGSV,3,3,10,72,36,091,38,81,00,000,,1*73
,1646709194000
NMEA,$GAGSV,1,1,0,7*43
,1646709194000
NMEA,$PQGSV,1,1,0,0*43
,1646709194001
NMEA,$GBGSV,1,1,0,0*47
,1646709194001
NMEA,$GNGSA,A,3,02,05,12,18,20,25,26,29,31,,,,1.0,0.7,0.8,1*3A
,1646709194008
NMEA,$GNGSA,A,3,65,71,72,78,87,88,,,,,,,1.0,0.7,0.8,2*3C
,1646709194008
NMEA,$GNVTG,,T,,M,0.0,N,0.0,K,A*3D
,1646709194008
NMEA,$GNGGA,031314.00,3725.635014,N,12210.222235,W,1,12,0.7,20.1,M,-27.9,M,,*72
,1646709194008
NMEA,$GNRMC,031314.00,A,3725.635014,N,12210.222235,W,0.0,,080322,15.0,E,A,V*56
,1646709194008
NMEA,$AIDSTAT,0,0,0,2,46,23,3*00
,1646709194927
Raw,2047539,1734070000000,,,-1330742678359877299,0.36922597885131836,30.287556000985205,-15.009183412964836,9.888599689069268,5,14,0.0,207,22394359962578,5,40.3,-37.16592025756836,0.21790000796318054,0,0.0,0.0,,,,,0,,3,0.0,
Raw,2047539,1734070000000,,,-1330742678359877299,0.36922597885131836,30.287556000985205,-15.009183412964836,9.888599689069268,5,22,0.0,207,22394350147977,61,18.9,486.2246398925781,1.2914999723434448,0,0.0,0.0,,,,,0,,3,0.0,
Raw,2047539,1734070000000,,,-1330742678359877299,0.36922597885131836,30.287556000985205,-15.009183412964836,9.888599689069268,5,13,0.0,207,22394358006185,2597,17.0,656.65478515625,34.39350128173828,0,0.0,0.0,,,,,0,,3,0.0,
Raw,2047539,1734070000000,,,-1330742678359877299,0.36922597885131836,30.287556000985205,-15.009183412964836,9.888599689069268,5,15,0.0,207,22394350487959,11,33.8,-613.5606689453125,0.2379000037908554,0,0.0,0.0,,,,,0,,3,0.0,
Raw,2047540,1734070000000,,,-1330742678359877299,0.36922597885131836,30.287556000985205,-15.009183412964836,9.888599689069268,5,1,0.0,207,22394355169959,8,36.0,-745.2852172851562,0.24370001256465912,0,0.0,0.0,,,,,0,,3,0.0,
Raw,2047540,1734070000000,,,-1330742678359877299,0.36922597885131836,30.287556000985205,-15.009183412964836,9.888599689069268,5,24,0.0,207,22394360415895,7,37.9,-266.6260681152344,0.22059999406337738,0,0.0,0.0,,,,,0,,3,0.0,
Raw,2047540,1734070000000,,,-1330742678359877299,0.36922597885131836,30.287556000985205,-15.009183412964836,9.888599689069268,5,23,0.0,207,22394362193485,7,37.6,140.21726989746094,0.22360000014305115,0,0.0,0.0,,,,,0,,3,0.0,
Raw,2047540,1734070000000,,,-1330742678359877299,0.36922597885131836,30.287556000985205,-15.009183412964836,9.888599689069268,5,7,0.0,207,22394354317931,13,31.4,339.98797607421875,0.24620001018047333,0,0.0,0.0,,,,,0,,3,0.0,
Raw,2047540,1734070000000,,,-1330742678359877299,0.36922597885131836,30.287556000985205,-15.009183412964836,9.888599689069268,5,8,0.0,207,22394359123631,6,39.2,-282.5816650390625,0.24809999763965607,0,0.0,0.0,,,,,0,,3,0.0,
Raw,2047541,1734070000000,,,-1330742678359877299,0.36922597885131836,30.287556000985205,-15.009183412964836,9.888599689069268,5,2,0.0,15,184412349805125,12,32.8,456.1733093261719,0.03739999979734421,0,0.0,0.0,,,,,0,,1,0.0,
