# 
# Header Description:
# 
# Version: v2.0.0.1 Platform: 9 Manufacturer: samsung Model: SM-G960U
# 
# Raw,ElapsedRealtimeMillis,TimeNanos,LeapSecond,TimeUncertaintyNanos,FullBiasNanos,BiasNanos,BiasUncertaintyNanos,DriftNanosPerSecond,DriftUncertaintyNanosPerSecond,HardwareClockDiscontinuityCount,Svid,TimeOffsetNanos,State,ReceivedSvTimeNanos,ReceivedSvTimeUncertaintyNanos,Cn0DbHz,PseudorangeRateMetersPerSecond,PseudorangeRateUncertaintyMetersPerSecond,AccumulatedDeltaRangeState,AccumulatedDeltaRangeMeters,AccumulatedDeltaRangeUncertaintyMeters,CarrierFrequencyHz,CarrierCycles,CarrierPhase,CarrierPhaseUncertainty,MultipathIndicator,SnrInDb,ConstellationType,AgcDb,CarrierFrequencyHz
# 
# Fix,Provider,Latitude,Longitude,Altitude,Speed,Accuracy,(UTC)TimeInMs
# 
# Nav,Svid,Type,Status,MessageId,Sub-messageId,Data(Bytes)
# 
Raw,1980522,1667070000000,,,-1330742678359875222,0.2409191131591797,41.21548408875242,-53.010897382791576,11.555347333990984,5,14,0.0,207,22327359951922,5,40.6,-59.500640869140625,0.21790000796318054,0,0.0,0.0,,,,,0,,3,0.0,
Raw,1980522,1667070000000,,,-1330742678359875222,0.2409191131591797,41.21548408875242,-53.010897382791576,11.555347333990984,5,22,0.0,207,22327350255659,53,19.2,473.88873291015625,1.2115000486373901,0,0.0,0.0,,,,,0,,3,0.0,
Raw,1980522,1667070000000,,,-1330742678359875222,0.2409191131591797,41.21548408875242,-53.010897382791576,11.555347333990984,5,13,0.0,207,22327358152542,35,22.3,650.9150390625,1.0134999752044678,0,0.0,0.0,,,,,0,,3,0.0,
Raw,1980522,1667070000000,,,-1330742678359875222,0.2409191131591797,41.21548408875242,-53.010897382791576,11.555347333990984,5,15,0.0,207,22327350348845,70,17.5,-632.1279907226562,1.381500005722046,0,0.0,0.0,,,,,0,,3,0.0,
Raw,1980522,1667070000000,,,-1330742678359875222,0.2409191131591797,41.21548408875242,-53.010897382791576,11.555347333990984,5,1,0.0,207,22327355001934,6,38.9,-759.1846923828125,0.24260000884532928,0,0.0,0.0,,,,,0,,3,0.0,
Raw,1980522,1667070000000,,,-1330742678359875222,0.2409191131591797,41.21548408875242,-53.010897382791576,11.555347333990984,5,24,0.0,207,22327360354989,27,24.0,-279.8998107910156,0.8664999604225159,0,0.0,0.0,,,,,0,,3,0.0,
Raw,1980522,1667070000000,,,-1330742678359875222,0.2409191131591797,41.21548408875242,-53.010897382791576,11.555347333990984,5,23,0.0,207,22327362223564,21,26.7,126.64485931396484,0.3141999840736389,0,0.0,0.0,,,,,0,,3,0.0,
Raw,1980522,1667070000000,,,-1330742678359875222,0.2409191131591797,41.21548408875242,-53.010897382791576,11.555347333990984,5,7,0.0,207,22327354391693,9,35.6,319.2184143066406,0.24260000884532928,0,0.0,0.0,,,,,0,,3,0.0,
Raw,1980522,1667070000000,,,-1330742678359875222,0.2409191131591797,41.21548408875242,-53.010897382791576,11.555347333990984,5,8,0.0,207,22327359058262,6,39.3,-303.5241394042969,0.24809999763965607,0,0.0,0.0,,,,,0,,3,0.0,
Raw,1980523,1667070000000,,,-1330742678359875222,0.2409191131591797,41.21548408875242,-53.010897382791576,11.555347333990984,5,2,0.0,15,184345349906037,14,30.3,445.1629943847656,0.03930000215768814,0,0.0,0.0,,,,,0,,1,0.0,
Raw,1980523,1667070000000,,,-1330742678359875222,0.2409191131591797,41.21548408875242,-53.010897382791576,11.555347333990984,5,5,0.0,15,184345360795850,9,35.7,55.36540603637695,0.02160000056028366,0,0.0,0.0,,,,,0,,1,0.0,
Raw,1980523,1667070000000,,,-1330742678359875222,0.2409191131591797,41.21548408875242,-53.010897382791576,11.555347333990984,5,12,0.0,15,184345352758260,5,40.9,673.881103515625,0.03739999979734421,0,0.0,0.0,,,,,0,,1,0.0,
Raw,1980523,1667070000000,,,-1330742678359875222,0.2409191131591797,41.21548408875242,-53.010897382791576,11.555347333990984,5,18,0.0,15,184345356187814,9,35.0,-416.2460632324219,0.04560000076889992,0,0.0,0.0,,,,,0,,1,0.0,
Raw,1980523,1667070000000,,,-1330742678359875222,0.2409191131591797,41.21548408875242,-53.010897382791576,11.555347333990984,5,20,0.0,15,184345356725533,14,30.7,390.9396667480469,0.049800001084804535,0,0.0,0.0,,,,,0,,1,0.0,
Raw,1980523,1667070000000,,,-1330742678359875222,0.2409191131591797,41.21548408875242,-53.010897382791576,11.555347333990984,5,25,0.0,15,184345359989807,10,34.7,383.115478515625,0.020600000396370888,0,0.0,0.0,,,,,0,,1,0.0,
Raw,1980523,1667070000000,,,-1330742678359875222,0.2409191131591797,41.21548408875242,-53.010897382791576,11.555347333990984,5,26,0.0,15,184345349416082,13,31.1,-564.214111328125,0.038700003176927567,0,0.0,0.0,,,,,0,,1,0.0,
Raw,1980523,1667070000000,,,-1330742678359875222,0.2409191131591797,41.21548408875242,-53.010897382791576,11.555347333990984,5,29,0.0,15,184345360666755,11,33.5,-209.42303466796875,0.02290000021457672,0,0.0,0.0,,,,,0,,1,0.0,
Fix,gps,37.427355,-122.170348,-7.685303,0.000000,3.216000,1646709128000
NMEA,$GPGSV,3,1,12,02,25,056,30,05,59,087,36,12,28,163,41,18,37,257,35,1*60
,1646709127996
NMEA,$GPGSV,3,2,12,20,40,053,31,25,58,203,35,26,13,317,31,29,63,340,34,1*66
,1646709127997
NMEA,$GPGSV,3,3,12,13,00,000,,15,05,147,,23,05,201,,31,11,278,,1*6E
,1646709127997
NMEA,$GLGSV,3,1,11,78,39,292,41,86,08,070,19,77,33,219,22,79,07,336,18,1*76
,1646709127997
NMEA,$GLGSV,3,2,11,65,20,146,39,88,40,305,24,87,50,014,27,71,20,039,36,1*74
,1646709127997
NMEA,$GLGSV,3,3,11,72,35,092,39,76,00,000,,81,00,000,,1*42
,1646709127997
NMEA,$GAGSV,1,1,0,7*43
,1646709127997
NMEA,$PQGSV,1,1,0,0*43
,1646709127997
NMEA,$GBGSV,1,1,0,0*47
,1646709127997
NMEA,$GNGSA,A,3,02,05,12,18,20,25,26,29,,,,,1.0,0.7,0.8,1*38
,1646709127999
NMEA,$GNGSA,A,3,65,71,72,77,78,87,88,,,,,,1.0,0.7,0.8,2*3C
,1646709127999
NMEA,$GNVTG,,T,,M,0.0,N,0.0,K,A*3D
,1646709127999
NMEA,$GNGGA,031208.00,3725.641272,N,12210.220875,W,1,12,0.7,20.2,M,-27.9,M,,*70
,1646709127999
NMEA,$GNRMC,031208.00,A,3725.641272,N,12210.220875,W,0.0,,080322,15.0,E,A,V*57
,1646709127999
NMEA,$AIDSTAT,0,0,0,2,,23,3*00
,1646709128927
Raw,1981560,1668070000000,,,-1330742678359875275,0.7515788078308105,42.20703704049811,-51.86168774008295,10.57885235949586,5,14,0.0,207,22328359952114,6,39.6,-58.57048034667969,0.21809999644756317,0,0.0,0.0,,,,,0,,3,0.0,
Raw,1981560,1668070000000,,,-1330742678359875275,0.7515788078308105,42.20703704049811,-51.86168774008295,10.57885235949586,5,22,0.0,207,22328350254023,61,18.1,475.41546630859375,1.2914999723434448,0,0.0,0.0,,,,,0,,3,0.0,
Raw,1981560,1668070000000,,,-1330742678359875275,0.7515788078308105,42.20703704049811,-51.86168774008295,10.57885235949586,5,13,0.0,207,22328358150507,61,18.2,651.5704956054688,1.3034999370574951,0,0.0,0.0,,,,,0,,3,0.0,
Raw,1981561,1668070000000,,,-1330742678359875275,0.7515788078308105,42.20703704049811,-51.86168774008295,10.57885235949586,5,15,0.0,207,22328350350997,53,19.2,-630.7618408203125,1.2115000486373901,0,0.0,0.0,,,,,0,,3,0.0,
Raw,1981561,1668070000000,,,-1330742678359875275,0.7515788078308105,42.20703704049811,-51.86168774008295,10.57885235949586,5,1,0.0,207,22328355004499,7,37.9,-758.406494140625,0.24310000240802765,0,0.0,0.0,,,,,0,,3,0.0,
Raw,1981561,1668070000000,,,-1330742678359875275,0.7515788078308105,42.20703704049811,-51.86168774008295,10.57885235949586,5,24,0.0,207,22328360355886,19,27.3,-279.3348693847656,0.24130000174045563,0,0.0,0.0,,,,,0,,3,0.0,
Raw,1981561,1668070000000,,,-1330742678359875275,0.7515788078308105,42.20703704049811,-51.86168774008295,10.57885235949586,5,23,0.0,207,22328362223019,27,24.9,127.3057632446289,0.8694999814033508,0,0.0,0.0,,,,,0,,3,0.0,
Raw,1981561,1668070000000,,,-1330742678359875275,0.7515788078308105,42.20703704049811,-51.86168774008295,10.57885235949586,5,7,0.0,207,22328354390649,9,35.5,320.1435852050781,0.24260000884532928,0,0.0,0.0,,,,,0,,3,0.0,
Raw,1981561,1668070000000,,,-1330742678359875275,0.7515788078308105,42.20703704049811,-51.86168774008295,10.57885235949586,5,8,0.0,207,22328359059273,6,39.5,-302.6175231933594,0.24809999763965607,0,0.0,0.0,,,,,0,,3,0.0,
Raw,1981562,1668070000000,,,-1330742678359875275,0.7515788078308105,42.20703704049811,-51.86168774008295,10.57885235949586,5,2,0.0,15,184346349904518,13,31.5,446.000244140625,0.038700003176927567,0,0.0,0.0,,,,,0,,1,0.0,
Raw,1981562,1668070000000,,,-1330742678359875275,0.7515788078308105,42.20703704049811,-51.86168774008295,10.57885235949586,5,5,0.0,15,184346360795670,9,35.8,56.23259353637695,0.02160000056028366,0,0.0,0.0,,,,,0,,1,0.0,
Raw,1981563,1668070000000,,,-1330742678359875275,0.7515788078308105,42.20703704049811,-51.86168774008295,10.57885235949586,5,12,0.0,15,184346352756015,5,40.9,674.6544189453125,0.03739999979734421,0,0.0,0.0,,,,,0,,1,0.0,
Raw,1981563,1668070000000,,,-1330742678359875275,0.7515788078308105,42.20703704049811,-51.86168774008295,10.57885235949586,5,18,0.0,15,184346356189173,10,34.6,-415.47528076171875,0.04610000178217888,0,0.0,0.0,,,,,0,,1,0.0,
Raw,1981563,1668070000000,,,-1330742678359875275,0.7515788078308105,42.20703704049811,-51.86168774008295,10.57885235949586,5,20,0.0,15,184346356724230,12,32.2,391.7669677734375,0.0479000024497509,0,0.0,0.0,,,,,0,,1,0.0,
Raw,1981563,1668070000000,,,-1330742678359875275,0.7515788078308105,42.20703704049811,-51.86168774008295,10.57885235949586,5,25,0.0,15,184346359988505,9,35.2,383.94427490234375,0.020100001245737076,0,0.0,0.0,,,,,0,,1,0.0,
Raw,1981563,1668070000000,,,-1330742678359875275,0.7515788078308105,42.20703704049811,-51.86168774008295,10.57885235949586,5,26,0.0,15,184346349417969,13,31.8,-563.3961181640625,0.038700003176927567,0,0.0,0.0,,,,,0,,1,0.0,
Raw,1981564,1668070000000,,,-1330742678359875275,0.7515788078308105,42.20703704049811,-51.86168774008295,10.57885235949586,5,29,0.0,15,184346360667451,11,33.1,-208.59146118164062,0.02290000021457672,0,0.0,0.0,,,,,0,,1,0.0,
Fix,gps,37.427355,-122.170348,-7.682037,0.000000,3.216000,1646709129000
NMEA,$GPGSV,3,1,12,02,25,056,32,05,59,087,36,12,28,163,41,18,37,257,35,1*62
,1646709129010
NMEA,$GPGSV,3,2,12,20,40,053,32,25,58,203,35,26,13,317,32,29,63,340,33,1*61
,1646709129011
NMEA,$GPGSV,3,3,12,13,00,000,,15,05,147,,23,05,201,,31,11,278,,1*6E
,1646709129011
NMEA,$GLGSV,3,1,11,78,39,292,40,86,08,070,18,77,33,219,18,79,07,336,19,1*7E
,1646709129012
NMEA,$GLGSV,3,2,11,65,20,146,38,88,40,306,27,87,49,016,25,71,20,039,36,1*7D
,1646709129012
NMEA,$GLGSV,3,3,11,72,35,092,40,76,00,000,,81,00,000,,1*4C
,1646709129012
NMEA,$GAGSV,1,1,0,7*43
,1646709129012
NMEA,$PQGSV,1,1,0,0*43
,1646709129013
NMEA,$GBGSV,1,1,0,0*47
,1646709129017
NMEA,$GNGSA,A,3,02,05,12,18,20,25,26,29,,,,,1.0,0.7,0.8,1*38
,1646709129024
NMEA,$GNGSA,A,3,65,71,72,77,78,87,88,,,,,,1.0,0.7,0.8,2*3C
,1646709129024
NMEA,$GNVTG,,T,,M,0.0,N,0.0,K,A*3D
,1646709129024
NMEA,$GNGGA,031209.00,3725.641270,N,12210.220877,W,1,12,0.7,20.3,M,-27.9,M,,*70
,1646709129025
NMEA,$GNRMC,031209.00,A,3725.641270,N,12210.220877,W,0.0,,080322,15.0,E,A,V*56
,1646709129027
NMEA,$AIDSTAT,0,0,0,2,,23,3*00
,1646709129926
Raw,1982516,1669070000000,,,-1330742678359875322,0.2615780830383301,42.17732202960178,-49.29455648066015,9.602278652401898,5,14,0.0,207,22329359952307,5,40.3,-57.595359802246094,0.21790000796318054,0,0.0,0.0,,,,,0,,3,0.0,
Raw,1982516,1669070000000,,,-1330742678359875322,0.2615780830383301,42.17732202960178,-49.29455648066015,9.602278652401898,5,22,0.0,207,22329350252433,35,22.2,477.27008056640625,1.0015000104904175,0,0.0,0.0,,,,,0,,3,0.0,
Raw,1982516,1669070000000,,,-1330742678359875322,0.2615780830383301,42.17732202960178,-49.29455648066015,9.602278652401898,5,13,0.0,207,22329358148412,46,20.1,652.1416625976562,1.1434999704360962,0,0.0,0.0,,,,,0,,3,0.0,
Raw,1982516,1669070000000,,,-1330742678359875322,0.2615780830383301,42.17732202960178,-49.29455648066015,9.602278652401898,5,15,0.0,207,22329350353101,62,19.2,-630.7618408203125,2.7115001678466797,0,0.0,0.0,,,,,0,,3,0.0,
Raw,1982517,1669070000000,,,-1330742678359875322,0.2615780830383301,42.17732202960178,-49.29455648066015,9.602278652401898,5,1,0.0,207,22329355007027,6,38.1,-757.60009765625,0.24260000884532928,0,0.0,0.0,,,,,0,,3,0.0,
Raw,1982517,1669070000000,,,-1330742678359875322,0.2615780830383301,42.17732202960178,-49.29455648066015,9.602278652401898,5,24,0.0,207,22329360356858,16,29.3,-278.4832763671875,0.22669999301433563,0,0.0,0.0,,,,,0,,3,0.0,
Raw,1982517,1669070000000,,,-1330742678359875322,0.2615780830383301,42.17732202960178,-49.29455648066015,9.602278652401898,5,23,0.0,207,22329362222591,70,17.1,127.77310943603516,1.3695000410079956,0,0.0,0.0,,,,,0,,3,0.0,
Raw,1982517,1669070000000,,,-1330742678359875322,0.2615780830383301,42.17732202960178,-49.29455648066015,9.602278652401898,5,7,0.0,207,22329354389516,13,31.9,321.0843200683594,0.24620001018047333,0,0.0,0.0,,,,,0,,3,0.0,
Raw,1982517,1669070000000,,,-1330742678359875322,0.2615780830383301,42.17732202960178,-49.29455648066015,9.602278652401898,5,8,0.0,207,22329359060282,5,40.4,-301.67822265625,0.24790000915527344,0,0.0,0.0,,,,,0,,3,0.0,
Raw,1982518,1669070000000,,,-1330742678359875322,0.2615780830383301,42.17732202960178,-49.29455648066015,9.602278652401898,5,2,0.0,15,184347349903070,13,31.8,446.79925537109375,0.038700003176927567,0,0.0,0.0,,,,,0,,1,0.0,
Raw,1982518,1669070000000,,,-1330742678359875322,0.2615780830383301,42.17732202960178,-49.29455648066015,9.602278652401898,5,5,0.0,15,184347360795480,7,37.4,57.17731857299805,0.020600000396370888,0,0.0,0.0,,,,,0,,1,0.0,
Raw,1982518,1669070000000,,,-1330742678359875322,0.2615780830383301,42.17732202960178,-49.29455648066015,9.602278652401898,5,12,0.0,15,184347352753751,4,42.9,675.4716796875,0.03680000081658363,0,0.0,0.0,,,,,0,,1,0.0,
Raw,1982518,1669070000000,,,-1330742678359875322,0.2615780830383301,42.17732202960178,-49.29455648066015,9.602278652401898,5,18,0.0,15,184347356190578,9,35.2,-414.57421875,0.04560000076889992,0,0.0,0.0,,,,,0,,1,0.0,
Raw,1982518,1669070000000,,,-1330742678359875322,0.2615780830383301,42.17732202960178,-49.29455648066015,9.602278652401898,5,20,0.0,15,184347356722884,9,35.7,392.6573181152344,0.04560000076889992,0,0.0,0.0,,,,,0,,1,0.0,
Raw,1982519,1669070000000,,,-1330742678359875322,0.2615780830383301,42.17732202960178,-49.29455648066015,9.602278652401898,5,25,0.0,15,184347359987205,7,37.8,384.84765625,0.019100001081824303,0,0.0,0.0,,,,,0,,1,0.0,
Raw,1982519,1669070000000,,,-1330742678359875322,0.2615780830383301,42.17732202960178,-49.29455648066015,9.602278652401898,5,26,0.0,15,184347349419807,10,34.8,-562.4891967773438,0.035600002855062485,0,0.0,0.0,,,,,0,,1,0.0,
Raw,1982519,1669070000000,,,-1330742678359875322,0.2615780830383301,42.17732202960178,-49.29455648066015,9.602278652401898,5,29,0.0,15,184347360668153,10,34.2,-207.7440948486328,0.022099999710917473,0,0.0,0.0,,,,,0,,1,0.0,
Raw,1982519,1669070000000,,,-1330742678359875322,0.2615780830383301,42.17732202960178,-49.29455648066015,9.602278652401898,5,31,0.0,15,184347347139097,752,16.8,284.3843994140625,2.3320000171661377,0,0.0,0.0,,,,,0,,1,0.0,
Fix,gps,37.427354,-122.170348,-7.677673,0.000000,3.216000,1646709130000
NMEA,$GPGSV,3,1,12,02,25,056,32,05,59,087,37,12,28,163,43,18,37,257,35,1*61
,1646709130002
NMEA,$GPGSV,3,2,12,20,40,053,36,25,58,203,38,26,13,317,35,29,63,340,34,1*68
,1646709130002
NMEA,$GPGSV,3,3,12,31,11,278,17,13,00,000,,15,05,147,,23,05,201,,1*68
,1646709130002
NMEA,$GLGSV,3,1,11,78,39,292,40,86,08,070,22,77,33,219,20,79,07,336,19,1*7C
,1646709130006
NMEA,$GLGSV,3,2,11,65,20,146,38,88,40,306,29,87,49,016,17,71,20,039,32,1*76
,1646709130007
NMEA,$GLGSV,3,3,11,72,35,092,40,76,00,000,,81,00,000,,1*4C
,1646709130007
NMEA,$GAGSV,1,1,0,7*43
,1646709130007
NMEA,$PQGSV,1,1,0,0*43
,1646709130007
NMEA,$GBGSV,1,1,0,0*47
,1646709130007
NMEA,$GNGSA,A,3,02,05,12,18,20,25,26,29,,,,,1.0,0.7,0.8,1*38
,1646709130009
NMEA,$GNGSA,A,3,65,71,72,77,78,86,87,88,,,,,1.0,0.7,0.8,2*32
,1646709130010
NMEA,$GNVTG,,T,,M,0.0,N,0.0,K,A*3D
,1646709130010
NMEA,$GNGGA,031210.00,3725.641267,N,12210.220879,W,1,12,0.7,20.3,M,-27.9,M,,*70
,1646709130010
NMEA,$GNRMC,031210.00,A,3725.641267,N,12210.220879,W,0.0,,080322,15.0,E,A,V*56
,1646709130010
NMEA,$AIDSTAT,0,0,0,2,90,23,3*00
,1646709130926
Raw,1983531,1670070000000,,,-1330742678359875364,0.01678609848022461,42.70879435352981,-46.570968437044975,9.602281038238226,5,14,0.0,207,22330359952519,7,37.0,-56.619197845458984,0.2190999984741211,0,0.0,0.0,,,,,0,,3,0.0,
Raw,1983531,1670070000000,,,-1330742678359875364,0.01678609848022461,42.70879435352981,-46.570968437044975,9.602281038238226,5,22,0.0,207,22330350250983,27,24.0,477.9632263183594,0.8814999461174011,0,0.0,0.0,,,,,0,,3,0.0,
Raw,1983531,1670070000000,,,-1330742678359875364,0.01678609848022461,42.70879435352981,-46.570968437044975,9.602281038238226,5,13,0.0,207,22330358146226,46,20.5,653.7240600585938,1.1434999704360962,0,0.0,0.0,,,,,0,,3,0.0,
Raw,1983532,1670070000000,,,-1330742678359875364,0.01678609848022461,42.70879435352981,-46.570968437044975,9.602281038238226,5,15,0.0,207,22330350355306,56,19.8,-628.2635498046875,1.9615000486373901,0,0.0,0.0,,,,,0,,3,0.0,
Raw,1983532,1670070000000,,,-1330742678359875364,0.01678609848022461,42.70879435352981,-46.570968437044975,9.602281038238226,5,1,0.0,207,22330355009569,7,37.6,-756.7860107421875,0.24310000240802765,0,0.0,0.0,,,,,0,,3,0.0,
Raw,1983532,1670070000000,,,-1330742678359875364,0.01678609848022461,42.70879435352981,-46.570968437044975,9.602281038238226,5,24,0.0,207,22330360357785,12,32.3,-277.6888732910156,0.22390000522136688,0,0.0,0.0,,,,,0,,3,0.0,
Raw,1983532,1670070000000,,,-1330742678359875364,0.01678609848022461,42.70879435352981,-46.570968437044975,9.602281038238226,5,23,0.0,207,22330362222109,40,21.2,129.40882873535156,1.0494999885559082,0,0.0,0.0,,,,,0,,3,0.0,
Raw,1983532,1670070000000,,,-1330742678359875364,0.01678609848022461,42.70879435352981,-46.570968437044975,9.602281038238226,5,7,0.0,207,22330354388408,16,29.6,321.99853515625,0.24770000576972961,0,0.0,0.0,,,,,0,,3,0.0,
Raw,1983533,1670070000000,,,-1330742678359875364,0.01678609848022461,42.70879435352981,-46.570968437044975,9.602281038238226,5,8,0.0,207,22330359061295,5,40.7,-300.7599182128906,0.24790000915527344,0,0.0,0.0,,,,,0,,3,0.0,
Raw,1983533,1670070000000,,,-1330742678359875364,0.01678609848022461,42.70879435352981,-46.570968437044975,9.602281038238226,5,2,0.0,15,184348349901558,12,32.1,447.51202392578125,0.03739999979734421,0,0.0,0.0,,,,,0,,1,0.0,
Raw,1983533,1670070000000,,,-1330742678359875364,0.01678609848022461,42.70879435352981,-46.570968437044975,9.602281038238226,5,5,0.0,15,184348360795283,8,36.0,58.05317687988281,0.02120000123977661,0,0.0,0.0,,,,,0,,1,0.0,
Raw,1983533,1670070000000,,,-1330742678359875364,0.01678609848022461,42.70879435352981,-46.570968437044975,9.602281038238226,5,12,0.0,15,184348352751497,4,42.8,676.3118286132812,0.03680000081658363,0,0.0,0.0,,,,,0,,1,0.0,
Raw,1983533,1670070000000,,,-1330742678359875364,0.01678609848022461,42.70879435352981,-46.570968437044975,9.602281038238226,5,18,0.0,15,184348356191964,10,34.9,-413.7145690917969,0.04610000178217888,0,0.0,0.0,,,,,0,,1,0.0,
Raw,1983533,1670070000000,,,-1330742678359875364,0.01678609848022461,42.70879435352981,-46.570968437044975,9.602281038238226,5,20,0.0,15,184348356721567,9,35.0,393.5200500488281,0.04560000076889992,0,0.0,0.0,,,,,0,,1,0.0,
Raw,1983533,1670070000000,,,-1330742678359875364,0.01678609848022461,42.70879435352981,-46.570968437044975,9.602281038238226,5,25,0.0,15,184348359985910,6,38.5,385.7349548339844,0.01860000006854534,0,0.0,0.0,,,,,0,,1,0.0,
Raw,1983533,1670070000000,,,-1330742678359875364,0.01678609848022461,42.70879435352981,-46.570968437044975,9.602281038238226,5,26,0.0,15,184348349421672,10,34.2,-561.6607055664062,0.035600002855062485,0,0.0,0.0,,,,,0,,1,0.0,
Raw,1983533,1670070000000,,,-1330742678359875364,0.01678609848022461,42.70879435352981,-46.570968437044975,9.602281038238226,5,29,0.0,15,184348360668860,14,30.9,-206.94390869140625,0.025800000876188278,0,0.0,0.0,,,,,0,,1,0.0,
NMEA,$GPGSV,3,1,12,02,25,056,32,05,59,087,36,12,28,163,43,18,37,257,35,1*60
,1646709130998
NMEA,$GPGSV,3,2,12,20,40,053,35,25,58,203,39,26,13,317,34,29,63,340,31,1*6E
,1646709130999
NMEA,$GPGSV,3,3,12,13,00,000,,15,05,147,,23,05,201,,31,11,278,,1*6E
,1646709130999
NMEA,$GLGSV,3,1,11,78,39,292,37,86,08,070,24,77,33,219,21,79,07,336,20,1*71
,1646709130999
NMEA,$GLGSV,3,2,11,65,20,146,38,88,40,306,32,87,49,016,21,71,20,039,30,1*7B
,1646709130999
NMEA,$GLGSV,3,3,11,72,35,092,41,76,00,000,,81,00,000,,1*4D
,1646709130999
NMEA,$GAGSV,1,1,0,7*43
,1646709130999
NMEA,$PQGSV,1,1,0,0*43
,1646709130999
NMEA,$GBGSV,1,1,0,0*47
,1646709131000
Fix,gps,37.427354,-122.170348,-7.676666,0.000000,3.216000,1646709131000
NMEA,$GNGSA,A,3,02,05,12,18,20,25,26,29,,,,,1.0,0.7,0.8,1*38
,1646709131006
NMEA,$GNGSA,A,3,65,71,72,77,78,86,87,88,,,,,1.0,0.7,0.8,2*32
,1646709131006
NMEA,$GNVTG,,T,,M,0.0,N,0.0,K,A*3D
,1646709131006
NMEA,$GNGGA,031211.00,3725.641265,N,12210.220881,W,1,12,0.7,20.3,M,-27.9,M,,*74
,1646709131006
NMEA,$GNRMC,031211.00,A,3725.641265,N,12210.220881,W,0.0,,080322,15.0,E,A,V*52
,1646709131007
NMEA,$AIDSTAT,0,0,0,2,96,23,3*00
,1646709131924
Raw,1984536,1671070000000,,,-1330742678359875409,0.6783809661865234,43.205021938774735,-43.96527570032352,10.58043894065431,5,14,0.0,207,22331359952714,7,37.8,-56.24869918823242,0.2190999984741211,0,0.0,0.0,,,,,0,,3,0.0,
Raw,1984536,1671070000000,,,-1330742678359875409,0.6783809661865234,43.205021938774735,-43.96527570032352,10.58043894065431,5,22,0.0,207,22331350249465,35,22.7,478.3940734863281,1.0015000104904175,0,0.0,0.0,,,,,0,,3,0.0,
Raw,1984536,1671070000000,,,-1330742678359875409,0.6783809661865234,43.205021938774735,-43.96527570032352,10.58043894065431,5,13,0.0,207,22331358143915,40,21.9,653.7521362304688,1.0734999179840088,0,0.0,0.0,,,,,0,,3,0.0,
Raw,1984537,1671070000000,,,-1330742678359875409,0.6783809661865234,43.205021938774735,-43.96527570032352,10.58043894065431,5,15,0.0,207,22331350357529,81,16.8,-629.07763671875,1.471500039100647,0,0.0,0.0,,,,,0,,3,0.0,
Raw,1984537,1671070000000,,,-1330742678359875409,0.6783809661865234,43.205021938774735,-43.96527570032352,10.58043894065431,5,1,0.0,207,22331355012069,6,38.4,-756.4235229492188,0.24260000884532928,0,0.0,0.0,,,,,0,,3,0.0,
Raw,1984537,1671070000000,,,-1330742678359875409,0.6783809661865234,43.205021938774735,-43.96527570032352,10.58043894065431,5,24,0.0,207,22331360358739,16,29.3,-277.4039611816406,0.22669999301433563,0,0.0,0.0,,,,,0,,3,0.0,
Raw,1984537,1671070000000,,,-1330742678359875409,0.6783809661865234,43.205021938774735,-43.96527570032352,10.58043894065431,5,23,0.0,207,22331362221857,53,19.1,128.7825927734375,1.1995000839233398,0,0.0,0.0,,,,,0,,3,0.0,
Raw,1984537,1671070000000,,,-1330742678359875409,0.6783809661865234,43.205021938774735,-43.96527570032352,10.58043894065431,5,7,0.0,207,22331354387358,14,30.9,322.4590759277344,0.2468000054359436,0,0.0,0.0,,,,,0,,3,0.0,
Raw,1984537,1671070000000,,,-1330742678359875409,0.6783809661865234,43.205021938774735,-43.96527570032352,10.58043894065431,5,8,0.0,207,22331359062302,6,39.9,-300.3525085449219,0.24809999763965607,0,0.0,0.0,,,,,0,,3,0.0,
Raw,1984537,1671070000000,,,-1330742678359875409,0.6783809661865234,43.205021938774735,-43.96527570032352,10.58043894065431,5,2,0.0,15,184349349900073,13,31.3,447.78887939453125,0.038700003176927567,0,0.0,0.0,,,,,0,,1,0.0,
Raw,1984538,1671070000000,,,-1330742678359875409,0.6783809661865234,43.205021938774735,-43.96527570032352,10.58043894065431,5,5,0.0,15,184349360795071,9,35.6,58.46654510498047,0.02160000056028366,0,0.0,0.0,,,,,0,,1,0.0,
Raw,1984538,1671070000000,,,-1330742678359875409,0.6783809661865234,43.205021938774735,-43.96527570032352,10.58043894065431,5,12,0.0,15,184349352749247,4,42.6,676.649658203125,0.03680000081658363,0,0.0,0.0,,,,,0,,1,0.0,
Raw,1984538,1671070000000,,,-1330742678359875409,0.6783809661865234,43.205021938774735,-43.96527570032352,10.58043894065431,5,18,0.0,15,184349356193343,11,33.6,-413.42181396484375,0.04690000042319298,0,0.0,0.0,,,,,0,,1,0.0,
Raw,1984538,1671070000000,,,-1330742678359875409,0.6783809661865234,43.205021938774735,-43.96527570032352,10.58043894065431,5,20,0.0,15,184349356720254,8,36.0,393.88861083984375,0.04520000144839287,0,0.0,0.0,,,,,0,,1,0.0,
Raw,1984538,1671070000000,,,-1330742678359875409,0.6783809661865234,43.205021938774735,-43.96527570032352,10.58043894065431,5,25,0.0,15,184349359984635,6,38.3,386.1150207519531,0.01860000006854534,0,0.0,0.0,,,,,0,,1,0.0,
Raw,1984538,1671070000000,,,-1330742678359875409,0.6783809661865234,43.205021938774735,-43.96527570032352,10.58043894065431,5,26,0.0,15,184349349423540,17,28.6,-561.4183349609375,0.046800002455711365,0,0.0,0.0,,,,,0,,1,0.0,
Raw,1984539,1671070000000,,,-1330742678359875409,0.6783809661865234,43.205021938774735,-43.96527570032352,10.58043894065431,5,29,0.0,15,184349360669581,11,33.6,-206.6229248046875,0.02290000021457672,0,0.0,0.0,,,,,0,,1,0.0,
Fix,gps,37.427354,-122.170348,-7.671600,0.000000,3.216000,1646709132000
NMEA,$GPGSV,3,1,12,02,25,056,31,05,59,087,36,12,28,163,43,18,37,257,34,1*62
,1646709132003
NMEA,$GPGSV,3,2,12,20,40,053,36,25,58,203,38,26,13,317,29,29,63,340,34,1*65
,1646709132003
NMEA,$GPGSV,3,3,12,13,00,000,,15,05,147,,23,05,201,,31,11,278,,1*6E
,1646709132004
NMEA,$GLGSV,3,1,11,78,39,292,38,86,08,070,23,77,33,219,22,79,07,336,17,1*7E
,1646709132004
NMEA,$GLGSV,3,2,11,65,20,146,38,88,40,306,29,87,49,016,19,71,20,039,31,1*7B
,1646709132004
NMEA,$GLGSV,3,3,11,72,35,092,40,76,00,000,,81,00,000,,1*4C
,1646709132004
NMEA,$GAGSV,1,1,0,7*43
,1646709132004
NMEA,$PQGSV,1,1,0,0*43
,1646709132004
NMEA,$GBGSV,1,1,0,0*47
,1646709132005
NMEA,$GNGSA,A,3,02,05,12,18,20,25,26,29,,,,,1.0,0.7,0.8,1*38
,1646709132007
NMEA,$GNGSA,A,3,65,71,72,77,78,86,87,88,,,,,1.0,0.7,0.8,2*32
,1646709132007
NMEA,$GNVTG,,T,,M,0.0,N,0.0,K,A*3D
,1646709132008
NMEA,$GNGGA,031212.00,3725.641263,N,12210.220882,W,1,12,0.7,20.3,M,-27.9,M,,*72
,1646709132013
NMEA,$GNRMC,031212.00,A,3725.641263,N,12210.220882,W,0.0,,080322,15.0,E,A,V*54
,1646709132014
NMEA,$AIDSTAT,0,0,0,2,,23,3*00
,1646709132924
Raw,1985515,1672070000000,,,-1330742678359875450,0.342559814453125,43.991902202833444,-43.090535849959856,10.760085258680865,5,14,0.0,207,22332359952863,6,38.6,-55.972007751464844,0.21860000491142273,0,0.0,0.0,,,,,0,,3,0.0,
Raw,1985515,1672070000000,,,-1330742678359875450,0.342559814453125,43.991902202833444,-43.090535849959856,10.760085258680865,5,22,0.0,207,22332350247764,46,20.9,477.75714111328125,1.131500005722046,0,0.0,0.0,,,,,0,,3,0.0,
Raw,1985515,1672070000000,,,-1330742678359875450,0.342559814453125,43.991902202833444,-43.090535849959856,10.760085258680865,5,13,0.0,207,22332358141842,35,22.1,655.0536499023438,1.0134999752044678,0,0.0,0.0,,,,,0,,3,0.0,
Raw,1985515,1672070000000,,,-1330742678359875450,0.342559814453125,43.991902202833444,-43.090535849959856,10.760085258680865,5,15,0.0,207,22332350359419,81,16.7,-628.2073974609375,1.471500039100647,0,0.0,0.0,,,,,0,,3,0.0,
Raw,1985515,1672070000000,,,-1330742678359875450,0.342559814453125,43.991902202833444,-43.090535849959856,10.760085258680865,5,1,0.0,207,22332355014591,6,38.4,-756.3206787109375,0.24260000884532928,0,0.0,0.0,,,,,0,,3,0.0,
Raw,1985515,1672070000000,,,-1330742678359875450,0.342559814453125,43.991902202833444,-43.090535849959856,10.760085258680865,5,24,0.0,207,22332360359677,27,24.7,-277.27239990234375,0.8664999604225159,0,0.0,0.0,,,,,0,,3,0.0,
Raw,1985515,1672070000000,,,-1330742678359875450,0.342559814453125,43.991902202833444,-43.090535849959856,10.760085258680865,5,23,0.0,207,22332362221387,35,22.0,129.7453155517578,0.9894999861717224,0,0.0,0.0,,,,,0,,3,0.0,
Raw,1985515,1672070000000,,,-1330742678359875450,0.342559814453125,43.991902202833444,-43.090535849959856,10.760085258680865,5,7,0.0,207,22332354386361,12,32.8,322.6308898925781,0.24490001797676086,0,0.0,0.0,,,,,0,,3,0.0,
Raw,1985515,1672070000000,,,-1330742678359875450,0.342559814453125,43.991902202833444,-43.090535849959856,10.760085258680865,5,8,0.0,207,22332359063336,6,38.5,-300.09979248046875,0.24860000610351562,0,0.0,0.0,,,,,0,,3,0.0,
Raw,1985515,1672070000000,,,-1330742678359875450,0.342559814453125,43.991902202833444,-43.090535849959856,10.760085258680865,5,2,0.0,15,184350349898580,14,30.8,447.83306884765625,0.03930000215768814,0,0.0,0.0,,,,,0,,1,0.0,
Raw,1985515,1672070000000,,,-1330742678359875450,0.342559814453125,43.991902202833444,-43.090535849959856,10.760085258680865,5,5,0.0,15,184350360794883,10,34.9,58.68452835083008,0.022099999710917473,0,0.0,0.0,,,,,0,,1,0.0,
Raw,1985515,1672070000000,,,-1330742678359875450,0.342559814453125,43.991902202833444,-43.090535849959856,10.760085258680865,5,12,0.0,15,184350352746998,5,41.3,676.7598876953125,0.03710000216960907,0,0.0,0.0,,,,,0,,1,0.0,
Raw,1985515,1672070000000,,,-1330742678359875450,0.342559814453125,43.991902202833444,-43.090535849959856,10.760085258680865,5,18,0.0,15,184350356194699,11,33.5,-413.2911376953125,0.04690000042319298,0,0.0,0.0,,,,,0,,1,0.0,
Raw,1985515,1672070000000,,,-1330742678359875450,0.342559814453125,43.991902202833444,-43.090535849959856,10.760085258680865,5,20,0.0,15,184350356718951,10,34.2,394.0613098144531,0.04610000178217888,0,0.0,0.0,,,,,0,,1,0.0,
Raw,1985516,1672070000000,,,-1330742678359875450,0.342559814453125,43.991902202833444,-43.090535849959856,10.760085258680865,5,25,0.0,15,184350359983357,7,37.5,386.3036193847656,0.019100001081824303,0,0.0,0.0,,,,,0,,1,0.0,
Raw,1985516,1672070000000,,,-1330742678359875450,0.342559814453125,43.991902202833444,-43.090535849959856,10.760085258680865,5,26,0.0,15,184350349425468,27,24.9,-561.4043579101562,0.5900000333786011,0,0.0,0.0,,,,,0,,1,0.0,
Raw,1985516,1672070000000,,,-1330742678359875450,0.342559814453125,43.991902202833444,-43.090535849959856,10.760085258680865,5,29,0.0,15,184350360670256,11,33.3,-206.44590759277344,0.02290000021457672,0,0.0,0.0,,,,,0,,1,0.0,
Fix,gps,37.427354,-122.170348,-7.668121,0.000000,3.216000,1646709133000
NMEA,$GPGSV,3,1,12,02,25,056,31,05,59,087,35,12,28,163,41,18,37,257,34,1*63
,1646709132998
NMEA,$GPGSV,3,2,12,20,39,052,34,25,58,203,38,26,13,317,25,29,63,340,33,1*63
,1646709132999
NMEA,$GPGSV,3,3,12,13,00,000,,15,05,147,,23,05,201,,31,11,278,,1*6E
,1646709132999
NMEA,$GLGSV,3,1,11,78,39,292,39,86,08,070,21,77,33,219,22,79,07,336,17,1*7D
,1646709132999
NMEA,$GLGSV,3,2,11,65,20,146,38,88,40,306,25,87,49,016,22,71,20,039,33,1*7D
,1646709132999
NMEA,$GLGSV,3,3,11,72,35,092,39,76,00,000,,81,00,000,,1*42
,1646709132999
NMEA,$GAGSV,1,1,0,7*43
,1646709132999
NMEA,$PQGSV,1,1,0,0*43
,1646709132999
NMEA,$GBGSV,1,1,0,0*47
,1646709132999
NMEA,$GNGSA,A,3,02,05,12,18,20,25,26,29,,,,,1.0,0.7,0.8,1*38
,1646709133001
NMEA,$GNGSA,A,3,65,71,72,77,78,86,87,88,,,,,1.0,0.7,0.8,2*32
,1646709133001
NMEA,$GNVTG,,T,,M,0.0,N,0.0,K,A*3D
,1646709133001
NMEA,$GNGGA,031213.00,3725.641261,N,12210.220884,W,1,12,0.7,20.3,M,-27.9,M,,*77
,1646709133001
NMEA,$GNRMC,031213.00,A,3725.641261,N,12210.220884,W,0.0,,080322,15.0,E,A,V*51
,1646709133001
NMEA,$AIDSTAT,0,0,0,2,,23,3*00
,1646709133927
Raw,1986506,1673070000000,,,-1330742678359875491,0.5580816268920898,43.60797902336344,-43.00610587396714,10.767078940238456,5,14,0.0,207,22333359953029,8,36.8,-55.95620346069336,0.21970000863075256,0,0.0,0.0,,,,,0,,3,0.0,
Raw,1986506,1673070000000,,,-1330742678359875491,0.5580816268920898,43.60797902336344,-43.00610587396714,10.767078940238456,5,22,0.0,207,22333350246291,46,20.1,478.64697265625,1.131500005722046,0,0.0,0.0,,,,,0,,3,0.0,
Raw,1986507,1673070000000,,,-1330742678359875491,0.5580816268920898,43.60797902336344,-43.00610587396714,10.767078940238456,5,13,0.0,207,22333358139850,46,20.4,654.4075927734375,1.1434999704360962,0,0.0,0.0,,,,,0,,3,0.0,
Raw,1986507,1673070000000,,,-1330742678359875491,0.5580816268920898,43.60797902336344,-43.00610587396714,10.767078940238456,5,15,0.0,207,22333350361514,91,16.7,-628.2073974609375,2.9715001583099365,0,0.0,0.0,,,,,0,,3,0.0,
Raw,1986507,1673070000000,,,-1330742678359875491,0.5580816268920898,43.60797902336344,-43.00610587396714,10.767078940238456,5,1,0.0,207,22333355017106,7,37.6,-756.4258422851562,0.24310000240802765,0,0.0,0.0,,,,,0,,3,0.0,
Raw,1986507,1673070000000,,,-1330742678359875491,0.5580816268920898,43.60797902336344,-43.00610587396714,10.767078940238456,5,24,0.0,207,22333360360577,14,30.3,-277.406494140625,0.22579999268054962,0,0.0,0.0,,,,,0,,3,0.0,
Raw,1986507,1673070000000,,,-1330742678359875491,0.5580816268920898,43.60797902336344,-43.00610587396714,10.767078940238456,5,23,0.0,207,22333362220954,43,22.0,129.7453155517578,2.489500045776367,0,0.0,0.0,,,,,0,,3,0.0,
Raw,1986507,1673070000000,,,-1330742678359875491,0.5580816268920898,43.60797902336344,-43.00610587396714,10.767078940238456,5,7,0.0,207,22333354385277,14,30.2,322.6397705078125,0.2468000054359436,0,0.0,0.0,,,,,0,,3,0.0,
Raw,1986507,1673070000000,,,-1330742678359875491,0.5580816268920898,43.60797902336344,-43.00610587396714,10.767078940238456,5,8,0.0,207,22333359064324,6,39.1,-300.04730224609375,0.24809999763965607,0,0.0,0.0,,,,,0,,3,0.0,
Raw,1986507,1673070000000,,,-1330742678359875491,0.5580816268920898,43.60797902336344,-43.00610587396714,10.767078940238456,5,2,0.0,15,184351349897088,13,31.6,447.73388671875,0.038700003176927567,0,0.0,0.0,,,,,0,,1,0.0,
Raw,1986508,1673070000000,,,-1330742678359875491,0.5580816268920898,43.60797902336344,-43.00610587396714,10.767078940238456,5,5,0.0,15,184351360794669,9,35.1,58.671897888183594,0.02160000056028366,0,0.0,0.0,,,,,0,,1,0.0,
Raw,1986508,1673070000000,,,-1330742678359875491,0.5580816268920898,43.60797902336344,-43.00610587396714,10.767078940238456,5,12,0.0,15,184351352744733,4,42.2,676.6607055664062,0.03680000081658363,0,0.0,0.0,,,,,0,,1,0.0,
Raw,1986508,1673070000000,,,-1330742678359875491,0.5580816268920898,43.60797902336344,-43.00610587396714,10.767078940238456,5,18,0.0,15,184351356196085,11,33.0,-413.37200927734375,0.04690000042319298,0,0.0,0.0,,,,,0,,1,0.0,
Raw,1986509,1673070000000,,,-1330742678359875491,0.5580816268920898,43.60797902336344,-43.00610587396714,10.767078940238456,5,20,0.0,15,184351356717637,12,32.5,394.0037536621094,0.0479000024497509,0,0.0,0.0,,,,,0,,1,0.0,
Raw,1986509,1673070000000,,,-1330742678359875491,0.5580816268920898,43.60797902336344,-43.00610587396714,10.767078940238456,5,25,0.0,15,184351359982053,7,37.8,386.21307373046875,0.019100001081824303,0,0.0,0.0,,,,,0,,1,0.0,
Raw,1986509,1673070000000,,,-1330742678359875491,0.5580816268920898,43.60797902336344,-43.00610587396714,10.767078940238456,5,26,0.0,15,184351349427350,31,23.2,-561.3758544921875,0.6300000548362732,0,0.0,0.0,,,,,0,,1,0.0,
Raw,1986509,1673070000000,,,-1330742678359875491,0.5580816268920898,43.60797902336344,-43.00610587396714,10.767078940238456,5,29,0.0,15,184351360670937,12,32.5,-206.53919982910156,0.023900000378489494,0,0.0,0.0,,,,,0,,1,0.0,
Fix,gps,37.427354,-122.170348,-7.666595,0.000000,3.216000,1646709134000
NMEA,$GPGSV,3,1,12,02,24,056,32,05,59,084,35,12,28,163,42,18,37,257,33,1*66
,1646709134008
NMEA,$GPGSV,3,2,12,20,39,052,33,25,57,203,38,26,14,317,23,29,64,341,33,1*6C
,1646709134009
NMEA,$GPGSV,3,3,12,13,01,115,,15,06,147,,23,07,201,,31,11,278,,1*6B
,1646709134010
NMEA,$GLGSV,3,1,11,78,39,292,37,86,08,070,20,77,33,219,20,79,07,336,17,1*70
,1646709134010
NMEA,$GLGSV,3,2,11,65,20,146,38,88,40,306,30,87,49,016,22,71,20,039,30,1*7A
,1646709134010
NMEA,$GLGSV,3,3,11,72,35,092,39,76,00,000,,81,00,000,,1*42
,1646709134011
NMEA,$GAGSV,1,1,0,7*43
,1646709134011
NMEA,$PQGSV,1,1,0,0*43
,1646709134011
NMEA,$GBGSV,1,1,0,0*47
,1646709134011
NMEA,$GNGSA,A,3,02,05,12,18,20,25,26,29,,,,,1.0,0.7,0.8,1*38
,1646709134020
NMEA,$GNGSA,A,3,65,71,72,77,78,86,87,88,,,,,1.0,0.7,0.8,2*32
,1646709134020
NMEA,$GNVTG,,T,,M,0.0,N,0.0,K,A*3D
,1646709134020
NMEA,$GNGGA,031214.00,3725.641259,N,12210.220885,W,1,12,0.7,20.3,M,-27.9,M,,*7A
,1646709134020
NMEA,$GNRMC,031214.00,A,3725.641259,N,12210.220885,W,0.0,,080322,15.0,E,A,V*5C
,1646709134020
NMEA,$AIDSTAT,0,0,0,2,87,23,3*00
,1646709134925
Raw,1987533,1674070000000,,,-1330742678359875528,0.39458560943603516,40.169285057345405,-43.27081918628612,9.78701395931713,5,14,0.0,207,22334359953216,6,38.0,-55.82173156738281,0.21860000491142273,0,0.0,0.0,,,,,0,,3,0.0,
Raw,1987533,1674070000000,,,-1330742678359875528,0.39458560943603516,40.169285057345405,-43.27081918628612,9.78701395931713,5,22,0.0,207,22334350244586,40,21.6,478.20672607421875,1.0614999532699585,0,0.0,0.0,,,,,0,,3,0.0,
Raw,1987533,1674070000000,,,-1330742678359875528,0.39458560943603516,40.169285057345405,-43.27081918628612,9.78701395931713,5,13,0.0,207,22334358137473,46,20.9,653.7427368164062,1.1434999704360962,0,0.0,0.0,,,,,0,,3,0.0,
Raw,1987533,1674070000000,,,-1330742678359875528,0.39458560943603516,40.169285057345405,-43.27081918628612,9.78701395931713,5,15,0.0,207,22334350363609,111,16.7,-628.2073974609375,4.471500396728516,0,0.0,0.0,,,,,0,,3,0.0,
Raw,1987533,1674070000000,,,-1330742678359875528,0.39458560943603516,40.169285057345405,-43.27081918628612,9.78701395931713,5,1,0.0,207,22334355019619,7,37.8,-756.4179077148438,0.24310000240802765,0,0.0,0.0,,,,,0,,3,0.0,
Raw,1987534,1674070000000,,,-1330742678359875528,0.39458560943603516,40.169285057345405,-43.27081918628612,9.78701395931713,5,24,0.0,207,22334360361496,16,29.1,-277.3739013671875,0.22669999301433563,0,0.0,0.0,,,,,0,,3,0.0,
Raw,1987534,1674070000000,,,-1330742678359875528,0.39458560943603516,40.169285057345405,-43.27081918628612,9.78701395931713,5,23,0.0,207,22334362220259,84,16.3,129.7266387939453,2.2095000743865967,0,0.0,0.0,,,,,0,,3,0.0,
Raw,1987534,1674070000000,,,-1330742678359875528,0.39458560943603516,40.169285057345405,-43.27081918628612,9.78701395931713,5,7,0.0,207,22334354384134,14,30.2,322.8001708984375,0.2468000054359436,0,0.0,0.0,,,,,0,,3,0.0,
Raw,1987534,1674070000000,,,-1330742678359875528,0.39458560943603516,40.169285057345405,-43.27081918628612,9.78701395931713,5,8,0.0,207,22334359065318,6,38.8,-299.9784851074219,0.24860000610351562,0,0.0,0.0,,,,,0,,3,0.0,
Raw,1987534,1674070000000,,,-1330742678359875528,0.39458560943603516,40.169285057345405,-43.27081918628612,9.78701395931713,5,2,0.0,15,184352349895618,13,31.3,447.725830078125,0.038700003176927567,0,0.0,0.0,,,,,0,,1,0.0,
Raw,1987534,1674070000000,,,-1330742678359875528,0.39458560943603516,40.169285057345405,-43.27081918628612,9.78701395931713,5,5,0.0,15,184352360794487,9,35.0,58.79356002807617,0.02160000056028366,0,0.0,0.0,,,,,0,,1,0.0,
Raw,1987534,1674070000000,,,-1330742678359875528,0.39458560943603516,40.169285057345405,-43.27081918628612,9.78701395931713,5,12,0.0,15,184352352742478,5,41.8,676.6868286132812,0.03710000216960907,0,0.0,0.0,,,,,0,,1,0.0,
Raw,1987534,1674070000000,,,-1330742678359875528,0.39458560943603516,40.169285057345405,-43.27081918628612,9.78701395931713,5,18,0.0,15,184352356197459,11,33.1,-413.32171630859375,0.04690000042319298,0,0.0,0.0,,,,,0,,1,0.0,
Raw,1987534,1674070000000,,,-1330742678359875528,0.39458560943603516,40.169285057345405,-43.27081918628612,9.78701395931713,5,20,0.0,15,184352356716332,12,32.6,394.0297546386719,0.0479000024497509,0,0.0,0.0,,,,,0,,1,0.0,
Raw,1987534,1674070000000,,,-1330742678359875528,0.39458560943603516,40.169285057345405,-43.27081918628612,9.78701395931713,5,25,0.0,15,184352359980767,6,38.1,386.3399963378906,0.01860000006854534,0,0.0,0.0,,,,,0,,1,0.0,
Raw,1987534,1674070000000,,,-1330742678359875528,0.39458560943603516,40.169285057345405,-43.27081918628612,9.78701395931713,5,26,0.0,15,184352349429204,21,26.5,-561.2782592773438,0.12470000237226486,0,0.0,0.0,,,,,0,,1,0.0,
Raw,1987534,1674070000000,,,-1330742678359875528,0.39458560943603516,40.169285057345405,-43.27081918628612,9.78701395931713,5,29,0.0,15,184352360671619,13,31.7,-206.50596618652344,0.025200000032782555,0,0.0,0.0,,,,,0,,1,0.0,
Fix,gps,37.427354,-122.170348,-7.662689,0.000000,3.216000,1646709135000
NMEA,$GPGSV,3,1,12,02,24,056,31,05,59,084,35,12,28,163,42,18,37,257,33,1*65
,1646709134998
NMEA,$GPGSV,3,2,12,20,39,052,33,25,57,203,38,26,14,317,27,29,64,341,32,1*69
,1646709134998
NMEA,$GPGSV,3,3,12,13,01,115,,15,06,147,,23,07,201,,31,11,278,,1*6B
,1646709134998
NMEA,$GLGSV,3,1,11,78,39,292,38,86,08,070,22,77,33,219,21,79,07,336,17,1*7C
,1646709134998
NMEA,$GLGSV,3,2,11,65,20,146,38,88,40,306,29,87,49,016,16,71,20,039,30,1*75
,1646709134999
NMEA,$GLGSV,3,3,11,72,35,092,39,76,00,000,,81,00,000,,1*42
,1646709134999
NMEA,$GAGSV,1,1,0,7*43
,1646709134999
NMEA,$PQGSV,1,1,0,0*43
,1646709134999
NMEA,$GBGSV,1,1,0,0*47
,1646709134999
NMEA,$GNGSA,A,3,02,05,12,18,20,25,26,29,,,,,1.0,0.7,0.8,1*38
,1646709135005
NMEA,$GNGSA,A,3,65,71,72,77,78,86,87,88,,,,,1.0,0.7,0.8,2*32
,1646709135005
NMEA,$GNVTG,,T,,M,0.0,N,0.0,K,A*3D
,1646709135006
NMEA,$GNGGA,031215.00,3725.641257,N,12210.220886,W,1,12,0.7,20.3,M,-27.9,M,,*76
,1646709135007
NMEA,$GNRMC,031215.00,A,3725.641257,N,12210.220886,W,0.0,,080322,15.0,E,A,V*50
,1646709135007
NMEA,$AIDSTAT,0,0,0,2,95,23,3*00
,1646709135927
Raw,1988512,1675070000000,,,-1330742678359875569,0.7367672920227051,41.154056816594675,-43.33097089180009,10.766983506785316,5,14,0.0,207,22335359953424,6,39.5,-55.20512008666992,0.21809999644756317,0,0.0,0.0,,,,,0,,3,0.0,
Raw,1988512,1675070000000,,,-1330742678359875569,0.7367672920227051,41.154056816594675,-43.33097089180009,10.766983506785316,5,22,0.0,207,22335350242912,35,22.3,478.2442321777344,1.0015000104904175,0,0.0,0.0,,,,,0,,3,0.0,
Raw,1988512,1675070000000,,,-1330742678359875569,0.7367672920227051,41.154056816594675,-43.33097089180009,10.766983506785316,5,13,0.0,207,22335358135231,35,22.9,654.5105590820312,1.0134999752044678,0,0.0,0.0,,,,,0,,3,0.0,
Raw,1988514,1675070000000,,,-1330742678359875569,0.7367672920227051,41.154056816594675,-43.33097089180009,10.766983506785316,5,15,0.0,207,22335350365589,133,13.6,-626.0834350585938,3.311500072479248,0,0.0,0.0,,,,,0,,3,0.0,
Raw,1988514,1675070000000,,,-1330742678359875569,0.7367672920227051,41.154056816594675,-43.33097089180009,10.766983506785316,5,1,0.0,207,22335355022159,6,39.0,-755.927490234375,0.24210000038146973,0,0.0,0.0,,,,,0,,3,0.0,
Raw,1988514,1675070000000,,,-1330742678359875569,0.7367672920227051,41.154056816594675,-43.33097089180009,10.766983506785316,5,24,0.0,207,22335360362414,13,31.4,-276.8983154296875,0.22519999742507935,0,0.0,0.0,,,,,0,,3,0.0,
Raw,1988514,1675070000000,,,-1330742678359875569,0.7367672920227051,41.154056816594675,-43.33097089180009,10.766983506785316,5,23,0.0,207,22335362220074,35,22.3,130.1005096435547,0.9894999861717224,0,0.0,0.0,,,,,0,,3,0.0,
Raw,1988514,1675070000000,,,-1330742678359875569,0.7367672920227051,41.154056816594675,-43.33097089180009,10.766983506785316,5,7,0.0,207,22335354383081,12,32.7,323.3887634277344,0.24490001797676086,0,0.0,0.0,,,,,0,,3,0.0,
Raw,1988514,1675070000000,,,-1330742678359875569,0.7367672920227051,41.154056816594675,-43.33097089180009,10.766983506785316,5,8,0.0,207,22335359066323,6,39.8,-299.38861083984375,0.24809999763965607,0,0.0,0.0,,,,,0,,3,0.0,
Raw,1988514,1675070000000,,,-1330742678359875569,0.7367672920227051,41.154056816594675,-43.33097089180009,10.766983506785316,5,2,0.0,15,184353349894104,12,32.0,448.0940246582031,0.03739999979734421,0,0.0,0.0,,,,,0,,1,0.0,
Raw,1988514,1675070000000,,,-1330742678359875569,0.7367672920227051,41.154056816594675,-43.33097089180009,10.766983506785316,5,5,0.0,15,184353360794279,9,35.8,59.31065368652344,0.02160000056028366,0,0.0,0.0,,,,,0,,1,0.0,
Raw,1988514,1675070000000,,,-1330742678359875569,0.7367672920227051,41.154056816594675,-43.33097089180009,10.766983506785316,5,12,0.0,15,184353352740223,4,43.0,677.1436767578125,0.03660000115633011,0,0.0,0.0,,,,,0,,1,0.0,
Raw,1988514,1675070000000,,,-1330742678359875569,0.7367672920227051,41.154056816594675,-43.33097089180009,10.766983506785316,5,18,0.0,15,184353356198828,12,32.8,-412.8436584472656,0.0479000024497509,0,0.0,0.0,,,,,0,,1,0.0,
Raw,1988514,1675070000000,,,-1330742678359875569,0.7367672920227051,41.154056816594675,-43.33097089180009,10.766983506785316,5,20,0.0,15,184353356715000,10,34.7,394.56195068359375,0.04610000178217888,0,0.0,0.0,,,,,0,,1,0.0,
Raw,1988514,1675070000000,,,-1330742678359875569,0.7367672920227051,41.154056816594675,-43.33097089180009,10.766983506785316,5,25,0.0,15,184353359979475,6,39.3,386.85845947265625,0.01810000091791153,0,0.0,0.0,,,,,0,,1,0.0,
Raw,1988514,1675070000000,,,-1330742678359875569,0.7367672920227051,41.154056816594675,-43.33097089180009,10.766983506785316,5,26,0.0,15,184353349431067,24,25.9,-560.6929321289062,0.3953000009059906,0,0.0,0.0,,,,,0,,1,0.0,
Raw,1988514,1675070000000,,,-1330742678359875569,0.7367672920227051,41.154056816594675,-43.33097089180009,10.766983506785316,5,29,0.0,15,184353360672328,13,31.9,-206.02316284179688,0.025200000032782555,0,0.0,0.0,,,,,0,,1,0.0,
Raw,1988515,1675070000000,,,-1330742678359875569,0.7367672920227051,41.154056816594675,-43.33097089180009,10.766983506785316,5,31,0.0,15,184353347133333,24,25.5,287.2102355957031,0.7080000042915344,0,0.0,0.0,,,,,0,,1,0.0,
NMEA,$GPGSV,3,1,12,02,24,056,32,05,59,084,36,12,28,163,43,18,37,257,33,1*64
,1646709136001
NMEA,$GPGSV,3,2,12,20,39,052,35,25,57,203,39,26,14,317,26,29,64,341,32,1*6F
,1646709136003
NMEA,$GPGSV,3,3,12,31,11,278,26,13,01,115,,15,06,147,,23,07,201,,1*6F
,1646709136003
NMEA,$GLGSV,3,1,11,78,39,292,40,86,08,070,22,77,33,219,23,79,07,336,14,1*72
,1646709136003
NMEA,$GLGSV,3,2,11,65,20,146,39,88,40,306,31,87,49,016,22,71,20,039,33,1*79
,1646709136004
NMEA,$GLGSV,3,3,11,72,35,092,40,76,00,000,,81,00,000,,1*4C
,1646709136004
NMEA,$GAGSV,1,1,0,7*43
,1646709136004
NMEA,$PQGSV,1,1,0,0*43
,1646709136004
NMEA,$GBGSV,1,1,0,0*47
,1646709136005
Fix,gps,37.427354,-122.170348,-7.658630,0.000000,3.216000,1646709136000
NMEA,$GNGSA,A,3,02,05,12,18,20,25,26,29,31,,,,1.0,0.6,0.7,1*34
,1646709136009
NMEA,$GNGSA,A,3,65,71,72,77,78,86,87,88,,,,,1.0,0.6,0.7,2*3C
,1646709136009
NMEA,$GNVTG,,T,,M,0.0,N,0.0,K,A*3D
,1646709136009
NMEA,$GNGGA,031216.00,3725.641256,N,12210.220887,W,1,12,0.6,20.3,M,-27.9,M,,*74
,1646709136010
NMEA,$GNRMC,031216.00,A,3725.641256,N,12210.220887,W,0.0,,080322,15.0,E,A,V*53
,1646709136010
NMEA,$AIDSTAT,0,0,0,2,78,23,3*00
,1646709136930
Raw,1989542,1676070000000,,,-1330742678359875613,0.6442313194274902,40.92710150871426,-41.968900112978396,10.763259216276538,5,14,0.0,207,22336359953619,6,39.1,-55.043724060058594,0.21809999644756317,0,0.0,0.0,,,,,0,,3,0.0,
Raw,1989543,1676070000000,,,-1330742678359875613,0.6442313194274902,40.92710150871426,-41.968900112978396,10.763259216276538,5,22,0.0,207,22336350241492,31,23.4,477.9913330078125,0.9414999485015869,0,0.0,0.0,,,,,0,,3,0.0,
Raw,1989543,1676070000000,,,-1330742678359875613,0.6442313194274902,40.92710150871426,-41.968900112978396,10.763259216276538,5,13,0.0,207,22336358133202,53,19.4,654.763427734375,1.2235000133514404,0,0.0,0.0,,,,,0,,3,0.0,
Raw,1989543,1676070000000,,,-1330742678359875613,0.6442313194274902,40.92710150871426,-41.968900112978396,10.763259216276538,5,15,0.0,207,22336350367677,154,13.6,-626.0834350585938,4.811500072479248,0,0.0,0.0,,,,,0,,3,0.0,
Raw,1989543,1676070000000,,,-1330742678359875613,0.6442313194274902,40.92710150871426,-41.968900112978396,10.763259216276538,5,1,0.0,207,22336355024686,6,38.3,-755.8645629882812,0.24260000884532928,0,0.0,0.0,,,,,0,,3,0.0,
Raw,1989543,1676070000000,,,-1330742678359875613,0.6442313194274902,40.92710150871426,-41.968900112978396,10.763259216276538,5,24,0.0,207,22336360363333,13,31.0,-276.86322021484375,0.22519999742507935,0,0.0,0.0,,,,,0,,3,0.0,
Raw,1989544,1676070000000,,,-1330742678359875613,0.6442313194274902,40.92710150871426,-41.968900112978396,10.763259216276538,5,23,0.0,207,22336362219589,24,25.5,130.04290771484375,0.5848000049591064,0,0.0,0.0,,,,,0,,3,0.0,
Raw,1989544,1676070000000,,,-1330742678359875613,0.6442313194274902,40.92710150871426,-41.968900112978396,10.763259216276538,5,7,0.0,207,22336354382007,11,33.9,323.5434875488281,0.24390001595020294,0,0.0,0.0,,,,,0,,3,0.0,
Raw,1989544,1676070000000,,,-1330742678359875613,0.6442313194274902,40.92710150871426,-41.968900112978396,10.763259216276538,5,8,0.0,207,22336359067322,6,39.2,-299.2319641113281,0.24809999763965607,0,0.0,0.0,,,,,0,,3,0.0,
Raw,1989544,1676070000000,,,-1330742678359875613,0.6442313194274902,40.92710150871426,-41.968900112978396,10.763259216276538,5,2,0.0,15,184354349892604,14,30.9,448.130126953125,0.03930000215768814,0,0.0,0.0,,,,,0,,1,0.0,
Raw,1989544,1676070000000,,,-1330742678359875613,0.6442313194274902,40.92710150871426,-41.968900112978396,10.763259216276538,5,5,0.0,15,184354360794088,9,35.9,59.49791717529297,0.02160000056028366,0,0.0,0.0,,,,,0,,1,0.0,
Raw,1989545,1676070000000,,,-1330742678359875613,0.6442313194274902,40.92710150871426,-41.968900112978396,10.763259216276538,5,12,0.0,15,184354352737962,5,41.4,677.2302856445312,0.03710000216960907,0,0.0,0.0,,,,,0,,1,0.0,
Raw,1989545,1676070000000,,,-1330742678359875613,0.6442313194274902,40.92710150871426,-41.968900112978396,10.763259216276538,5,18,0.0,15,184354356200209,13,31.6,-412.7516174316406,0.04920000210404396,0,0.0,0.0,,,,,0,,1,0.0,
Raw,1989545,1676070000000,,,-1330742678359875613,0.6442313194274902,40.92710150871426,-41.968900112978396,10.763259216276538,5,20,0.0,15,184354356713672,11,33.5,394.7168273925781,0.04690000042319298,0,0.0,0.0,,,,,0,,1,0.0,
Raw,1989545,1676070000000,,,-1330742678359875613,0.6442313194274902,40.92710150871426,-41.968900112978396,10.763259216276538,5,25,0.0,15,184354359978187,6,38.1,386.9779357910156,0.01860000006854534,0,0.0,0.0,,,,,0,,1,0.0,
Raw,1989545,1676070000000,,,-1330742678359875613,0.6442313194274902,40.92710150871426,-41.968900112978396,10.763259216276538,5,26,0.0,15,184354349432924,24,25.3,-560.6660766601562,0.3953000009059906,0,0.0,0.0,,,,,0,,1,0.0,
Raw,1989546,1676070000000,,,-1330742678359875613,0.6442313194274902,40.92710150871426,-41.968900112978396,10.763259216276538,5,29,0.0,15,184354360673074,19,27.5,-206.0216064453125,0.04130000248551369,0,0.0,0.0,,,,,0,,1,0.0,
Raw,1989546,1676070000000,,,-1330742678359875613,0.6442313194274902,40.92710150871426,-41.968900112978396,10.763259216276538,5,31,0.0,15,184354347132388,27,24.0,287.2007141113281,0.5870000123977661,0,0.0,0.0,,,,,0,,1,0.0,
Fix,gps,37.427354,-122.170348,-7.653442,0.000000,3.216000,1646709137000
NMEA,$GPGSV,3,1,12,02,24,056,31,05,59,084,36,12,28,163,41,18,37,257,32,1*64
,1646709136998
NMEA,$GPGSV,3,2,12,20,39,052,34,25,57,203,38,26,14,317,25,29,64,341,28,1*67
,1646709136999
NMEA,$GPGSV,3,3,12,31,11,278,24,13,01,115,,15,06,147,,23,07,201,,1*6D
,1646709136999
NMEA,$GLGSV,3,1,11,78,39,292,39,86,08,070,23,77,33,219,19,79,07,336,14,1*74
,1646709136999
NMEA,$GLGSV,3,2,11,65,20,146,38,88,40,306,31,87,49,016,26,71,20,039,34,1*7B
,1646709136999
NMEA,$GLGSV,3,3,11,72,35,092,39,76,00,000,,81,00,000,,1*42
,1646709136999
NMEA,$GAGSV,1,1,0,7*43
,1646709137000
NMEA,$PQGSV,1,1,0,0*43
,1646709137000
NMEA,$GBGSV,1,1,0,0*47
,1646709137000
NMEA,$GNGSA,A,3,02,05,12,18,20,25,26,29,31,,,,1.0,0.6,0.7,1*34
,1646709137007
NMEA,$GNGSA,A,3,65,71,72,77,78,86,87,88,,,,,1.0,0.6,0.7,2*3C
,1646709137007
NMEA,$GNVTG,,T,,M,0.0,N,0.0,K,A*3D
,1646709137007
NMEA,$GNGGA,031217.00,3725.641253,N,12210.220888,W,1,12,0.6,20.3,M,-27.9,M,,*7F
,1646709137008
NMEA,$GNRMC,031217.00,A,3725.641253,N,12210.220888,W,0.0,,080322,15.0,E,A,V*58
,1646709137008
NMEA,$AIDSTAT,0,0,0,2,87,23,3*00
,1646709137926
Raw,1990551,1677070000000,,,-1330742678359875658,0.5160646438598633,41.82269185548648,-41.813041378425694,10.788555443588775,5,14,0.0,207,22337359953799,5,40.0,-54.54039764404297,0.21790000796318054,0,0.0,0.0,,,,,0,,3,0.0,
Raw,1990552,1677070000000,,,-1330742678359875658,0.5160646438598633,41.82269185548648,-41.813041378425694,10.788555443588775,5,22,0.0,207,22337350239816,35,22.4,478.8623962402344,1.0015000104904175,0,0.0,0.0,,,,,0,,3,0.0,
Raw,1990552,1677070000000,,,-1330742678359875658,0.5160646438598633,41.82269185548648,-41.813041378425694,10.788555443588775,5,13,0.0,207,22337358130939,35,22.0,654.5761108398438,1.0134999752044678,0,0.0,0.0,,,,,0,,3,0.0,
Raw,1990552,1677070000000,,,-1330742678359875658,0.5160646438598633,41.82269185548648,-41.813041378425694,10.788555443588775,5,15,0.0,207,22337350369975,84,16.9,-627.63671875,2.2215001583099365,0,0.0,0.0,,,,,0,,3,0.0,
Raw,1990552,1677070000000,,,-1330742678359875658,0.5160646438598633,41.82269185548648,-41.813041378425694,10.788555443588775,5,1,0.0,207,22337355027189,6,39.9,-755.5331420898438,0.24210000038146973,0,0.0,0.0,,,,,0,,3,0.0,
Raw,1990552,1677070000000,,,-1330742678359875658,0.5160646438598633,41.82269185548648,-41.813041378425694,10.788555443588775,5,24,0.0,207,22337360364233,14,30.7,-276.4694519042969,0.22579999268054962,0,0.0,0.0,,,,,0,,3,0.0,
Raw,1990552,1677070000000,,,-1330742678359875658,0.5160646438598633,41.82269185548648,-41.813041378425694,10.788555443588775,5,23,0.0,207,22337362219113,21,26.5,130.3048858642578,0.3141999840736389,0,0.0,0.0,,,,,0,,3,0.0,
Raw,1990552,1677070000000,,,-1330742678359875658,0.5160646438598633,41.82269185548648,-41.813041378425694,10.788555443588775,5,7,0.0,207,22337354380956,8,36.9,323.9704284667969,0.24220001697540283,0,0.0,0.0,,,,,0,,3,0.0,
Raw,1990552,1677070000000,,,-1330742678359875658,0.5160646438598633,41.82269185548648,-41.813041378425694,10.788555443588775,5,8,0.0,207,22337359068310,6,39.9,-298.7525634765625,0.24809999763965607,0,0.0,0.0,,,,,0,,3,0.0,
Raw,1990552,1677070000000,,,-1330742678359875658,0.5160646438598633,41.82269185548648,-41.813041378425694,10.788555443588775,5,2,0.0,15,184355349891116,12,32.6,448.4363708496094,0.03739999979734421,0,0.0,0.0,,,,,0,,1,0.0,
Raw,1990553,1677070000000,,,-1330742678359875658,0.5160646438598633,41.82269185548648,-41.813041378425694,10.788555443588775,5,5,0.0,15,184355360793885,8,36.8,59.93974685668945,0.02120000123977661,0,0.0,0.0,,,,,0,,1,0.0,
Raw,1990553,1677070000000,,,-1330742678359875658,0.5160646438598633,41.82269185548648,-41.813041378425694,10.788555443588775,5,12,0.0,15,184355352735706,4,42.9,677.5418090820312,0.03680000081658363,0,0.0,0.0,,,,,0,,1,0.0,
Raw,1990553,1677070000000,,,-1330742678359875658,0.5160646438598633,41.82269185548648,-41.813041378425694,10.788555443588775,5,18,0.0,15,184355356201579,10,34.6,-412.4031677246094,0.04610000178217888,0,0.0,0.0,,,,,0,,1,0.0,
Raw,1990553,1677070000000,,,-1330742678359875658,0.5160646438598633,41.82269185548648,-41.813041378425694,10.788555443588775,5,20,0.0,15,184355356712372,10,34.6,395.07452392578125,0.04610000178217888,0,0.0,0.0,,,,,0,,1,0.0,
Raw,1990553,1677070000000,,,-1330742678359875658,0.5160646438598633,41.82269185548648,-41.813041378425694,10.788555443588775,5,25,0.0,15,184355359976896,6,38.8,387.37481689453125,0.01860000006854534,0,0.0,0.0,,,,,0,,1,0.0,
Raw,1990553,1677070000000,,,-1330742678359875658,0.5160646438598633,41.82269185548648,-41.813041378425694,10.788555443588775,5,26,0.0,15,184355349434800,16,29.8,-560.3479614257812,0.04020000249147415,0,0.0,0.0,,,,,0,,1,0.0,
Raw,1990553,1677070000000,,,-1330742678359875658,0.5160646438598633,41.82269185548648,-41.813041378425694,10.788555443588775,5,29,0.0,15,184355360673745,12,32.7,-205.59732055664062,0.023900000378489494,0,0.0,0.0,,,,,0,,1,0.0,
Raw,1990553,1677070000000,,,-1330742678359875658,0.5160646438598633,41.82269185548648,-41.813041378425694,10.788555443588775,5,31,0.0,15,184355347131434,27,24.6,287.4956970214844,0.5870000123977661,0,0.0,0.0,,,,,0,,1,0.0,
Fix,gps,37.427354,-122.170348,-7.646729,0.000000,3.216000,1646709138000
NMEA,$GPGSV,3,1,12,02,24,056,33,05,59,084,37,12,28,163,43,18,37,257,35,1*62
,1646709138004
NMEA,$GPGSV,3,2,12,20,39,052,35,25,57,203,39,26,14,317,30,29,64,341,33,1*69
,1646709138005
NMEA,$GPGSV,3,3,12,31,11,278,25,13,01,115,,15,06,147,,23,07,201,,1*6C
,1646709138005
NMEA,$GLGSV,3,1,11,78,39,292,40,86,08,070,22,77,33,219,22,79,07,336,17,1*70
,1646709138005
NMEA,$GLGSV,3,2,11,65,20,146,40,88,40,306,31,87,49,016,27,71,20,039,37,1*76
,1646709138005
NMEA,$GLGSV,3,3,11,72,35,092,40,76,00,000,,81,00,000,,1*4C
,1646709138006
NMEA,$GAGSV,1,1,0,7*43
,1646709138006
NMEA,$PQGSV,1,1,0,0*43
,1646709138006
NMEA,$GBGSV,1,1,0,0*47
,1646709138007
NMEA,$GNGSA,A,3,02,05,12,18,20,25,26,29,31,,,,1.0,0.6,0.7,1*34
,1646709138021
NMEA,$GNGSA,A,3,65,71,72,77,78,86,87,88,,,,,1.0,0.6,0.7,2*3C
,1646709138021
NMEA,$GNVTG,,T,,M,0.0,N,0.0,K,A*3D
,1646709138021
NMEA,$GNGGA,031218.00,3725.641251,N,12210.220890,W,1,12,0.6,20.3,M,-27.9,M,,*7B
,1646709138021
NMEA,$GNRMC,031218.00,A,3725.641251,N,12210.220890,W,0.0,,080322,15.0,E,A,V*5C
,1646709138021
NMEA,$AIDSTAT,0,0,0,2,,23,3*00
,1646709138926
NMEA,$GPGSV,3,1,12,02,24,056,34,05,59,084,36,12,28,163,44,18,37,257,35,1*63
,1646709139004
NMEA,$GPGSV,3,2,12,20,39,052,34,25,57,203,40,26,14,317,36,29,64,341,31,1*62
,1646709139005
Raw,1991541,1678070000000,,,-1330742678359875698,0.5958538055419922,41.427516407566145,-40.886007176856566,10.753952068759085,5,14,0.0,207,22338359953983,6,39.8,-54.44914627075195,0.21809999644756317,0,0.0,0.0,,,,,0,,3,0.0,
Raw,1991541,1678070000000,,,-1330742678359875698,0.5958538055419922,41.427516407566145,-40.886007176856566,10.753952068759085,5,22,0.0,207,22338350238092,31,23.7,478.8905334472656,0.9414999485015869,0,0.0,0.0,,,,,0,,3,0.0,
Raw,1991541,1678070000000,,,-1330742678359875698,0.5958538055419922,41.427516407566145,-40.886007176856566,10.753952068759085,5,13,0.0,207,22338358128726,35,22.8,655.6154174804688,1.0134999752044678,0,0.0,0.0,,,,,0,,3,0.0,
Raw,1991541,1678070000000,,,-1330742678359875698,0.5958538055419922,41.427516407566145,-40.886007176856566,10.753952068759085,5,15,0.0,207,22338350372068,99,16.9,-627.63671875,3.7215001583099365,0,0.0,0.0,,,,,0,,3,0.0,
Raw,1991541,1678070000000,,,-1330742678359875698,0.5958538055419922,41.427516407566145,-40.886007176856566,10.753952068759085,5,1,0.0,207,22338355029721,6,39.4,-755.54248046875,0.24210000038146973,0,0.0,0.0,,,,,0,,3,0.0,
Raw,1991541,1678070000000,,,-1330742678359875698,0.5958538055419922,41.427516407566145,-40.886007176856566,10.753952068759085,5,24,0.0,207,22338360365147,10,34.9,-276.5292663574219,0.22210000455379486,0,0.0,0.0,,,,,0,,3,0.0,
Raw,1991542,1678070000000,,,-1330742678359875698,0.5958538055419922,41.427516407566145,-40.886007176856566,10.753952068759085,5,23,0.0,207,22338362218698,80,16.7,129.44622802734375,1.4595000743865967,0,0.0,0.0,,,,,0,,3,0.0,
Raw,1991542,1678070000000,,,-1330742678359875698,0.5958538055419922,41.427516407566145,-40.886007176856566,10.753952068759085,5,7,0.0,207,22338354379850,9,35.8,324.0624084472656,0.24260000884532928,0,0.0,0.0,,,,,0,,3,0.0,
Raw,1991542,1678070000000,,,-1330742678359875698,0.5958538055419922,41.427516407566145,-40.886007176856566,10.753952068759085,5,8,0.0,207,22338359069314,5,41.1,-298.6834411621094,0.2476000040769577,0,0.0,0.0,,,,,0,,3,0.0,
Raw,1991542,1678070000000,,,-1330742678359875698,0.5958538055419922,41.427516407566145,-40.886007176856566,10.753952068759085,5,2,0.0,15,184356349889611,11,33.6,448.40203857421875,0.036400001496076584,0,0.0,0.0,,,,,0,,1,0.0,
Raw,1991542,1678070000000,,,-1330742678359875698,0.5958538055419922,41.427516407566145,-40.886007176856566,10.753952068759085,5,5,0.0,15,184356360793708,9,35.7,60.01899337768555,0.02160000056028366,0,0.0,0.0,,,,,0,,1,0.0,
Raw,1991542,1678070000000,,,-1330742678359875698,0.5958538055419922,41.427516407566145,-40.886007176856566,10.753952068759085,5,12,0.0,15,184356352733445,4,44.1,677.5457763671875,0.03629999980330467,0,0.0,0.0,,,,,0,,1,0.0,
Raw,1991542,1678070000000,,,-1330742678359875698,0.5958538055419922,41.427516407566145,-40.886007176856566,10.753952068759085,5,18,0.0,15,184356356202970,9,35.2,-412.4620056152344,0.04560000076889992,0,0.0,0.0,,,,,0,,1,0.0,
Raw,1991542,1678070000000,,,-1330742678359875698,0.5958538055419922,41.427516407566145,-40.886007176856566,10.753952068759085,5,20,0.0,15,184356356711036,10,34.3,395.1269226074219,0.04610000178217888,0,0.0,0.0,,,,,0,,1,0.0,
Raw,1991542,1678070000000,,,-1330742678359875698,0.5958538055419922,41.427516407566145,-40.886007176856566,10.753952068759085,5,25,0.0,15,184356359975602,5,40.3,387.44140625,0.017900001257658005,0,0.0,0.0,,,,,0,,1,0.0,
Raw,1991542,1678070000000,,,-1330742678359875698,0.5958538055419922,41.427516407566145,-40.886007176856566,10.753952068759085,5,26,0.0,15,184356349436672,9,35.6,-560.3211059570312,0.035100001841783524,0,0.0,0.0,,,,,0,,1,0.0,
Raw,1991542,1678070000000,,,-1330742678359875698,0.5958538055419922,41.427516407566145,-40.886007176856566,10.753952068759085,5,29,0.0,15,184356360674446,14,30.6,-205.58331298828125,0.025800000876188278,0,0.0,0.0,,,,,0,,1,0.0,
