# 
# Header Description:
# 
# Version: v2.0.0.1 Platform: 9 Manufacturer: samsung Model: SM-G960U
# 
# Raw,ElapsedRealtimeMillis,TimeNanos,LeapSecond,TimeUncertaintyNanos,FullBiasNanos,BiasNanos,BiasUncertaintyNanos,DriftNanosPerSecond,DriftUncertaintyNanosPerSecond,HardwareClockDiscontinuityCount,Svid,TimeOffsetNanos,State,ReceivedSvTimeNanos,ReceivedSvTimeUncertaintyNanos,Cn0DbHz,PseudorangeRateMetersPerSecond,PseudorangeRateUncertaintyMetersPerSecond,AccumulatedDeltaRangeState,AccumulatedDeltaRangeMeters,AccumulatedDeltaRangeUncertaintyMeters,CarrierFrequencyHz,CarrierCycles,CarrierPhase,CarrierPhaseUncertainty,MultipathIndicator,SnrInDb,ConstellationType,AgcDb,CarrierFrequencyHz
# 
# Fix,Provider,Latitude,Longitude,Altitude,Speed,Accuracy,(UTC)TimeInMs
# 
# Nav,Svid,Type,Status,MessageId,Sub-messageId,Data(Bytes)
# 
NMEA,$AIDSTAT,0,0,0,2,,23,3*00
,1646708982927
NMEA,$GPGSV,3,1,12,02,26,056,25,05,60,088,35,12,29,163,38,18,36,255,37,1*6F
,1646708982999
NMEA,$GPGSV,3,2,12,20,40,053,26,23,04,201,15,25,59,205,37,26,12,317,25,1*6D
,1646708982999
NMEA,$GPGSV,3,3,12,29,63,338,25,31,11,279,29,13,00,000,,15,05,147,,1*62
,1646708982999
NMEA,$GLGSV,3,1,11,78,38,293,34,86,09,068,12,77,33,219,20,79,06,336,20,1*7F
,1646708982999
NMEA,$GLGSV,3,2,11,65,19,146,29,88,40,303,38,87,50,012,25,71,21,039,23,1*75
,1646708982999
NMEA,$GLGSV,3,3,11,72,35,094,41,76,01,182,,81,00,000,,1*41
,1646708983000
NMEA,$GAGSV,1,1,0,7*43
,1646708983000
NMEA,$PQGSV,1,1,0,0*43
,1646708983000
NMEA,$GBGSV,1,1,0,0*47
,1646708983000
Raw,1835549,1522070000000,,,-1330742678359871962,0.31696510314941406,29.705621273024008,4.546440164231428,10.36539555957945,3,14,0.0,207,22182359921539,11,33.7,-66.89661407470703,0.22140000760555267,0,0.0,0.0,,,,,0,,3,0.0,
Raw,1835550,1522070000000,,,-1330742678359871962,0.31696510314941406,29.705621273024008,4.546440164231428,10.36539555957945,3,22,0.0,207,22182350490000,187,12.0,493.2684020996094,5.691500186920166,0,0.0,0.0,,,,,0,,3,0.0,
Raw,1835550,1522070000000,,,-1330742678359871962,0.31696510314941406,29.705621273024008,4.546440164231428,10.36539555957945,3,13,0.0,207,22182358468959,46,20.1,655.7652587890625,1.1434999704360962,0,0.0,0.0,,,,,0,,3,0.0,
Raw,1835550,1522070000000,,,-1330742678359871962,0.31696510314941406,29.705621273024008,4.546440164231428,10.36539555957945,3,15,0.0,207,22182350044616,46,20.0,-626.7945556640625,1.131500005722046,0,0.0,0.0,,,,,0,,3,0.0,
Raw,1835550,1522070000000,,,-1330742678359871962,0.31696510314941406,29.705621273024008,4.546440164231428,10.36539555957945,3,1,0.0,207,22182354637709,17,28.7,-747.8636474609375,0.25429999828338623,0,0.0,0.0,,,,,0,,3,0.0,
Raw,1835550,1522070000000,,,-1330742678359871962,0.31696510314941406,29.705621273024008,4.546440164231428,10.36539555957945,3,24,0.0,207,22182360222499,6,38.3,-268.4920654296875,0.22010000050067902,0,0.0,0.0,,,,,0,,3,0.0,
Raw,1835550,1522070000000,,,-1330742678359871962,0.31696510314941406,29.705621273024008,4.546440164231428,10.36539555957945,3,23,0.0,207,22182362287628,24,25.1,138.29486083984375,0.5848000049591064,0,0.0,0.0,,,,,0,,3,0.0,
Raw,1835550,1522070000000,,,-1330742678359871962,0.31696510314941406,29.705621273024008,4.546440164231428,10.36539555957945,3,7,0.0,207,22182354545379,35,22.9,314.7628479003906,1.0074999332427979,0,0.0,0.0,,,,,0,,3,0.0,
Raw,1835550,1522070000000,,,-1330742678359871962,0.31696510314941406,29.705621273024008,4.546440164231428,10.36539555957945,3,8,0.0,207,22182358910667,5,40.9,-307.55096435546875,0.24640001356601715,0,0.0,0.0,,,,,0,,3,0.0,
Raw,1835550,1522070000000,,,-1330742678359871962,0.31696510314941406,29.705621273024008,4.546440164231428,10.36539555957945,3,2,0.0,15,184200350125671,27,24.9,462.3280029296875,0.5914999842643738,0,0.0,0.0,,,,,0,,1,0.0,
Raw,1835550,1522070000000,,,-1330742678359871962,0.31696510314941406,29.705621273024008,4.546440164231428,10.36539555957945,3,5,0.0,15,184200360822220,9,35.2,53.1134147644043,0.02160000056028366,0,0.0,0.0,,,,,0,,1,0.0,
Raw,1835550,1522070000000,,,-1330742678359871962,0.31696510314941406,29.705621273024008,4.546440164231428,10.36539555957945,3,12,0.0,15,184200353086970,7,37.6,684.63232421875,0.04010000079870224,0,0.0,0.0,,,,,0,,1,0.0,
Raw,1835550,1522070000000,,,-1330742678359871962,0.31696510314941406,29.705621273024008,4.546440164231428,10.36539555957945,3,18,0.0,15,184200355988833,7,37.0,-407.21832275390625,0.04310000315308571,0,0.0,0.0,,,,,0,,1,0.0,
Raw,1835550,1522070000000,,,-1330742678359871962,0.31696510314941406,29.705621273024008,4.546440164231428,10.36539555957945,3,20,0.0,15,184200356915791,21,26.0,394.9666442871094,0.13520000874996185,0,0.0,0.0,,,,,0,,1,0.0,
Raw,1835550,1522070000000,,,-1330742678359871962,0.31696510314941406,29.705621273024008,4.546440164231428,10.36539555957945,3,23,0.0,15,184200345973733,330,14.8,-719.4052124023438,10.669000625610352,0,0.0,0.0,,,,,0,,1,0.0,
Raw,1835550,1522070000000,,,-1330742678359871962,0.31696510314941406,29.705621273024008,4.546440164231428,10.36539555957945,3,25,0.0,15,184200360175698,8,36.6,384.9173278808594,0.02120000123977661,0,0.0,0.0,,,,,0,,1,0.0,
Raw,1835551,1522070000000,,,-1330742678359871962,0.31696510314941406,29.705621273024008,4.546440164231428,10.36539555957945,3,26,0.0,15,184200349145236,24,25.3,-556.6002197265625,0.3953000009059906,0,0.0,0.0,,,,,0,,1,0.0,
Raw,1835551,1522070000000,,,-1330742678359871962,0.31696510314941406,29.705621273024008,4.546440164231428,10.36539555957945,3,29,0.0,15,184200360567875,24,25.1,-200.4827423095703,0.38179999589920044,0,0.0,0.0,,,,,0,,1,0.0,
Raw,1835551,1522070000000,,,-1330742678359871962,0.31696510314941406,29.705621273024008,4.546440164231428,10.36539555957945,3,31,0.0,15,184200347280015,16,29.4,289.9076232910156,0.03720000013709068,0,0.0,0.0,,,,,0,,1,0.0,
Fix,gps,37.427443,-122.170308,-5.329559,0.000000,3.216000,1646708983000
NMEA,$GNGSA,A,3,02,05,12,18,20,25,26,29,31,,,,1.0,0.6,0.8,1*3B
,1646708983009
NMEA,$GNGSA,A,3,65,71,72,77,78,87,88,,,,,,1.0,0.6,0.8,2*3D
,1646708983010
NMEA,$GNVTG,,T,,M,0.0,N,0.0,K,A*3D
,1646708983010
NMEA,$GNGGA,030943.00,3725.646582,N,12210.218469,W,1,12,0.6,22.6,M,-27.9,M,,*77
,1646708983011
NMEA,$GNRMC,030943.00,A,3725.646582,N,12210.218469,W,0.0,,080322,15.0,E,A,V*57
,1646708983011
NMEA,$AIDSTAT,0,0,0,2,-12,23,3*00
,1646708983926
Fix,gps,37.427442,-122.170308,-5.674316,0.000000,3.216000,1646708984000
Raw,1836551,1523070000000,,,-1330742678359871952,0.5987663269042969,29.524386263801716,4.417496844579234,10.322304969650533,3,14,0.0,207,22183359921774,10,34.4,-66.88550567626953,0.22060000896453857,0,0.0,0.0,,,,,0,,3,0.0,
Raw,1836551,1523070000000,,,-1330742678359871952,0.5987663269042969,29.524386263801716,4.417496844579234,10.322304969650533,3,22,0.0,207,22183350488265,70,17.2,494.1300964355469,1.381500005722046,0,0.0,0.0,,,,,0,,3,0.0,
Raw,1836551,1523070000000,,,-1330742678359871952,0.5987663269042969,29.524386263801716,4.417496844579234,10.322304969650533,3,13,0.0,207,22183358466614,27,24.2,655.297119140625,0.8934999704360962,0,0.0,0.0,,,,,0,,3,0.0,
Raw,1836551,1523070000000,,,-1330742678359871952,0.5987663269042969,29.524386263801716,4.417496844579234,10.322304969650533,3,15,0.0,207,22183350046836,53,19.1,-627.4027709960938,1.2115000486373901,0,0.0,0.0,,,,,0,,3,0.0,
Raw,1836551,1523070000000,,,-1330742678359871952,0.5987663269042969,29.524386263801716,4.417496844579234,10.322304969650533,3,1,0.0,207,22183354640177,14,30.6,-748.0746459960938,0.2468000054359436,0,0.0,0.0,,,,,0,,3,0.0,
Raw,1836551,1523070000000,,,-1330742678359871952,0.5987663269042969,29.524386263801716,4.417496844579234,10.322304969650533,3,24,0.0,207,22183360223411,6,38.2,-268.656005859375,0.22010000050067902,0,0.0,0.0,,,,,0,,3,0.0,
Raw,1836551,1523070000000,,,-1330742678359871952,0.5987663269042969,29.524386263801716,4.417496844579234,10.322304969650533,3,23,0.0,207,22183362287151,19,27.6,138.11256408691406,0.2443000078201294,0,0.0,0.0,,,,,0,,3,0.0,
Raw,1836551,1523070000000,,,-1330742678359871952,0.5987663269042969,29.524386263801716,4.417496844579234,10.322304969650533,3,7,0.0,207,22183354544293,24,25.4,315.147705078125,0.6028000116348267,0,0.0,0.0,,,,,0,,3,0.0,
Raw,1836552,1523070000000,,,-1330742678359871952,0.5987663269042969,29.524386263801716,4.417496844579234,10.322304969650533,3,8,0.0,207,22183358911682,4,42.4,-307.64398193359375,0.24580000340938568,0,0.0,0.0,,,,,0,,3,0.0,
Raw,1836552,1523070000000,,,-1330742678359871952,0.5987663269042969,29.524386263801716,4.417496844579234,10.322304969650533,3,2,0.0,15,184201350124273,40,21.9,461.6524353027344,0.7414999604225159,0,0.0,0.0,,,,,0,,1,0.0,
Raw,1836552,1523070000000,,,-1330742678359871952,0.5987663269042969,29.524386263801716,4.417496844579234,10.322304969650533,3,5,0.0,15,184201360822053,7,37.7,53.0465087890625,0.020600000396370888,0,0.0,0.0,,,,,0,,1,0.0,
Raw,1836552,1523070000000,,,-1330742678359871952,0.5987663269042969,29.524386263801716,4.417496844579234,10.322304969650533,3,12,0.0,15,184201353084684,5,40.8,684.4684448242188,0.03890000283718109,0,0.0,0.0,,,,,0,,1,0.0,
Raw,1836552,1523070000000,,,-1330742678359871952,0.5987663269042969,29.524386263801716,4.417496844579234,10.322304969650533,3,18,0.0,15,184201355990197,7,37.4,-407.3348388671875,0.04310000315308571,0,0.0,0.0,,,,,0,,1,0.0,
Raw,1836552,1523070000000,,,-1330742678359871952,0.5987663269042969,29.524386263801716,4.417496844579234,10.322304969650533,3,20,0.0,15,184201356914391,16,29.9,394.74664306640625,0.050700001418590546,0,0.0,0.0,,,,,0,,1,0.0,
Raw,1836553,1523070000000,,,-1330742678359871952,0.5987663269042969,29.524386263801716,4.417496844579234,10.322304969650533,3,23,0.0,15,184201345976133,402,14.8,-719.4052124023438,12.169000625610352,0,0.0,0.0,,,,,0,,1,0.0,
Raw,1836553,1523070000000,,,-1330742678359871952,0.5987663269042969,29.524386263801716,4.417496844579234,10.322304969650533,3,25,0.0,15,184201360174419,6,39.9,384.8412780761719,0.019600000232458115,0,0.0,0.0,,,,,0,,1,0.0,
Raw,1836553,1523070000000,,,-1330742678359871952,0.5987663269042969,29.524386263801716,4.417496844579234,10.322304969650533,3,26,0.0,15,184201349147135,31,23.3,-556.6470336914062,0.6300000548362732,0,0.0,0.0,,,,,0,,1,0.0,
Raw,1836553,1523070000000,,,-1330742678359871952,0.5987663269042969,29.524386263801716,4.417496844579234,10.322304969650533,3,29,0.0,15,184201360568598,17,28.3,-200.6173858642578,0.0333000011742115,0,0.0,0.0,,,,,0,,1,0.0,
Raw,1836553,1523070000000,,,-1330742678359871952,0.5987663269042969,29.524386263801716,4.417496844579234,10.322304969650533,3,31,0.0,15,184201347279066,21,26.5,289.9092102050781,0.12170000374317169,0,0.0,0.0,,,,,0,,1,0.0,
NMEA,$GPGSV,3,1,12,02,26,056,22,05,60,088,38,12,29,163,41,18,36,255,37,1*6B
,1646708983999
NMEA,$GPGSV,3,2,12,20,40,053,30,23,04,201,15,25,59,205,40,26,12,317,23,1*6C
,1646708983999
NMEA,$GPGSV,3,3,12,29,63,338,28,31,11,279,27,13,00,000,,15,05,147,,1*61
,1646708983999
NMEA,$GLGSV,3,1,11,78,38,293,34,86,09,068,17,77,33,219,24,79,06,336,19,1*74
,1646708983999
NMEA,$GLGSV,3,2,11,65,19,146,31,88,40,303,38,87,50,012,28,71,21,039,25,1*77
,1646708984000
NMEA,$GLGSV,3,3,11,72,35,094,42,76,01,182,,81,00,000,,1*42
,1646708984000
NMEA,$GAGSV,1,1,0,7*43
,1646708984000
NMEA,$PQGSV,1,1,0,0*43
,1646708984000
NMEA,$GBGSV,1,1,0,0*47
,1646708984000
NMEA,$GNGSA,A,3,02,05,12,18,20,25,26,29,31,,,,1.0,0.6,0.8,1*3B
,1646708984005
NMEA,$GNGSA,A,3,65,71,72,77,78,87,88,,,,,,1.0,0.6,0.8,2*3D
,1646708984005
NMEA,$GNVTG,,T,,M,0.0,N,0.0,K,A*3D
,1646708984005
NMEA,$GNGGA,030944.00,3725.646496,N,12210.218503,W,1,12,0.6,22.3,M,-27.9,M,,*7C
,1646708984005
NMEA,$GNRMC,030944.00,A,3725.646496,N,12210.218503,W,0.0,,080322,15.0,E,A,V*59
,1646708984007
NMEA,$AIDSTAT,0,0,0,2,-12,23,3*00
,1646708984926
Raw,1837539,1524070000000,,,-1330742678359871953,0.7046966552734375,31.185543775791302,3.7221941539239976,11.307717405062787,3,14,0.0,207,22184359921965,12,32.8,-67.72532653808594,0.2224000096321106,0,0.0,0.0,,,,,0,,3,0.0,
Raw,1837539,1524070000000,,,-1330742678359871953,0.7046966552734375,31.185543775791302,3.7221941539239976,11.307717405062787,3,22,0.0,207,22184350486617,80,17.2,494.1300964355469,2.881500005722046,0,0.0,0.0,,,,,0,,3,0.0,
Raw,1837539,1524070000000,,,-1330742678359871953,0.7046966552734375,31.185543775791302,3.7221941539239976,11.307717405062787,3,13,0.0,207,22184358464403,24,25.4,654.5355224609375,0.6087999939918518,0,0.0,0.0,,,,,0,,3,0.0,
Raw,1837539,1524070000000,,,-1330742678359871953,0.7046966552734375,31.185543775791302,3.7221941539239976,11.307717405062787,3,15,0.0,207,22184350048933,93,15.8,-629.1243896484375,1.5715000629425049,0,0.0,0.0,,,,,0,,3,0.0,
Raw,1837539,1524070000000,,,-1330742678359871953,0.7046966552734375,31.185543775791302,3.7221941539239976,11.307717405062787,3,1,0.0,207,22184354642663,13,31.1,-749.07080078125,0.24620001018047333,0,0.0,0.0,,,,,0,,3,0.0,
Raw,1837539,1524070000000,,,-1330742678359871953,0.7046966552734375,31.185543775791302,3.7221941539239976,11.307717405062787,3,24,0.0,207,22184360224302,7,37.7,-269.59613037109375,0.22059999406337738,0,0.0,0.0,,,,,0,,3,0.0,
Raw,1837539,1524070000000,,,-1330742678359871953,0.7046966552734375,31.185543775791302,3.7221941539239976,11.307717405062787,3,23,0.0,207,22184362286761,19,27.2,137.05931091308594,0.2443000078201294,0,0.0,0.0,,,,,0,,3,0.0,
Raw,1837540,1524070000000,,,-1330742678359871953,0.7046966552734375,31.185543775791302,3.7221941539239976,11.307717405062787,3,7,0.0,207,22184354543210,35,22.5,314.0062561035156,1.0074999332427979,0,0.0,0.0,,,,,0,,3,0.0,
Raw,1837540,1524070000000,,,-1330742678359871953,0.7046966552734375,31.185543775791302,3.7221941539239976,11.307717405062787,3,8,0.0,207,22184358912727,5,41.6,-308.5283508300781,0.24610000848770142,0,0.0,0.0,,,,,0,,3,0.0,
Raw,1837540,1524070000000,,,-1330742678359871953,0.7046966552734375,31.185543775791302,3.7221941539239976,11.307717405062787,3,2,0.0,15,184202350122642,40,21.6,460.9864196777344,0.7414999604225159,0,0.0,0.0,,,,,0,,1,0.0,
Raw,1837540,1524070000000,,,-1330742678359871953,0.7046966552734375,31.185543775791302,3.7221941539239976,11.307717405062787,3,5,0.0,15,184202360821879,8,36.9,52.15440368652344,0.02120000123977661,0,0.0,0.0,,,,,0,,1,0.0,
Raw,1837540,1524070000000,,,-1330742678359871953,0.7046966552734375,31.185543775791302,3.7221941539239976,11.307717405062787,3,12,0.0,15,184202353082406,5,40.6,683.4783935546875,0.03890000283718109,0,0.0,0.0,,,,,0,,1,0.0,
Raw,1837540,1524070000000,,,-1330742678359871953,0.7046966552734375,31.185543775791302,3.7221941539239976,11.307717405062787,3,18,0.0,15,184202355991565,8,36.4,-408.3251647949219,0.04370000213384628,0,0.0,0.0,,,,,0,,1,0.0,
Raw,1837540,1524070000000,,,-1330742678359871953,0.7046966552734375,31.185543775791302,3.7221941539239976,11.307717405062787,3,20,0.0,15,184202356913095,16,29.0,393.8350830078125,0.050700001418590546,0,0.0,0.0,,,,,0,,1,0.0,
Raw,1837540,1524070000000,,,-1330742678359871953,0.7046966552734375,31.185543775791302,3.7221941539239976,11.307717405062787,3,23,0.0,15,184202345978533,484,14.8,-719.4052124023438,13.669000625610352,0,0.0,0.0,,,,,0,,1,0.0,
Raw,1837540,1524070000000,,,-1330742678359871953,0.7046966552734375,31.185543775791302,3.7221941539239976,11.307717405062787,3,25,0.0,15,184202360173131,6,39.7,383.9287109375,0.019600000232458115,0,0.0,0.0,,,,,0,,1,0.0,
Raw,1837540,1524070000000,,,-1330742678359871953,0.7046966552734375,31.185543775791302,3.7221941539239976,11.307717405062787,3,29,0.0,15,184202360569252,19,27.8,-201.52735900878906,0.04130000248551369,0,0.0,0.0,,,,,0,,1,0.0,
Raw,1837541,1524070000000,,,-1330742678359871953,0.7046966552734375,31.185543775791302,3.7221941539239976,11.307717405062787,3,31,0.0,15,184202347278183,31,23.8,288.5898742675781,0.6270000338554382,0,0.0,0.0,,,,,0,,1,0.0,
Fix,gps,37.427440,-122.170308,-5.826233,0.000000,3.216000,1646708985000
NMEA,$GPGSV,3,1,12,02,26,056,22,05,60,088,37,12,29,163,41,18,36,255,36,1*65
,1646708985002
NMEA,$GPGSV,3,2,12,20,40,053,29,23,04,201,15,25,59,205,40,29,63,338,28,1*6B
,1646708985003
NMEA,$GPGSV,3,3,12,31,11,279,24,13,00,000,,15,05,147,,26,12,317,,1*6C
,1646708985003
NMEA,$GLGSV,3,1,11,78,38,293,33,86,09,068,17,77,33,219,25,79,06,336,16,1*7D
,1646708985008
NMEA,$GLGSV,3,2,11,65,19,146,31,88,40,303,38,87,50,012,27,71,21,039,23,1*7E
,1646708985009
NMEA,$GLGSV,3,3,11,72,35,094,42,76,01,182,,81,00,000,,1*42
,1646708985010
NMEA,$GAGSV,1,1,0,7*43
,1646708985010
NMEA,$PQGSV,1,1,0,0*43
,1646708985011
NMEA,$GBGSV,1,1,0,0*47
,1646708985011
NMEA,$GNGSA,A,3,02,05,12,18,20,25,26,29,31,,,,1.0,0.6,0.8,1*3B
,1646708985021
NMEA,$GNGSA,A,3,65,71,72,77,78,87,88,,,,,,1.0,0.6,0.8,2*3D
,1646708985022
NMEA,$GNVTG,,T,,M,0.0,N,0.0,K,A*3D
,1646708985022
NMEA,$GNGGA,030945.00,3725.646415,N,12210.218508,W,1,12,0.6,22.1,M,-27.9,M,,*7F
,1646708985022
NMEA,$GNRMC,030945.00,A,3725.646415,N,12210.218508,W,0.0,,080322,15.0,E,A,V*58
,1646708985022
NMEA,$AIDSTAT,0,0,0,2,,23,3*00
,1646708985924
Raw,1838513,1525070000000,,,-1330742678359871955,0.33541202545166016,30.24011675734073,0.20278445696982506,10.332446364604182,3,14,0.0,207,22185359922202,13,31.5,-66.45249938964844,0.22370000183582306,0,0.0,0.0,,,,,0,,3,0.0,
Raw,1838513,1525070000000,,,-1330742678359871955,0.33541202545166016,30.24011675734073,0.20278445696982506,10.332446364604182,3,22,0.0,207,22185350484969,99,17.2,494.1300964355469,4.381500244140625,0,0.0,0.0,,,,,0,,3,0.0,
Raw,1838513,1525070000000,,,-1330742678359871955,0.33541202545166016,30.24011675734073,0.20278445696982506,10.332446364604182,3,13,0.0,207,22185358462362,24,25.7,655.655517578125,0.6087999939918518,0,0.0,0.0,,,,,0,,3,0.0,
Raw,1838513,1525070000000,,,-1330742678359871955,0.33541202545166016,30.24011675734073,0.20278445696982506,10.332446364604182,3,15,0.0,207,22185350051014,70,17.9,-628.27294921875,1.381500005722046,0,0.0,0.0,,,,,0,,3,0.0,
Raw,1838514,1525070000000,,,-1330742678359871955,0.33541202545166016,30.24011675734073,0.20278445696982506,10.332446364604182,3,1,0.0,207,22185354645126,14,30.5,-747.950439453125,0.2468000054359436,0,0.0,0.0,,,,,0,,3,0.0,
Raw,1838514,1525070000000,,,-1330742678359871955,0.33541202545166016,30.24011675734073,0.20278445696982506,10.332446364604182,3,24,0.0,207,22185360225223,8,36.2,-268.41973876953125,0.22120000422000885,0,0.0,0.0,,,,,0,,3,0.0,
Raw,1838514,1525070000000,,,-1330742678359871955,0.33541202545166016,30.24011675734073,0.20278445696982506,10.332446364604182,3,23,0.0,207,22185362286348,21,26.7,138.25189208984375,0.3141999840736389,0,0.0,0.0,,,,,0,,3,0.0,
Raw,1838514,1525070000000,,,-1330742678359871955,0.33541202545166016,30.24011675734073,0.20278445696982506,10.332446364604182,3,7,0.0,207,22185354542155,40,21.7,315.3979797363281,1.0674999952316284,0,0.0,0.0,,,,,0,,3,0.0,
Raw,1838514,1525070000000,,,-1330742678359871955,0.33541202545166016,30.24011675734073,0.20278445696982506,10.332446364604182,3,8,0.0,207,22185358913746,5,41.3,-307.26593017578125,0.24610000848770142,0,0.0,0.0,,,,,0,,3,0.0,
Raw,1838515,1525070000000,,,-1330742678359871955,0.33541202545166016,30.24011675734073,0.20278445696982506,10.332446364604182,3,2,0.0,15,184203350121087,27,24.2,462.3946228027344,0.5914999842643738,0,0.0,0.0,,,,,0,,1,0.0,
Raw,1838515,1525070000000,,,-1330742678359871955,0.33541202545166016,30.24011675734073,0.20278445696982506,10.332446364604182,3,5,0.0,15,184203360821708,8,36.4,53.447547912597656,0.02120000123977661,0,0.0,0.0,,,,,0,,1,0.0,
Raw,1838515,1525070000000,,,-1330742678359871955,0.33541202545166016,30.24011675734073,0.20278445696982506,10.332446364604182,3,12,0.0,15,184203353080117,5,40.1,684.6659545898438,0.03890000283718109,0,0.0,0.0,,,,,0,,1,0.0,
Raw,1838515,1525070000000,,,-1330742678359871955,0.33541202545166016,30.24011675734073,0.20278445696982506,10.332446364604182,3,18,0.0,15,184203355992930,8,36.5,-407.11712646484375,0.04370000213384628,0,0.0,0.0,,,,,0,,1,0.0,
Raw,1838515,1525070000000,,,-1330742678359871955,0.33541202545166016,30.24011675734073,0.20278445696982506,10.332446364604182,3,20,0.0,15,184203356911778,17,28.2,395.0166320800781,0.05730000138282776,0,0.0,0.0,,,,,0,,1,0.0,
Raw,1838516,1525070000000,,,-1330742678359871955,0.33541202545166016,30.24011675734073,0.20278445696982506,10.332446364604182,3,23,0.0,15,184203345981034,137,13.8,-718.9485473632812,3.4190001487731934,0,0.0,0.0,,,,,0,,1,0.0,
Raw,1838516,1525070000000,,,-1330742678359871955,0.33541202545166016,30.24011675734073,0.20278445696982506,10.332446364604182,3,25,0.0,15,184203360171847,6,39.6,385.1741638183594,0.019600000232458115,0,0.0,0.0,,,,,0,,1,0.0,
Raw,1838516,1525070000000,,,-1330742678359871955,0.33541202545166016,30.24011675734073,0.20278445696982506,10.332446364604182,3,26,0.0,15,184203349150851,318,22.0,-556.9990844726562,0.949999988079071,0,0.0,0.0,,,,,0,,1,0.0,
Raw,1838516,1525070000000,,,-1330742678359871955,0.33541202545166016,30.24011675734073,0.20278445696982506,10.332446364604182,3,29,0.0,15,184203360569880,21,26.6,-200.323486328125,0.1112000048160553,0,0.0,0.0,,,,,0,,1,0.0,
Raw,1838516,1525070000000,,,-1330742678359871955,0.33541202545166016,30.24011675734073,0.20278445696982506,10.332446364604182,3,31,0.0,15,184203347277182,40,21.5,290.1883544921875,0.7369999885559082,0,0.0,0.0,,,,,0,,1,0.0,
Fix,gps,37.427440,-122.170309,-5.853394,0.000000,3.216000,1646708986000
NMEA,$GPGSV,3,1,12,02,26,056,24,05,60,088,36,12,29,163,40,18,36,255,37,1*62
,1646708986007
NMEA,$GPGSV,3,2,12,20,40,053,28,23,04,201,14,25,59,205,40,26,12,317,22,1*65
,1646708986010
NMEA,$GPGSV,3,3,12,29,63,338,27,31,11,279,22,13,00,000,,15,05,147,,1*6B
,1646708986010
NMEA,$GLGSV,3,1,11,78,38,293,32,86,09,068,17,77,33,219,26,79,06,336,18,1*71
,1646708986010
NMEA,$GLGSV,3,2,11,65,19,146,31,88,40,303,36,87,50,012,27,71,21,039,22,1*71
,1646708986011
NMEA,$GLGSV,3,3,11,72,35,094,41,76,01,182,,81,00,000,,1*41
,1646708986011
NMEA,$GAGSV,1,1,0,7*43
,1646708986012
NMEA,$PQGSV,1,1,0,0*43
,1646708986012
NMEA,$GBGSV,1,1,0,0*47
,1646708986013
NMEA,$GNGSA,A,3,02,05,12,18,20,25,26,29,31,,,,1.0,0.6,0.8,1*3B
,1646708986015
NMEA,$GNGSA,A,3,65,71,72,77,78,87,88,,,,,,1.0,0.6,0.8,2*3D
,1646708986015
NMEA,$GNVTG,,T,,M,0.0,N,0.0,K,A*3D
,1646708986015
NMEA,$GNGGA,030946.00,3725.646371,N,12210.218519,W,1,12,0.6,22.1,M,-27.9,M,,*79
,1646708986016
NMEA,$GNRMC,030946.00,A,3725.646371,N,12210.218519,W,0.0,,080322,15.0,E,A,V*5E
,1646708986016
NMEA,$AIDSTAT,0,0,0,2,-15,23,3*00
,1646708986924
Raw,1839515,1526070000000,,,-1330742678359871950,0.6551265716552734,32.39731086068787,3.9762149430974505,13.265972894830018,3,14,0.0,207,22186359922513,16,29.2,-66.79411315917969,0.22519999742507935,0,0.0,0.0,,,,,0,,3,0.0,
Raw,1839515,1526070000000,,,-1330742678359871950,0.6551265716552734,32.39731086068787,3.9762149430974505,13.265972894830018,3,22,0.0,207,22186350483321,129,17.2,494.1300964355469,5.881500244140625,0,0.0,0.0,,,,,0,,3,0.0,
Raw,1839515,1526070000000,,,-1330742678359871950,0.6551265716552734,32.39731086068787,3.9762149430974505,13.265972894830018,3,13,0.0,207,22186358460096,19,27.2,655.25341796875,0.26829999685287476,0,0.0,0.0,,,,,0,,3,0.0,
Raw,1839516,1526070000000,,,-1330742678359871950,0.6551265716552734,32.39731086068787,3.9762149430974505,13.265972894830018,3,15,0.0,207,22186350052915,81,16.7,-628.2542114257812,1.471500039100647,0,0.0,0.0,,,,,0,,3,0.0,
Raw,1839517,1526070000000,,,-1330742678359871950,0.6551265716552734,32.39731086068787,3.9762149430974505,13.265972894830018,3,1,0.0,207,22186354647634,13,31.4,-748.4195556640625,0.24620001018047333,0,0.0,0.0,,,,,0,,3,0.0,
Raw,1839517,1526070000000,,,-1330742678359871950,0.6551265716552734,32.39731086068787,3.9762149430974505,13.265972894830018,3,24,0.0,207,22186360226136,8,36.4,-268.9716796875,0.22120000422000885,0,0.0,0.0,,,,,0,,3,0.0,
Raw,1839517,1526070000000,,,-1330742678359871950,0.6551265716552734,32.39731086068787,3.9762149430974505,13.265972894830018,3,23,0.0,207,22186362285897,17,28.8,137.67845153808594,0.2363000065088272,0,0.0,0.0,,,,,0,,3,0.0,
Raw,1839518,1526070000000,,,-1330742678359871950,0.6551265716552734,32.39731086068787,3.9762149430974505,13.265972894830018,3,7,0.0,207,22186354541130,27,24.1,314.7815246582031,0.887499988079071,0,0.0,0.0,,,,,0,,3,0.0,
Raw,1839518,1526070000000,,,-1330742678359871950,0.6551265716552734,32.39731086068787,3.9762149430974505,13.265972894830018,3,8,0.0,207,22186358914747,4,42.0,-307.6578063964844,0.24580000340938568,0,0.0,0.0,,,,,0,,3,0.0,
Raw,1839518,1526070000000,,,-1330742678359871950,0.6551265716552734,32.39731086068787,3.9762149430974505,13.265972894830018,3,2,0.0,15,184204350119557,24,25.4,461.7564697265625,0.3968000113964081,0,0.0,0.0,,,,,0,,1,0.0,
Raw,1839518,1526070000000,,,-1330742678359871950,0.6551265716552734,32.39731086068787,3.9762149430974505,13.265972894830018,3,5,0.0,15,184204360821536,7,37.4,52.9784049987793,0.020600000396370888,0,0.0,0.0,,,,,0,,1,0.0,
Raw,1839519,1526070000000,,,-1330742678359871950,0.6551265716552734,32.39731086068787,3.9762149430974505,13.265972894830018,3,12,0.0,15,184204353077842,5,41.1,684.1532592773438,0.038600001484155655,0,0.0,0.0,,,,,0,,1,0.0,
Raw,1839519,1526070000000,,,-1330742678359871950,0.6551265716552734,32.39731086068787,3.9762149430974505,13.265972894830018,3,18,0.0,15,184204355994283,6,38.2,-407.5978088378906,0.04260000213980675,0,0.0,0.0,,,,,0,,1,0.0,
Raw,1839520,1526070000000,,,-1330742678359871950,0.6551265716552734,32.39731086068787,3.9762149430974505,13.265972894830018,3,20,0.0,15,184204356910458,16,29.7,394.6252746582031,0.050700001418590546,0,0.0,0.0,,,,,0,,1,0.0,
Raw,1839520,1526070000000,,,-1330742678359871950,0.6551265716552734,32.39731086068787,3.9762149430974505,13.265972894830018,3,23,0.0,15,184204345983432,161,13.8,-718.9485473632812,4.919000148773193,0,0.0,0.0,,,,,0,,1,0.0,
Raw,1839520,1526070000000,,,-1330742678359871950,0.6551265716552734,32.39731086068787,3.9762149430974505,13.265972894830018,3,25,0.0,15,184204360170570,5,40.7,384.6789245605469,0.01940000057220459,0,0.0,0.0,,,,,0,,1,0.0,
Raw,1839520,1526070000000,,,-1330742678359871950,0.6551265716552734,32.39731086068787,3.9762149430974505,13.265972894830018,3,26,0.0,15,184204349152732,370,21.9,-557.3416137695312,1.7599999904632568,0,0.0,0.0,,,,,0,,1,0.0,
Raw,1839521,1526070000000,,,-1330742678359871950,0.6551265716552734,32.39731086068787,3.9762149430974505,13.265972894830018,3,29,0.0,15,184204360570532,21,26.8,-200.81532287597656,0.1112000048160553,0,0.0,0.0,,,,,0,,1,0.0,
Raw,1839523,1526070000000,,,-1330742678359871950,0.6551265716552734,32.39731086068787,3.9762149430974505,13.265972894830018,3,31,0.0,15,184204347276258,27,24.1,289.7886962890625,0.5870000123977661,0,0.0,0.0,,,,,0,,1,0.0,
Fix,gps,37.427439,-122.170309,-5.866516,0.000000,3.216000,1646708987000
NMEA,$GPGSV,3,1,12,02,26,056,25,05,60,088,37,12,29,163,41,18,36,255,38,1*6C
,1646708987002
NMEA,$GPGSV,3,2,12,20,40,053,30,23,04,201,14,25,59,205,41,26,12,317,22,1*6D
,1646708987002
NMEA,$GPGSV,3,3,12,29,63,338,27,31,11,279,24,13,00,000,,15,05,147,,1*6D
,1646708987002
NMEA,$GLGSV,3,1,11,78,38,293,29,86,09,068,17,77,33,219,27,79,06,336,17,1*75
,1646708987002
NMEA,$GLGSV,3,2,11,65,19,146,31,88,40,303,36,87,50,012,29,71,21,039,24,1*79
,1646708987002
NMEA,$GLGSV,3,3,11,72,35,094,42,76,01,182,,81,00,000,,1*42
,1646708987003
NMEA,$GAGSV,1,1,0,7*43
,1646708987003
NMEA,$PQGSV,1,1,0,0*43
,1646708987003
NMEA,$GBGSV,1,1,0,0*47
,1646708987003
NMEA,$GNGSA,A,3,02,05,12,18,20,25,26,29,31,,,,1.0,0.6,0.8,1*3B
,1646708987005
NMEA,$GNGSA,A,3,65,71,72,77,78,87,88,,,,,,1.0,0.6,0.8,2*3D
,1646708987005
NMEA,$GNVTG,,T,,M,0.0,N,0.0,K,A*3D
,1646708987005
NMEA,$GNGGA,030947.00,3725.646348,N,12210.218533,W,1,12,0.6,22.1,M,-27.9,M,,*7A
,1646708987005
NMEA,$GNRMC,030947.00,A,3725.646348,N,12210.218533,W,0.0,,080322,15.0,E,A,V*5D
,1646708987005
NMEA,$AIDSTAT,0,0,0,2,,23,3*00
,1646708987925
Raw,1840510,1527070000000,,,-1330742678359871954,0.4828014373779297,35.66901432350278,2.535397648056897,14.264484366964474,3,14,0.0,207,22187359922651,14,30.6,-68.12543487548828,0.22429999709129333,0,0.0,0.0,,,,,0,,3,0.0,
Raw,1840511,1527070000000,,,-1330742678359871954,0.4828014373779297,35.66901432350278,2.535397648056897,14.264484366964474,3,22,0.0,207,22187350481672,169,17.2,494.1300964355469,7.381500244140625,0,0.0,0.0,,,,,0,,3,0.0,
Raw,1840511,1527070000000,,,-1330742678359871954,0.4828014373779297,35.66901432350278,2.535397648056897,14.264484366964474,3,13,0.0,207,22187358457971,19,27.8,653.8628540039062,0.26829999685287476,0,0.0,0.0,,,,,0,,3,0.0,
Raw,1840512,1527070000000,,,-1330742678359871954,0.4828014373779297,35.66901432350278,2.535397648056897,14.264484366964474,3,15,0.0,207,22187350055345,46,20.3,-628.7127075195312,1.131500005722046,0,0.0,0.0,,,,,0,,3,0.0,
Raw,1840512,1527070000000,,,-1330742678359871954,0.4828014373779297,35.66901432350278,2.535397648056897,14.264484366964474,3,1,0.0,207,22187354650101,13,31.2,-749.8710327148438,0.24620001018047333,0,0.0,0.0,,,,,0,,3,0.0,
Raw,1840512,1527070000000,,,-1330742678359871954,0.4828014373779297,35.66901432350278,2.535397648056897,14.264484366964474,3,24,0.0,207,22187360227002,6,38.3,-270.3721923828125,0.22010000050067902,0,0.0,0.0,,,,,0,,3,0.0,
Raw,1840512,1527070000000,,,-1330742678359871954,0.4828014373779297,35.66901432350278,2.535397648056897,14.264484366964474,3,23,0.0,207,22187362285372,14,30.0,136.26072692871094,0.2287999987602234,0,0.0,0.0,,,,,0,,3,0.0,
Raw,1840512,1527070000000,,,-1330742678359871954,0.4828014373779297,35.66901432350278,2.535397648056897,14.264484366964474,3,7,0.0,207,22187354540108,24,25.1,313.7727355957031,0.6028000116348267,0,0.0,0.0,,,,,0,,3,0.0,
Raw,1840513,1527070000000,,,-1330742678359871954,0.4828014373779297,35.66901432350278,2.535397648056897,14.264484366964474,3,8,0.0,207,22187358915785,4,42.3,-309.0040588378906,0.24580000340938568,0,0.0,0.0,,,,,0,,3,0.0,
Raw,1840513,1527070000000,,,-1330742678359871954,0.4828014373779297,35.66901432350278,2.535397648056897,14.264484366964474,3,2,0.0,15,184205350118007,24,25.1,460.1831359863281,0.3968000113964081,0,0.0,0.0,,,,,0,,1,0.0,
Raw,1840513,1527070000000,,,-1330742678359871954,0.4828014373779297,35.66901432350278,2.535397648056897,14.264484366964474,3,5,0.0,15,184205360821372,7,37.3,51.60429382324219,0.020600000396370888,0,0.0,0.0,,,,,0,,1,0.0,
Raw,1840513,1527070000000,,,-1330742678359871954,0.4828014373779297,35.66901432350278,2.535397648056897,14.264484366964474,3,12,0.0,15,184205353075551,5,40.4,682.687255859375,0.03890000283718109,0,0.0,0.0,,,,,0,,1,0.0,
Raw,1840513,1527070000000,,,-1330742678359871954,0.4828014373779297,35.66901432350278,2.535397648056897,14.264484366964474,3,18,0.0,15,184205355995649,7,37.6,-409.0225830078125,0.04310000315308571,0,0.0,0.0,,,,,0,,1,0.0,
Raw,1840513,1527070000000,,,-1330742678359871954,0.4828014373779297,35.66901432350278,2.535397648056897,14.264484366964474,3,20,0.0,15,184205356909183,16,29.5,393.17236328125,0.050700001418590546,0,0.0,0.0,,,,,0,,1,0.0,
Raw,1840514,1527070000000,,,-1330742678359871954,0.4828014373779297,35.66901432350278,2.535397648056897,14.264484366964474,3,25,0.0,15,184205360169295,5,40.6,383.285888671875,0.01940000057220459,0,0.0,0.0,,,,,0,,1,0.0,
Raw,1840514,1527070000000,,,-1330742678359871954,0.4828014373779297,35.66901432350278,2.535397648056897,14.264484366964474,3,26,0.0,15,184205349154477,27,24.6,-558.3882446289062,0.6050000190734863,0,0.0,0.0,,,,,0,,1,0.0,
Raw,1840514,1527070000000,,,-1330742678359871954,0.4828014373779297,35.66901432350278,2.535397648056897,14.264484366964474,3,29,0.0,15,184205360571231,17,28.1,-202.37945556640625,0.0333000011742115,0,0.0,0.0,,,,,0,,1,0.0,
Raw,1840514,1527070000000,,,-1330742678359871954,0.4828014373779297,35.66901432350278,2.535397648056897,14.264484366964474,3,31,0.0,15,184205347275194,24,25.6,288.30523681640625,0.392300009727478,0,0.0,0.0,,,,,0,,1,0.0,
Fix,gps,37.427439,-122.170309,-5.864563,0.000000,3.216000,1646708988000
NMEA,$GPGSV,3,1,12,02,26,056,25,05,60,088,37,12,29,163,40,18,36,255,38,1*6D
,1646708988003
NMEA,$GPGSV,3,2,12,20,40,053,30,25,59,205,41,26,12,317,25,29,63,338,28,1*65
,1646708988004
NMEA,$GPGSV,3,3,12,31,11,279,26,13,00,000,,15,05,147,,23,04,201,,1*6A
,1646708988004
NMEA,$GLGSV,3,1,11,78,38,293,31,86,09,068,17,77,33,219,28,79,06,336,20,1*77
,1646708988004
NMEA,$GLGSV,3,2,11,65,19,146,31,88,40,303,38,87,50,012,30,71,21,039,25,1*7E
,1646708988005
NMEA,$GLGSV,3,3,11,72,35,094,42,76,01,182,,81,00,000,,1*42
,1646708988007
NMEA,$GAGSV,1,1,0,7*43
,1646708988007
NMEA,$PQGSV,1,1,0,0*43
,1646708988007
NMEA,$GBGSV,1,1,0,0*47
,1646708988007
NMEA,$GNGSA,A,3,02,05,12,18,20,25,26,29,31,,,,1.0,0.6,0.8,1*3B
,1646708988010
NMEA,$GNGSA,A,3,65,71,72,77,78,87,88,,,,,,1.0,0.6,0.8,2*3D
,1646708988011
NMEA,$GNVTG,,T,,M,0.0,N,0.0,K,A*3D
,1646708988011
NMEA,$GNGGA,030948.00,3725.646332,N,12210.218542,W,1,12,0.6,22.1,M,-27.9,M,,*7E
,1646708988011
NMEA,$GNRMC,030948.00,A,3725.646332,N,12210.218542,W,0.0,,080322,15.0,E,A,V*59
,1646708988011
NMEA,$AIDSTAT,0,0,0,2,-27,23,3*00
,1646708988924
Raw,1841543,1528070000000,,,-1330742678359871956,0.8883771896362305,37.9570119548589,-2.3629225575747093,15.188824164039959,3,14,0.0,207,22188359922869,16,29.6,-69.48707580566406,0.22519999742507935,0,0.0,0.0,,,,,0,,3,0.0,
Raw,1841543,1528070000000,,,-1330742678359871956,0.8883771896362305,37.9570119548589,-2.3629225575747093,15.188824164039959,3,22,0.0,207,22188350480024,219,17.2,494.1300964355469,8.881500244140625,0,0.0,0.0,,,,,0,,3,0.0,
Raw,1841543,1528070000000,,,-1330742678359871956,0.8883771896362305,37.9570119548589,-2.3629225575747093,15.188824164039959,3,13,0.0,207,22188358455724,21,26.9,652.3248291015625,0.33820000290870667,0,0.0,0.0,,,,,0,,3,0.0,
Raw,1841543,1528070000000,,,-1330742678359871956,0.8883771896362305,37.9570119548589,-2.3629225575747093,15.188824164039959,3,15,0.0,207,22188350057342,46,20.8,-630.6495361328125,1.131500005722046,0,0.0,0.0,,,,,0,,3,0.0,
Raw,1841543,1528070000000,,,-1330742678359871956,0.8883771896362305,37.9570119548589,-2.3629225575747093,15.188824164039959,3,1,0.0,207,22188354652626,16,29.2,-751.3629760742188,0.24770000576972961,0,0.0,0.0,,,,,0,,3,0.0,
Raw,1841543,1528070000000,,,-1330742678359871956,0.8883771896362305,37.9570119548589,-2.3629225575747093,15.188824164039959,3,24,0.0,207,22188360227908,7,37.8,-271.9150085449219,0.22059999406337738,0,0.0,0.0,,,,,0,,3,0.0,
Raw,1841544,1528070000000,,,-1330742678359871956,0.8883771896362305,37.9570119548589,-2.3629225575747093,15.188824164039959,3,23,0.0,207,22188362284965,16,29.4,134.74049377441406,0.2296999990940094,0,0.0,0.0,,,,,0,,3,0.0,
Raw,1841544,1528070000000,,,-1330742678359871956,0.8883771896362305,37.9570119548589,-2.3629225575747093,15.188824164039959,3,7,0.0,207,22188354539107,21,26.6,312.3077392578125,0.33219999074935913,0,0.0,0.0,,,,,0,,3,0.0,
Raw,1841544,1528070000000,,,-1330742678359871956,0.8883771896362305,37.9570119548589,-2.3629225575747093,15.188824164039959,3,8,0.0,207,22188358916825,5,41.9,-310.3960266113281,0.24610000848770142,0,0.0,0.0,,,,,0,,3,0.0,
Raw,1841544,1528070000000,,,-1330742678359871956,0.8883771896362305,37.9570119548589,-2.3629225575747093,15.188824164039959,3,2,0.0,15,184206350116501,31,23.8,458.5792236328125,0.6315000057220459,0,0.0,0.0,,,,,0,,1,0.0,
Raw,1841544,1528070000000,,,-1330742678359871956,0.8883771896362305,37.9570119548589,-2.3629225575747093,15.188824164039959,3,5,0.0,15,184206360821191,7,37.3,50.261322021484375,0.020600000396370888,0,0.0,0.0,,,,,0,,1,0.0,
Raw,1841544,1528070000000,,,-1330742678359871956,0.8883771896362305,37.9570119548589,-2.3629225575747093,15.188824164039959,3,12,0.0,15,184206353073276,6,39.3,681.208251953125,0.039100002497434616,0,0.0,0.0,,,,,0,,1,0.0,
Raw,1841544,1528070000000,,,-1330742678359871956,0.8883771896362305,37.9570119548589,-2.3629225575747093,15.188824164039959,3,18,0.0,15,184206355997012,8,36.6,-410.5455017089844,0.04370000213384628,0,0.0,0.0,,,,,0,,1,0.0,
Raw,1841544,1528070000000,,,-1330742678359871956,0.8883771896362305,37.9570119548589,-2.3629225575747093,15.188824164039959,3,20,0.0,15,184206356907905,17,28.6,391.7806091308594,0.05730000138282776,0,0.0,0.0,,,,,0,,1,0.0,
Raw,1841544,1528070000000,,,-1330742678359871956,0.8883771896362305,37.9570119548589,-2.3629225575747093,15.188824164039959,3,25,0.0,15,184206360168012,6,39.1,381.9036865234375,0.019600000232458115,0,0.0,0.0,,,,,0,,1,0.0,
Raw,1841544,1528070000000,,,-1330742678359871956,0.8883771896362305,37.9570119548589,-2.3629225575747093,15.188824164039959,3,26,0.0,15,184206349156367,24,25.2,-559.7964477539062,0.3953000009059906,0,0.0,0.0,,,,,0,,1,0.0,
Raw,1841544,1528070000000,,,-1330742678359871956,0.8883771896362305,37.9570119548589,-2.3629225575747093,15.188824164039959,3,29,0.0,15,184206360571932,19,27.0,-203.77853393554688,0.04130000248551369,0,0.0,0.0,,,,,0,,1,0.0,
Raw,1841544,1528070000000,,,-1330742678359871956,0.8883771896362305,37.9570119548589,-2.3629225575747093,15.188824164039959,3,31,0.0,15,184206347274210,17,28.6,286.75201416015625,0.043800000101327896,0,0.0,0.0,,,,,0,,1,0.0,
Fix,gps,37.427439,-122.170309,-5.862762,0.000000,3.216000,1646708989000
NMEA,$GPGSV,3,1,12,02,26,056,24,05,60,088,37,12,29,163,39,18,36,255,37,1*6D
,1646708989000
NMEA,$GPGSV,3,2,12,20,40,053,29,25,59,205,39,26,12,317,25,29,63,338,27,1*6D
,1646708989000
NMEA,$GPGSV,3,3,12,31,11,279,29,13,00,000,,15,05,147,,23,04,201,,1*65
,1646708989000
NMEA,$GLGSV,3,1,11,78,38,293,30,86,09,068,17,77,33,219,27,79,06,336,21,1*78
,1646708989004
NMEA,$GLGSV,3,2,11,65,19,146,29,88,40,303,38,87,50,012,29,71,21,039,27,1*7D
,1646708989004
NMEA,$GLGSV,3,3,11,72,35,094,42,76,01,182,,81,00,000,,1*42
,1646708989004
NMEA,$GAGSV,1,1,0,7*43
,1646708989004
NMEA,$PQGSV,1,1,0,0*43
,1646708989004
NMEA,$GBGSV,1,1,0,0*47
,1646708989007
NMEA,$GNGSA,A,3,02,05,12,18,20,25,26,29,31,,,,1.0,0.6,0.8,1*3B
,1646708989019
NMEA,$GNGSA,A,3,65,71,72,77,78,87,88,,,,,,1.0,0.6,0.8,2*3D
,1646708989019
NMEA,$GNVTG,,T,,M,0.0,N,0.0,K,A*3D
,1646708989019
NMEA,$GNGGA,030949.00,3725.646324,N,12210.218548,W,1,12,0.6,22.1,M,-27.9,M,,*72
,1646708989019
NMEA,$GNRMC,030949.00,A,3725.646324,N,12210.218548,W,0.0,,080322,15.0,E,A,V*55
,1646708989019
NMEA,$AIDSTAT,0,0,0,2,-8,23,3*00
,1646708989924
Raw,1842508,1529070000000,,,-1330742678359871962,0.49577903747558594,40.672221075510606,-7.243991575993757,17.57761097679278,3,14,0.0,207,22189359923119,9,35.9,-69.71339416503906,0.22010000050067902,0,0.0,0.0,,,,,0,,3,0.0,
Raw,1842508,1529070000000,,,-1330742678359871962,0.49577903747558594,40.672221075510606,-7.243991575993757,17.57761097679278,3,22,0.0,207,22189350478376,278,17.2,494.1300964355469,10.381500244140625,0,0.0,0.0,,,,,0,,3,0.0,
Raw,1842509,1529070000000,,,-1330742678359871962,0.49577903747558594,40.672221075510606,-7.243991575993757,17.57761097679278,3,13,0.0,207,22189358453564,16,29.1,652.1116333007812,0.25369998812675476,0,0.0,0.0,,,,,0,,3,0.0,
Raw,1842509,1529070000000,,,-1330742678359871962,0.49577903747558594,40.672221075510606,-7.243991575993757,17.57761097679278,3,15,0.0,207,22189350059450,46,20.7,-630.4905395507812,1.131500005722046,0,0.0,0.0,,,,,0,,3,0.0,
Raw,1842509,1529070000000,,,-1330742678359871962,0.49577903747558594,40.672221075510606,-7.243991575993757,17.57761097679278,3,1,0.0,207,22189354655143,11,33.0,-751.765625,0.24390001595020294,0,0.0,0.0,,,,,0,,3,0.0,
Raw,1842509,1529070000000,,,-1330742678359871962,0.49577903747558594,40.672221075510606,-7.243991575993757,17.57761097679278,3,24,0.0,207,22189360228829,9,35.0,-272.2871398925781,0.2215999960899353,0,0.0,0.0,,,,,0,,3,0.0,
Raw,1842509,1529070000000,,,-1330742678359871962,0.49577903747558594,40.672221075510606,-7.243991575993757,17.57761097679278,3,23,0.0,207,22189362284538,16,29.8,134.44313049316406,0.2296999990940094,0,0.0,0.0,,,,,0,,3,0.0,
Raw,1842509,1529070000000,,,-1330742678359871962,0.49577903747558594,40.672221075510606,-7.243991575993757,17.57761097679278,3,7,0.0,207,22189354538084,31,23.7,311.7925720214844,0.9474999904632568,0,0.0,0.0,,,,,0,,3,0.0,
Raw,1842509,1529070000000,,,-1330742678359871962,0.49577903747558594,40.672221075510606,-7.243991575993757,17.57761097679278,3,8,0.0,207,22189358917876,6,38.0,-310.6769714355469,0.24710001051425934,0,0.0,0.0,,,,,0,,3,0.0,
Raw,1842509,1529070000000,,,-1330742678359871962,0.49577903747558594,40.672221075510606,-7.243991575993757,17.57761097679278,3,2,0.0,15,184207350114932,19,27.9,458.23876953125,0.056300003081560135,0,0.0,0.0,,,,,0,,1,0.0,
Raw,1842509,1529070000000,,,-1330742678359871962,0.49577903747558594,40.672221075510606,-7.243991575993757,17.57761097679278,3,5,0.0,15,184207360821039,6,38.5,49.99150848388672,0.020100001245737076,0,0.0,0.0,,,,,0,,1,0.0,
Raw,1842510,1529070000000,,,-1330742678359871962,0.49577903747558594,40.672221075510606,-7.243991575993757,17.57761097679278,3,12,0.0,15,184207353071008,5,40.4,680.8466796875,0.03890000283718109,0,0.0,0.0,,,,,0,,1,0.0,
Raw,1842510,1529070000000,,,-1330742678359871962,0.49577903747558594,40.672221075510606,-7.243991575993757,17.57761097679278,3,15,0.0,15,184207345939407,424,20.2,-579.8914184570312,1.2890000343322754,0,0.0,0.0,,,,,0,,1,0.0,
Raw,1842510,1529070000000,,,-1330742678359871962,0.49577903747558594,40.672221075510606,-7.243991575993757,17.57761097679278,3,18,0.0,15,184207355998376,8,36.3,-410.85430908203125,0.04370000213384628,0,0.0,0.0,,,,,0,,1,0.0,
Raw,1842510,1529070000000,,,-1330742678359871962,0.49577903747558594,40.672221075510606,-7.243991575993757,17.57761097679278,3,20,0.0,15,184207356906617,14,30.4,391.4538269042969,0.049800001084804535,0,0.0,0.0,,,,,0,,1,0.0,
Raw,1842511,1529070000000,,,-1330742678359871962,0.49577903747558594,40.672221075510606,-7.243991575993757,17.57761097679278,3,25,0.0,15,184207360166737,9,35.8,381.56866455078125,0.02160000056028366,0,0.0,0.0,,,,,0,,1,0.0,
Raw,1842511,1529070000000,,,-1330742678359871962,0.49577903747558594,40.672221075510606,-7.243991575993757,17.57761097679278,3,26,0.0,15,184207349158245,17,28.6,-560.1327514648438,0.046800002455711365,0,0.0,0.0,,,,,0,,1,0.0,
Raw,1842511,1529070000000,,,-1330742678359871962,0.49577903747558594,40.672221075510606,-7.243991575993757,17.57761097679278,3,29,0.0,15,184207360572631,31,23.1,-203.59519958496094,0.6165000200271606,0,0.0,0.0,,,,,0,,1,0.0,
Raw,1842511,1529070000000,,,-1330742678359871962,0.49577903747558594,40.672221075510606,-7.243991575993757,17.57761097679278,3,31,0.0,15,184207347273305,21,26.9,286.485595703125,0.12170000374317169,0,0.0,0.0,,,,,0,,1,0.0,
Fix,gps,37.427439,-122.170309,-5.863617,0.000000,3.216000,1646708990000
NMEA,$GPGSV,3,1,12,02,26,056,28,05,60,088,39,12,29,163,40,15,05,147,20,1*6A
,1646708990004
NMEA,$GPGSV,3,2,12,18,36,255,36,20,40,053,30,25,59,205,36,26,12,317,29,1*6E
,1646708990005
NMEA,$GPGSV,3,3,12,29,63,338,23,31,11,279,27,13,00,000,,23,04,201,,1*6F
,1646708990005
NMEA,$GLGSV,3,1,11,78,38,293,36,86,09,068,17,77,33,219,29,79,06,336,21,1*70
,1646708990005
NMEA,$GLGSV,3,2,11,65,19,146,33,88,40,303,35,87,50,012,30,71,21,039,24,1*70
,1646708990005
NMEA,$GLGSV,3,3,11,72,35,094,38,76,01,182,,81,00,000,,1*4F
,1646708990005
NMEA,$GAGSV,1,1,0,7*43
,1646708990006
NMEA,$PQGSV,1,1,0,0*43
,1646708990006
NMEA,$GBGSV,1,1,0,0*47
,1646708990006
NMEA,$GNGSA,A,3,02,05,12,18,20,25,26,29,31,,,,1.0,0.6,0.8,1*3B
,1646708990008
NMEA,$GNGSA,A,3,65,71,72,77,78,87,88,,,,,,1.0,0.6,0.8,2*3D
,1646708990009
NMEA,$GNVTG,,T,,M,0.0,N,0.0,K,A*3D
,1646708990009
NMEA,$GNGGA,030950.00,3725.646320,N,12210.218551,W,1,12,0.6,22.1,M,-27.9,M,,*76
,1646708990009
NMEA,$GNRMC,030950.00,A,3725.646320,N,12210.218551,W,0.0,,080322,15.0,E,A,V*51
,1646708990009
NMEA,$AIDSTAT,0,0,0,2,,23,3*00
,1646708990924
Raw,1843508,1530070000000,,,-1330742678359871977,0.4158039093017578,34.30523429415189,-8.997969373479066,13.919974372802706,3,14,0.0,207,22190359923278,31,23.9,-68.74508666992188,0.9249999523162842,0,0.0,0.0,,,,,0,,3,0.0,
Raw,1843508,1530070000000,,,-1330742678359871977,0.4158039093017578,34.30523429415189,-8.997969373479066,13.919974372802706,3,22,0.0,207,22190350476728,348,17.2,494.1300964355469,11.881500244140625,0,0.0,0.0,,,,,0,,3,0.0,
Raw,1843508,1530070000000,,,-1330742678359871977,0.4158039093017578,34.30523429415189,-8.997969373479066,13.919974372802706,3,13,0.0,207,22190358451445,19,27.9,652.7211303710938,0.26829999685287476,0,0.0,0.0,,,,,0,,3,0.0,
Raw,1843508,1530070000000,,,-1330742678359871977,0.4158039093017578,34.30523429415189,-8.997969373479066,13.919974372802706,3,15,0.0,207,22190350061483,31,23.5,-630.031982421875,0.9414999485015869,0,0.0,0.0,,,,,0,,3,0.0,
Raw,1843509,1530070000000,,,-1330742678359871977,0.4158039093017578,34.30523429415189,-8.997969373479066,13.919974372802706,3,1,0.0,207,22190354657690,14,30.4,-751.1937866210938,0.2468000054359436,0,0.0,0.0,,,,,0,,3,0.0,
Raw,1843509,1530070000000,,,-1330742678359871977,0.4158039093017578,34.30523429415189,-8.997969373479066,13.919974372802706,3,24,0.0,207,22190360229733,8,36.5,-271.6968078613281,0.22120000422000885,0,0.0,0.0,,,,,0,,3,0.0,
Raw,1843509,1530070000000,,,-1330742678359871977,0.4158039093017578,34.30523429415189,-8.997969373479066,13.919974372802706,3,23,0.0,207,22190362284129,14,30.1,134.9695587158203,0.2287999987602234,0,0.0,0.0,,,,,0,,3,0.0,
Raw,1843509,1530070000000,,,-1330742678359871977,0.4158039093017578,34.30523429415189,-8.997969373479066,13.919974372802706,3,7,0.0,207,22190354536943,35,22.0,312.2596130371094,1.0074999332427979,0,0.0,0.0,,,,,0,,3,0.0,
Raw,1843509,1530070000000,,,-1330742678359871977,0.4158039093017578,34.30523429415189,-8.997969373479066,13.919974372802706,3,8,0.0,207,22190358918875,5,40.1,-310.0089416503906,0.24640001356601715,0,0.0,0.0,,,,,0,,3,0.0,
Raw,1843509,1530070000000,,,-1330742678359871977,0.4158039093017578,34.30523429415189,-8.997969373479066,13.919974372802706,3,2,0.0,15,184208350113391,19,27.6,458.78515625,0.056300003081560135,0,0.0,0.0,,,,,0,,1,0.0,
Raw,1843509,1530070000000,,,-1330742678359871977,0.4158039093017578,34.30523429415189,-8.997969373479066,13.919974372802706,3,5,0.0,15,184208360820877,6,38.4,50.587806701660156,0.020100001245737076,0,0.0,0.0,,,,,0,,1,0.0,
Raw,1843510,1530070000000,,,-1330742678359871977,0.4158039093017578,34.30523429415189,-8.997969373479066,13.919974372802706,3,12,0.0,15,184208353068725,6,38.8,681.4428100585938,0.03959999978542328,0,0.0,0.0,,,,,0,,1,0.0,
Raw,1843510,1530070000000,,,-1330742678359871977,0.4158039093017578,34.30523429415189,-8.997969373479066,13.919974372802706,3,18,0.0,15,184208355999749,5,40.2,-410.31390380859375,0.04190000146627426,0,0.0,0.0,,,,,0,,1,0.0,
Raw,1843510,1530070000000,,,-1330742678359871977,0.4158039093017578,34.30523429415189,-8.997969373479066,13.919974372802706,3,20,0.0,15,184208356905294,12,32.0,392.00152587890625,0.0479000024497509,0,0.0,0.0,,,,,0,,1,0.0,
Raw,1843510,1530070000000,,,-1330742678359871977,0.4158039093017578,34.30523429415189,-8.997969373479066,13.919974372802706,3,25,0.0,15,184208360165455,6,38.6,382.2424621582031,0.020100001245737076,0,0.0,0.0,,,,,0,,1,0.0,
Raw,1843510,1530070000000,,,-1330742678359871977,0.4158039093017578,34.30523429415189,-8.997969373479066,13.919974372802706,3,26,0.0,15,184208349160082,17,28.0,-559.6078491210938,0.046800002455711365,0,0.0,0.0,,,,,0,,1,0.0,
Raw,1843510,1530070000000,,,-1330742678359871977,0.4158039093017578,34.30523429415189,-8.997969373479066,13.919974372802706,3,29,0.0,15,184208360573305,14,30.2,-203.6333465576172,0.025800000876188278,0,0.0,0.0,,,,,0,,1,0.0,
Raw,1843510,1530070000000,,,-1330742678359871977,0.4158039093017578,34.30523429415189,-8.997969373479066,13.919974372802706,3,31,0.0,15,184208347272342,16,29.2,287.0599670410156,0.03720000013709068,0,0.0,0.0,,,,,0,,1,0.0,
Fix,gps,37.427439,-122.170309,-5.862854,0.000000,3.216000,1646708991000
NMEA,$GPGSV,3,1,12,02,26,056,28,05,60,088,38,12,29,163,39,18,36,255,40,1*6E
,1646708991003
NMEA,$GPGSV,3,2,12,20,40,053,32,25,59,205,39,26,12,317,28,29,63,338,30,1*6C
,1646708991003
NMEA,$GPGSV,3,3,12,31,11,279,29,13,00,000,,15,05,147,,23,04,201,,1*65
,1646708991003
NMEA,$GLGSV,3,1,11,78,38,293,24,86,09,068,17,77,33,219,28,79,06,336,24,1*77
,1646708991003
NMEA,$GLGSV,3,2,11,65,19,146,30,88,40,303,37,87,50,012,30,71,21,039,22,1*77
,1646708991004
NMEA,$GLGSV,3,3,11,72,35,094,40,76,01,182,,81,00,000,,1*40
,1646708991004
NMEA,$GAGSV,1,1,0,7*43
,1646708991004
NMEA,$PQGSV,1,1,0,0*43
,1646708991004
NMEA,$GBGSV,1,1,0,0*47
,1646708991004
NMEA,$GNGSA,A,3,02,05,12,18,20,25,26,29,31,,,,1.0,0.6,0.8,1*3B
,1646708991007
NMEA,$GNGSA,A,3,65,71,72,77,78,87,88,,,,,,1.0,0.6,0.8,2*3D
,1646708991007
NMEA,$GNVTG,,T,,M,0.0,N,0.0,K,A*3D
,1646708991007
NMEA,$GNGGA,030951.00,3725.646317,N,12210.218553,W,1,12,0.6,22.1,M,-27.9,M,,*71
,1646708991007
NMEA,$GNRMC,030951.00,A,3725.646317,N,12210.218553,W,0.0,,080322,15.0,E,A,V*56
,1646708991007
NMEA,$AIDSTAT,0,0,0,2,,23,3*00
,1646708991925
Raw,1844511,1531070000000,,,-1330742678359871988,0.3144388198852539,36.84579860419035,-7.4308502772413485,13.879873235793392,3,14,0.0,207,22191359923652,14,30.7,-68.43851470947266,0.22429999709129333,0,0.0,0.0,,,,,0,,3,0.0,
Raw,1844511,1531070000000,,,-1330742678359871988,0.3144388198852539,36.84579860419035,-7.4308502772413485,13.879873235793392,3,22,0.0,207,22191350475079,428,17.2,494.1300964355469,13.381500244140625,0,0.0,0.0,,,,,0,,3,0.0,
Raw,1844511,1531070000000,,,-1330742678359871988,0.3144388198852539,36.84579860419035,-7.4308502772413485,13.879873235793392,3,13,0.0,207,22191358449310,21,26.4,653.1769409179688,0.33820000290870667,0,0.0,0.0,,,,,0,,3,0.0,
Raw,1844511,1531070000000,,,-1330742678359871988,0.3144388198852539,36.84579860419035,-7.4308502772413485,13.879873235793392,3,15,0.0,207,22191350063652,27,24.1,-629.7606811523438,0.8814999461174011,0,0.0,0.0,,,,,0,,3,0.0,
Raw,1844511,1531070000000,,,-1330742678359871988,0.3144388198852539,36.84579860419035,-7.4308502772413485,13.879873235793392,3,1,0.0,207,22191354660207,13,31.1,-750.7679443359375,0.24620001018047333,0,0.0,0.0,,,,,0,,3,0.0,
Raw,1844511,1531070000000,,,-1330742678359871988,0.3144388198852539,36.84579860419035,-7.4308502772413485,13.879873235793392,3,24,0.0,207,22191360230629,8,36.3,-271.2304382324219,0.22120000422000885,0,0.0,0.0,,,,,0,,3,0.0,
Raw,1844511,1531070000000,,,-1330742678359871988,0.3144388198852539,36.84579860419035,-7.4308502772413485,13.879873235793392,3,23,0.0,207,22191362283655,16,29.8,135.45201110839844,0.2296999990940094,0,0.0,0.0,,,,,0,,3,0.0,
Raw,1844511,1531070000000,,,-1330742678359871988,0.3144388198852539,36.84579860419035,-7.4308502772413485,13.879873235793392,3,7,0.0,207,22191354535881,21,26.2,313.29315185546875,0.33219999074935913,0,0.0,0.0,,,,,0,,3,0.0,
Raw,1844511,1531070000000,,,-1330742678359871988,0.3144388198852539,36.84579860419035,-7.4308502772413485,13.879873235793392,3,8,0.0,207,22191358919919,5,41.7,-309.4621887207031,0.24610000848770142,0,0.0,0.0,,,,,0,,3,0.0,
Raw,1844512,1531070000000,,,-1330742678359871988,0.3144388198852539,36.84579860419035,-7.4308502772413485,13.879873235793392,3,2,0.0,15,184209350111836,19,27.5,459.18243408203125,0.056300003081560135,0,0.0,0.0,,,,,0,,1,0.0,
Raw,1844512,1531070000000,,,-1330742678359871988,0.3144388198852539,36.84579860419035,-7.4308502772413485,13.879873235793392,3,5,0.0,15,184209360820714,6,38.4,51.1549186706543,0.020100001245737076,0,0.0,0.0,,,,,0,,1,0.0,
Raw,1844512,1531070000000,,,-1330742678359871988,0.3144388198852539,36.84579860419035,-7.4308502772413485,13.879873235793392,3,12,0.0,15,184209353066438,6,38.7,681.8478393554688,0.03959999978542328,0,0.0,0.0,,,,,0,,1,0.0,
Raw,1844512,1531070000000,,,-1330742678359871988,0.3144388198852539,36.84579860419035,-7.4308502772413485,13.879873235793392,3,15,0.0,15,184209345943271,423,20.9,-578.987548828125,0.9889999628067017,0,0.0,0.0,,,,,0,,1,0.0,
Raw,1844512,1531070000000,,,-1330742678359871988,0.3144388198852539,36.84579860419035,-7.4308502772413485,13.879873235793392,3,18,0.0,15,184209356001115,5,41.3,-409.8361511230469,0.04310000315308571,0,0.0,0.0,,,,,0,,1,0.0,
Raw,1844512,1531070000000,,,-1330742678359871988,0.3144388198852539,36.84579860419035,-7.4308502772413485,13.879873235793392,3,20,0.0,15,184209356903975,14,30.9,392.5010986328125,0.049800001084804535,0,0.0,0.0,,,,,0,,1,0.0,
Raw,1844512,1531070000000,,,-1330742678359871988,0.3144388198852539,36.84579860419035,-7.4308502772413485,13.879873235793392,3,23,0.0,15,184209345995534,880,15.8,-723.1825561523438,3.694000005722046,0,0.0,0.0,,,,,0,,1,0.0,
Raw,1844512,1531070000000,,,-1330742678359871988,0.3144388198852539,36.84579860419035,-7.4308502772413485,13.879873235793392,3,25,0.0,15,184209360164169,6,39.4,382.7253723144531,0.019600000232458115,0,0.0,0.0,,,,,0,,1,0.0,
Raw,1844512,1531070000000,,,-1330742678359871988,0.3144388198852539,36.84579860419035,-7.4308502772413485,13.879873235793392,3,26,0.0,15,184209349161938,19,27.9,-559.0612182617188,0.05480000376701355,0,0.0,0.0,,,,,0,,1,0.0,
Raw,1844513,1531070000000,,,-1330742678359871988,0.3144388198852539,36.84579860419035,-7.4308502772413485,13.879873235793392,3,29,0.0,15,184209360573992,13,31.2,-203.08401489257812,0.025200000032782555,0,0.0,0.0,,,,,0,,1,0.0,
Raw,1844513,1531070000000,,,-1330742678359871988,0.3144388198852539,36.84579860419035,-7.4308502772413485,13.879873235793392,3,31,0.0,15,184209347271380,16,29.7,287.5765380859375,0.03720000013709068,0,0.0,0.0,,,,,0,,1,0.0,
Fix,gps,37.427439,-122.170309,-5.862946,0.000000,3.216000,1646708992000
NMEA,$GPGSV,3,1,12,02,26,056,28,05,60,088,38,12,29,163,39,15,05,147,21,1*64
,1646708991999
NMEA,$GPGSV,3,2,12,18,36,255,41,20,40,053,31,23,04,201,16,25,59,205,39,1*68
,1646708992000
NMEA,$GPGSV,3,3,12,26,12,317,28,29,63,338,31,31,11,279,30,13,00,000,,1*64
,1646708992000
NMEA,$GLGSV,3,1,11,78,38,293,31,86,09,068,17,77,33,219,26,79,06,336,24,1*7D
,1646708992001
NMEA,$GLGSV,3,2,11,65,19,146,31,88,40,303,36,87,50,012,30,71,21,039,26,1*73
,1646708992001
NMEA,$GLGSV,3,3,11,72,35,094,42,76,01,182,,81,00,000,,1*42
,1646708992001
NMEA,$GAGSV,1,1,0,7*43
,1646708992002
NMEA,$PQGSV,1,1,0,0*43
,1646708992002
NMEA,$GBGSV,1,1,0,0*47
,1646708992002
NMEA,$GNGSA,A,3,02,05,12,18,20,25,26,29,31,,,,1.0,0.6,0.8,1*3B
,1646708992010
NMEA,$GNGSA,A,3,65,71,72,77,78,87,88,,,,,,1.0,0.6,0.8,2*3D
,1646708992011
NMEA,$GNVTG,,T,,M,0.0,N,0.0,K,A*3D
,1646708992011
NMEA,$GNGGA,030952.00,3725.646317,N,12210.218554,W,1,12,0.6,22.1,M,-27.9,M,,*75
,1646708992011
NMEA,$GNRMC,030952.00,A,3725.646317,N,12210.218554,W,0.0,,080322,15.0,E,A,V*52
,1646708992011
NMEA,$AIDSTAT,0,0,0,2,-25,23,3*00
,1646708992927
Raw,1845539,1532070000000,,,-1330742678359872000,0.7064342498779297,40.84495594725013,-6.186949971769926,13.87868349874425,3,14,0.0,207,22192359923822,13,31.2,-67.45542907714844,0.22370000183582306,0,0.0,0.0,,,,,0,,3,0.0,
Raw,1845539,1532070000000,,,-1330742678359872000,0.7064342498779297,40.84495594725013,-6.186949971769926,13.87868349874425,3,22,0.0,207,22192350473431,518,17.2,494.1300964355469,14.881500244140625,0,0.0,0.0,,,,,0,,3,0.0,
Raw,1845539,1532070000000,,,-1330742678359872000,0.7064342498779297,40.84495594725013,-6.186949971769926,13.87868349874425,3,13,0.0,207,22192358447028,21,26.7,654.045654296875,0.33820000290870667,0,0.0,0.0,,,,,0,,3,0.0,
Raw,1845539,1532070000000,,,-1330742678359872000,0.7064342498779297,40.84495594725013,-6.186949971769926,13.87868349874425,3,15,0.0,207,22192350065628,27,24.1,-628.4788208007812,0.8814999461174011,0,0.0,0.0,,,,,0,,3,0.0,
Raw,1845539,1532070000000,,,-1330742678359872000,0.7064342498779297,40.84495594725013,-6.186949971769926,13.87868349874425,3,1,0.0,207,22192354662663,17,28.8,-750.0121459960938,0.25429999828338623,0,0.0,0.0,,,,,0,,3,0.0,
Raw,1845539,1532070000000,,,-1330742678359872000,0.7064342498779297,40.84495594725013,-6.186949971769926,13.87868349874425,3,24,0.0,207,22192360231520,7,37.6,-270.5037841796875,0.22059999406337738,0,0.0,0.0,,,,,0,,3,0.0,
Raw,1845539,1532070000000,,,-1330742678359872000,0.7064342498779297,40.84495594725013,-6.186949971769926,13.87868349874425,3,23,0.0,207,22192362283172,16,29.8,136.19346618652344,0.2296999990940094,0,0.0,0.0,,,,,0,,3,0.0,
Raw,1845540,1532070000000,,,-1330742678359872000,0.7064342498779297,40.84495594725013,-6.186949971769926,13.87868349874425,3,7,0.0,207,22192354534765,31,23.7,314.45458984375,0.9474999904632568,0,0.0,0.0,,,,,0,,3,0.0,
Raw,1845540,1532070000000,,,-1330742678359872000,0.7064342498779297,40.84495594725013,-6.186949971769926,13.87868349874425,3,8,0.0,207,22192358920960,5,41.1,-308.5682067871094,0.24610000848770142,0,0.0,0.0,,,,,0,,3,0.0,
Raw,1845540,1532070000000,,,-1330742678359872000,0.7064342498779297,40.84495594725013,-6.186949971769926,13.87868349874425,3,2,0.0,15,184210350110322,16,29.1,459.9738464355469,0.04170000180602074,0,0.0,0.0,,,,,0,,1,0.0,
Raw,1845540,1532070000000,,,-1330742678359872000,0.7064342498779297,40.84495594725013,-6.186949971769926,13.87868349874425,3,5,0.0,15,184210360820543,7,37.1,52.03233337402344,0.020600000396370888,0,0.0,0.0,,,,,0,,1,0.0,
Raw,1845540,1532070000000,,,-1330742678359872000,0.7064342498779297,40.84495594725013,-6.186949971769926,13.87868349874425,3,12,0.0,15,184210353064187,7,37.7,682.6522216796875,0.04010000079870224,0,0.0,0.0,,,,,0,,1,0.0,
Raw,1845540,1532070000000,,,-1330742678359872000,0.7064342498779297,40.84495594725013,-6.186949971769926,13.87868349874425,3,15,0.0,15,184210345945217,426,20.8,-579.1016845703125,1.7390000820159912,0,0.0,0.0,,,,,0,,1,0.0,
Raw,1845540,1532070000000,,,-1330742678359872000,0.7064342498779297,40.84495594725013,-6.186949971769926,13.87868349874425,3,18,0.0,15,184210356002475,5,40.5,-409.0688171386719,0.04340000078082085,0,0.0,0.0,,,,,0,,1,0.0,
Raw,1845540,1532070000000,,,-1330742678359872000,0.7064342498779297,40.84495594725013,-6.186949971769926,13.87868349874425,3,20,0.0,15,184210356902659,14,30.5,393.3858947753906,0.049800001084804535,0,0.0,0.0,,,,,0,,1,0.0,
Raw,1845540,1532070000000,,,-1330742678359872000,0.7064342498779297,40.84495594725013,-6.186949971769926,13.87868349874425,3,23,0.0,15,184210345997952,678,17.4,-722.8400268554688,4.27400016784668,0,0.0,0.0,,,,,0,,1,0.0,
Raw,1845541,1532070000000,,,-1330742678359872000,0.7064342498779297,40.84495594725013,-6.186949971769926,13.87868349874425,3,25,0.0,15,184210360162899,6,38.4,383.58135986328125,0.020100001245737076,0,0.0,0.0,,,,,0,,1,0.0,
Raw,1845541,1532070000000,,,-1330742678359872000,0.7064342498779297,40.84495594725013,-6.186949971769926,13.87868349874425,3,26,0.0,15,184210349163771,21,26.8,-558.266357421875,0.12470000237226486,0,0.0,0.0,,,,,0,,1,0.0,
Raw,1845541,1532070000000,,,-1330742678359872000,0.7064342498779297,40.84495594725013,-6.186949971769926,13.87868349874425,3,29,0.0,15,184210360574679,17,28.0,-202.28941345214844,0.0333000011742115,0,0.0,0.0,,,,,0,,1,0.0,
Raw,1845541,1532070000000,,,-1330742678359872000,0.7064342498779297,40.84495594725013,-6.186949971769926,13.87868349874425,3,31,0.0,15,184210347270401,16,29.6,288.3440246582031,0.03720000013709068,0,0.0,0.0,,,,,0,,1,0.0,
Fix,gps,37.427439,-122.170309,-5.860718,0.000000,3.216000,1646708993000
NMEA,$GPGSV,3,1,12,02,26,056,29,05,60,088,37,12,29,163,38,15,05,147,21,1*6B
,1646708993000
NMEA,$GPGSV,3,2,12,18,36,255,41,20,40,053,31,23,04,201,17,25,59,205,38,1*68
,1646708993001
NMEA,$GPGSV,3,3,12,26,12,317,27,29,63,338,28,31,11,279,30,13,00,000,,1*63
,1646708993003
NMEA,$GLGSV,3,1,11,78,38,293,31,86,09,068,17,77,33,219,27,79,06,336,24,1*7C
,1646708993003
NMEA,$GLGSV,3,2,11,65,19,146,29,88,40,303,38,87,50,012,30,71,21,039,24,1*76
,1646708993004
NMEA,$GLGSV,3,3,11,72,35,094,41,76,01,182,,81,00,000,,1*41
,1646708993004
NMEA,$GAGSV,1,1,0,7*43
,1646708993004
NMEA,$PQGSV,1,1,0,0*43
,1646708993007
NMEA,$GBGSV,1,1,0,0*47
,1646708993008
NMEA,$GNGSA,A,3,02,05,12,18,20,25,26,29,31,,,,1.0,0.6,0.8,1*3B
,1646708993015
NMEA,$GNGSA,A,3,65,71,72,77,78,87,88,,,,,,1.0,0.6,0.8,2*3D
,1646708993016
NMEA,$GNVTG,,T,,M,0.0,N,0.0,K,A*3D
,1646708993016
NMEA,$GNGGA,030953.00,3725.646316,N,12210.218555,W,1,12,0.6,22.1,M,-27.9,M,,*74
,1646708993016
NMEA,$GNRMC,030953.00,A,3725.646316,N,12210.218555,W,0.0,,080322,15.0,E,A,V*53
,1646708993016
NMEA,$AIDSTAT,0,0,0,2,11,23,3*00
,1646708993926
Raw,1846516,1533070000000,,,-1330742678359871994,0.2794685363769531,37.02804315253161,-3.579669858611244,10.010992297442195,3,14,0.0,207,22193359924090,14,30.1,-65.38037109375,0.22429999709129333,0,0.0,0.0,,,,,0,,3,0.0,
