# 
# Header Description:
# 
# Version: v2.0.0.1 Platform: 9 Manufacturer: samsung Model: SM-G960U
# 
# Raw,ElapsedRealtimeMillis,TimeNanos,LeapSecond,TimeUncertaintyNanos,FullBiasNanos,BiasNanos,BiasUncertaintyNanos,DriftNanosPerSecond,DriftUncertaintyNanosPerSecond,HardwareClockDiscontinuityCount,Svid,TimeOffsetNanos,State,ReceivedSvTimeNanos,ReceivedSvTimeUncertaintyNanos,Cn0DbHz,PseudorangeRateMetersPerSecond,PseudorangeRateUncertaintyMetersPerSecond,AccumulatedDeltaRangeState,AccumulatedDeltaRangeMeters,AccumulatedDeltaRangeUncertaintyMeters,CarrierFrequencyHz,CarrierCycles,CarrierPhase,CarrierPhaseUncertainty,MultipathIndicator,SnrInDb,ConstellationType,AgcDb,CarrierFrequencyHz
# 
# Fix,Provider,Latitude,Longitude,Altitude,Speed,Accuracy,(UTC)TimeInMs
# 
# Nav,Svid,Type,Status,MessageId,Sub-messageId,Data(Bytes)
# 
NMEA,$AIDSTAT,0,0,0,2,-7,23,3*00
,1646708387932
Raw,1240547,927070000000,,,-1330742678359872815,0.5533123016357422,42.03812568448484,3.055490880977798,10.552055441133,1,14,0.0,207,21587359688898,9,35.0,-166.7056121826172,0.22010000050067902,0,0.0,0.0,,,,,0,,3,0.0,
Raw,1240547,927070000000,,,-1330742678359872815,0.5533123016357422,42.03812568448484,3.055490880977798,10.552055441133,1,22,0.0,207,21587351468992,291,10.2,493.1841125488281,8.243000030517578,0,0.0,0.0,,,,,0,,3,0.0,
Raw,1240547,927070000000,,,-1330742678359872815,0.5533123016357422,42.03812568448484,3.055490880977798,10.552055441133,1,13,0.0,207,21587359712806,187,12.0,598.7515869140625,5.675000190734863,0,0.0,0.0,,,,,0,,3,0.0,
Raw,1240547,927070000000,,,-1330742678359872815,0.5533123016357422,42.03812568448484,3.055490880977798,10.552055441133,1,12,0.0,207,21587349604177,233,14.2,829.5580444335938,8.440000534057617,0,0.0,0.0,,,,,0,,3,0.0,
Raw,1240548,927070000000,,,-1330742678359872815,0.5533123016357422,42.03812568448484,3.055490880977798,10.552055441133,1,15,0.0,207,21587348747143,93,15.9,-679.0617065429688,1.56850004196167,0,0.0,0.0,,,,,0,,3,0.0,
Raw,1240548,927070000000,,,-1330742678359872815,0.5533123016357422,42.03812568448484,3.055490880977798,10.552055441133,1,1,0.0,207,21587353133592,19,27.7,-765.210693359375,0.26080000400543213,0,0.0,0.0,,,,,0,,3,0.0,
Raw,1240548,927070000000,,,-1330742678359872815,0.5533123016357422,42.03812568448484,3.055490880977798,10.552055441133,1,24,0.0,207,21587359666488,9,35.8,-291.358642578125,0.2501000165939331,0,0.0,0.0,,,,,0,,3,0.0,
Raw,1240548,927070000000,,,-1330742678359872815,0.5533123016357422,42.03812568448484,3.055490880977798,10.552055441133,1,23,0.0,207,21587362538300,19,27.0,114.5494384765625,0.2443000078201294,0,0.0,0.0,,,,,0,,3,0.0,
Raw,1240548,927070000000,,,-1330742678359872815,0.5533123016357422,42.03812568448484,3.055490880977798,10.552055441133,1,7,0.0,207,21587355081346,8,36.8,224.92666625976562,0.24370001256465912,0,0.0,0.0,,,,,0,,3,0.0,
Raw,1240548,927070000000,,,-1330742678359872815,0.5533123016357422,42.03812568448484,3.055490880977798,10.552055441133,1,8,0.0,207,21587358216467,16,29.3,-389.98101806640625,0.25369998812675476,0,0.0,0.0,,,,,0,,3,0.0,
Raw,1240548,927070000000,,,-1330742678359872815,0.5533123016357422,42.03812568448484,3.055490880977798,10.552055441133,1,2,0.0,15,183605351041908,16,29.4,461.2072448730469,0.04320000112056732,0,0.0,0.0,,,,,0,,1,0.0,
Raw,1240549,927070000000,,,-1330742678359872815,0.5533123016357422,42.03812568448484,3.055490880977798,10.552055441133,1,5,0.0,15,183605360847566,7,37.8,-27.060836791992188,0.020600000396370888,0,0.0,0.0,,,,,0,,1,0.0,
Raw,1240549,927070000000,,,-1330742678359872815,0.5533123016357422,42.03812568448484,3.055490880977798,10.552055441133,1,12,0.0,15,183605354416193,27,24.1,654.3818969726562,0.5975000262260437,0,0.0,0.0,,,,,0,,1,0.0,
Raw,1240549,927070000000,,,-1330742678359872815,0.5533123016357422,42.03812568448484,3.055490880977798,10.552055441133,1,18,0.0,15,183605355147208,12,32.8,-440.1338806152344,0.046400003135204315,0,0.0,0.0,,,,,0,,1,0.0,
Raw,1240549,927070000000,,,-1330742678359872815,0.5533123016357422,42.03812568448484,3.055490880977798,10.552055441133,1,20,0.0,15,183605357642723,11,33.3,337.4615173339844,0.04840000346302986,0,0.0,0.0,,,,,0,,1,0.0,
Raw,1240549,927070000000,,,-1330742678359872815,0.5533123016357422,42.03812568448484,3.055490880977798,10.552055441133,1,25,0.0,15,183605360874562,8,36.4,319.21136474609375,0.02120000123977661,0,0.0,0.0,,,,,0,,1,0.0,
Raw,1240549,927070000000,,,-1330742678359872815,0.5533123016357422,42.03812568448484,3.055490880977798,10.552055441133,1,26,0.0,15,183605348004398,19,27.6,-591.3798217773438,0.053300000727176666,0,0.0,0.0,,,,,0,,1,0.0,
Raw,1240549,927070000000,,,-1330742678359872815,0.5533123016357422,42.03812568448484,3.055490880977798,10.552055441133,1,29,0.0,15,183605360137514,31,23.9,-231.8538055419922,0.6165000200271606,0,0.0,0.0,,,,,0,,1,0.0,
Raw,1240550,927070000000,,,-1330742678359872815,0.5533123016357422,42.03812568448484,3.055490880977798,10.552055441133,1,31,0.0,15,183605347807762,8,36.7,241.48941040039062,0.031700000166893005,0,0.0,0.0,,,,,0,,1,0.0,
Fix,gps,37.427503,-122.170302,-5.687042,0.000000,3.216000,1646708388000
NMEA,$GPGSV,3,1,12,02,28,053,29,05,60,098,38,11,00,000,36,12,34,163,24,1*6A
,1646708388005
NMEA,$GPGSV,3,2,12,18,33,253,33,20,43,056,33,25,63,210,36,26,09,319,28,1*65
,1646708388005
NMEA,$GPGSV,3,3,12,29,60,331,24,31,12,282,37,15,02,151,,23,01,201,,1*60
,1646708388006
NMEA,$GLGSV,3,1,10,78,37,300,35,86,11,064,10,77,39,223,12,76,05,184,14,1*7E
,1646708388006
NMEA,$GLGSV,3,2,10,79,02,338,16,65,15,149,28,88,37,296,36,87,52,004,27,1*7F
,1646708388007
NMEA,$GLGSV,3,3,10,71,22,045,37,72,33,099,29,1*74
,1646708388007
NMEA,$GAGSV,1,1,0,7*43
,1646708388008
NMEA,$PQGSV,1,1,0,0*43
,1646708388008
NMEA,$GBGSV,1,1,0,0*47
,1646708388008
NMEA,$GNGSA,A,3,02,05,12,18,20,25,29,31,,,,,1.1,0.7,0.8,1*3F
,1646708388015
NMEA,$GNGSA,A,3,65,71,72,78,87,88,,,,,,,1.1,0.7,0.8,2*3D
,1646708388015
NMEA,$GNVTG,,T,,M,0.0,N,0.0,K,A*3D
,1646708388015
NMEA,$GNGGA,025948.00,3725.650189,N,12210.218110,W,1,12,0.7,22.2,M,-27.9,M,,*7E
,1646708388015
NMEA,$GNRMC,025948.00,A,3725.650189,N,12210.218110,W,0.0,,080322,15.0,E,A,V*5B
,1646708388015
NMEA,$AIDSTAT,0,0,0,2,,23,3*00
,1646708388925
Raw,1241531,928070000000,,,-1330742678359872808,0.1545267105102539,43.03146852180362,0.6542974707921932,10.911740149622762,1,14,0.0,207,21588359689466,9,35.8,-166.67416381835938,0.22010000050067902,0,0.0,0.0,,,,,0,,3,0.0,
Raw,1241531,928070000000,,,-1330742678359872808,0.1545267105102539,43.03146852180362,0.6542974707921932,10.911740149622762,1,22,0.0,207,21588351467347,344,10.2,493.1841125488281,9.743000030517578,0,0.0,0.0,,,,,0,,3,0.0,
Raw,1241532,928070000000,,,-1330742678359872808,0.1545267105102539,43.03146852180362,0.6542974707921932,10.911740149622762,1,13,0.0,207,21588359710809,223,12.0,598.7515869140625,7.175000190734863,0,0.0,0.0,,,,,0,,3,0.0,
Raw,1241532,928070000000,,,-1330742678359872808,0.1545267105102539,43.03146852180362,0.6542974707921932,10.911740149622762,1,12,0.0,207,21588349601414,142,13.1,828.9403076171875,4.060000419616699,0,0.0,0.0,,,,,0,,3,0.0,
Raw,1241532,928070000000,,,-1330742678359872808,0.1545267105102539,43.03146852180362,0.6542974707921932,10.911740149622762,1,15,0.0,207,21588348749309,53,19.1,-678.3787231445312,1.2085000276565552,0,0.0,0.0,,,,,0,,3,0.0,
Raw,1241532,928070000000,,,-1330742678359872808,0.1545267105102539,43.03146852180362,0.6542974707921932,10.911740149622762,1,1,0.0,207,21588353136145,17,28.6,-765.2802734375,0.25280001759529114,0,0.0,0.0,,,,,0,,3,0.0,
Raw,1241533,928070000000,,,-1330742678359872808,0.1545267105102539,43.03146852180362,0.6542974707921932,10.911740149622762,1,24,0.0,207,21588359667466,7,37.0,-291.48651123046875,0.249099999666214,0,0.0,0.0,,,,,0,,3,0.0,
Raw,1241533,928070000000,,,-1330742678359872808,0.1545267105102539,43.03146852180362,0.6542974707921932,10.911740149622762,1,23,0.0,207,21588362537920,19,27.5,114.49217224121094,0.2443000078201294,0,0.0,0.0,,,,,0,,3,0.0,
Raw,1241533,928070000000,,,-1330742678359872808,0.1545267105102539,43.03146852180362,0.6542974707921932,10.911740149622762,1,7,0.0,207,21588355080614,7,37.5,224.93942260742188,0.24310000240802765,0,0.0,0.0,,,,,0,,3,0.0,
Raw,1241533,928070000000,,,-1330742678359872808,0.1545267105102539,43.03146852180362,0.6542974707921932,10.911740149622762,1,8,0.0,207,21588358217828,14,30.2,-389.9911193847656,0.25279998779296875,0,0.0,0.0,,,,,0,,3,0.0,
Raw,1241534,928070000000,,,-1330742678359872808,0.1545267105102539,43.03146852180362,0.6542974707921932,10.911740149622762,1,2,0.0,15,183606351040381,14,30.5,461.1058654785156,0.04230000078678131,0,0.0,0.0,,,,,0,,1,0.0,
Raw,1241534,928070000000,,,-1330742678359872808,0.1545267105102539,43.03146852180362,0.6542974707921932,10.911740149622762,1,5,0.0,15,183606360847652,6,38.1,-27.074796676635742,0.020100001245737076,0,0.0,0.0,,,,,0,,1,0.0,
Raw,1241534,928070000000,,,-1330742678359872808,0.1545267105102539,43.03146852180362,0.6542974707921932,10.911740149622762,1,12,0.0,15,183606354413897,40,21.3,653.763427734375,0.7475000023841858,0,0.0,0.0,,,,,0,,1,0.0,
Raw,1241535,928070000000,,,-1330742678359872808,0.1545267105102539,43.03146852180362,0.6542974707921932,10.911740149622762,1,18,0.0,15,183606355148684,11,33.1,-440.23876953125,0.04540000110864639,0,0.0,0.0,,,,,0,,1,0.0,
Raw,1241535,928070000000,,,-1330742678359872808,0.1545267105102539,43.03146852180362,0.6542974707921932,10.911740149622762,1,20,0.0,15,183606357641575,11,33.5,337.40374755859375,0.04840000346302986,0,0.0,0.0,,,,,0,,1,0.0,
Raw,1241535,928070000000,,,-1330742678359872808,0.1545267105102539,43.03146852180362,0.6542974707921932,10.911740149622762,1,25,0.0,15,183606360873493,7,37.2,319.2164001464844,0.020600000396370888,0,0.0,0.0,,,,,0,,1,0.0,
Raw,1241535,928070000000,,,-1330742678359872808,0.1545267105102539,43.03146852180362,0.6542974707921932,10.911740149622762,1,26,0.0,15,183606348006389,17,28.2,-591.3404541015625,0.04529999941587448,0,0.0,0.0,,,,,0,,1,0.0,
Raw,1241535,928070000000,,,-1330742678359872808,0.1545267105102539,43.03146852180362,0.6542974707921932,10.911740149622762,1,29,0.0,15,183606360138291,35,22.8,-232.4532470703125,0.6664999723434448,0,0.0,0.0,,,,,0,,1,0.0,
Raw,1241536,928070000000,,,-1330742678359872808,0.1545267105102539,43.03146852180362,0.6542974707921932,10.911740149622762,1,31,0.0,15,183606347806967,7,37.2,241.45411682128906,0.03110000118613243,0,0.0,0.0,,,,,0,,1,0.0,
Fix,gps,37.427503,-122.170302,-5.687592,0.000000,3.216000,1646708389000
NMEA,$GPGSV,3,1,12,02,28,053,31,05,60,097,38,11,00,000,36,12,33,163,21,1*6E
,1646708388999
NMEA,$GPGSV,3,2,12,18,33,253,33,20,43,056,34,25,62,209,37,26,09,319,28,1*6A
,1646708389000
NMEA,$GPGSV,3,3,12,29,61,333,23,31,12,282,37,15,02,151,,23,01,201,,1*64
,1646708389000
NMEA,$GLGSV,3,1,10,78,37,300,36,86,11,064,10,77,39,223,12,76,05,184,13,1*7A
,1646708389000
NMEA,$GLGSV,3,2,10,79,02,338,19,65,15,149,29,88,37,296,37,87,52,004,28,1*7F
,1646708389001
NMEA,$GLGSV,3,3,10,71,22,045,38,72,33,099,30,1*73
,1646708389002
NMEA,$GAGSV,1,1,0,7*43
,1646708389003
NMEA,$PQGSV,1,1,0,0*43
,1646708389003
NMEA,$GBGSV,1,1,0,0*47
,1646708389003
NMEA,$GNGSA,A,3,02,05,12,18,20,25,29,31,,,,,1.1,0.7,0.8,1*3F
,1646708389010
NMEA,$GNGSA,A,3,65,71,72,78,87,88,,,,,,,1.1,0.7,0.8,2*3D
,1646708389010
NMEA,$GNVTG,,T,,M,0.0,N,0.0,K,A*3D
,1646708389011
NMEA,$GNGGA,025949.00,3725.650190,N,12210.218109,W,1,12,0.7,22.2,M,-27.9,M,,*7F
,1646708389011
NMEA,$GNRMC,025949.00,A,3725.650190,N,12210.218109,W,0.0,,080322,15.0,E,A,V*5A
,1646708389011
NMEA,$AIDSTAT,0,0,0,2,,23,3*00
,1646708389930
Raw,1242547,929070000000,,,-1330742678359872809,0.23065471649169922,39.52007318730466,0.311851150497186,10.410140329362788,1,14,0.0,207,21589359689993,9,35.3,-166.40980529785156,0.22010000050067902,0,0.0,0.0,,,,,0,,3,0.0,
Raw,1242547,929070000000,,,-1330742678359872809,0.23065471649169922,39.52007318730466,0.311851150497186,10.410140329362788,1,22,0.0,207,21589351465702,407,10.2,493.1841125488281,11.243000030517578,0,0.0,0.0,,,,,0,,3,0.0,
Raw,1242547,929070000000,,,-1330742678359872809,0.23065471649169922,39.52007318730466,0.311851150497186,10.410140329362788,1,13,0.0,207,21589359708811,270,12.0,598.7515869140625,8.675000190734863,0,0.0,0.0,,,,,0,,3,0.0,
Raw,1242547,929070000000,,,-1330742678359872809,0.23065471649169922,39.52007318730466,0.311851150497186,10.410140329362788,1,12,0.0,207,21589349598649,168,13.1,828.9403076171875,5.560000419616699,0,0.0,0.0,,,,,0,,3,0.0,
Raw,1242548,929070000000,,,-1330742678359872809,0.23065471649169922,39.52007318730466,0.311851150497186,10.410140329362788,1,15,0.0,207,21589348751428,70,17.3,-677.8921508789062,1.378499984741211,0,0.0,0.0,,,,,0,,3,0.0,
Raw,1242548,929070000000,,,-1330742678359872809,0.23065471649169922,39.52007318730466,0.311851150497186,10.410140329362788,1,1,0.0,207,21589353138668,16,29.1,-765.2432861328125,0.24619999527931213,0,0.0,0.0,,,,,0,,3,0.0,
Raw,1242548,929070000000,,,-1330742678359872809,0.23065471649169922,39.52007318730466,0.311851150497186,10.410140329362788,1,24,0.0,207,21589359668416,8,36.3,-291.3985595703125,0.24970000982284546,0,0.0,0.0,,,,,0,,3,0.0,
Raw,1242548,929070000000,,,-1330742678359872809,0.23065471649169922,39.52007318730466,0.311851150497186,10.410140329362788,1,23,0.0,207,21589362537463,19,27.9,114.58040618896484,0.2443000078201294,0,0.0,0.0,,,,,0,,3,0.0,
Raw,1242548,929070000000,,,-1330742678359872809,0.23065471649169922,39.52007318730466,0.311851150497186,10.410140329362788,1,7,0.0,207,21589355079867,7,37.5,225.13916015625,0.24310000240802765,0,0.0,0.0,,,,,0,,3,0.0,
Raw,1242548,929070000000,,,-1330742678359872809,0.23065471649169922,39.52007318730466,0.311851150497186,10.410140329362788,1,8,0.0,207,21589358219118,14,30.3,-389.82000732421875,0.25279998779296875,0,0.0,0.0,,,,,0,,3,0.0,
Raw,1242548,929070000000,,,-1330742678359872809,0.23065471649169922,39.52007318730466,0.311851150497186,10.410140329362788,1,2,0.0,15,183607351038858,14,30.6,461.106689453125,0.04230000078678131,0,0.0,0.0,,,,,0,,1,0.0,
Raw,1242549,929070000000,,,-1330742678359872809,0.23065471649169922,39.52007318730466,0.311851150497186,10.410140329362788,1,5,0.0,15,183607360847739,6,38.0,-26.875560760498047,0.020100001245737076,0,0.0,0.0,,,,,0,,1,0.0,
Raw,1242549,929070000000,,,-1330742678359872809,0.23065471649169922,39.52007318730466,0.311851150497186,10.410140329362788,1,12,0.0,15,183607354411619,61,18.6,654.8671264648438,0.9375,0,0.0,0.0,,,,,0,,1,0.0,
Raw,1242549,929070000000,,,-1330742678359872809,0.23065471649169922,39.52007318730466,0.311851150497186,10.410140329362788,1,18,0.0,15,183607355150151,11,33.0,-440.1177673339844,0.04540000110864639,0,0.0,0.0,,,,,0,,1,0.0,
Raw,1242549,929070000000,,,-1330742678359872809,0.23065471649169922,39.52007318730466,0.311851150497186,10.410140329362788,1,20,0.0,15,183607357640475,11,33.6,337.5622253417969,0.04840000346302986,0,0.0,0.0,,,,,0,,1,0.0,
Raw,1242549,929070000000,,,-1330742678359872809,0.23065471649169922,39.52007318730466,0.311851150497186,10.410140329362788,1,25,0.0,15,183607360872429,7,37.5,319.3922119140625,0.020600000396370888,0,0.0,0.0,,,,,0,,1,0.0,
Raw,1242549,929070000000,,,-1330742678359872809,0.23065471649169922,39.52007318730466,0.311851150497186,10.410140329362788,1,26,0.0,15,183607348008361,17,28.3,-591.3104248046875,0.04529999941587448,0,0.0,0.0,,,,,0,,1,0.0,
Raw,1242549,929070000000,,,-1330742678359872809,0.23065471649169922,39.52007318730466,0.311851150497186,10.410140329362788,1,29,0.0,15,183607360139103,27,24.4,-232.1678009033203,0.5764999985694885,0,0.0,0.0,,,,,0,,1,0.0,
Raw,1242549,929070000000,,,-1330742678359872809,0.23065471649169922,39.52007318730466,0.311851150497186,10.410140329362788,1,31,0.0,15,183607347806148,7,37.4,241.5673370361328,0.03110000118613243,0,0.0,0.0,,,,,0,,1,0.0,
Fix,gps,37.427503,-122.170302,-5.688019,0.000000,3.216000,1646708390000
NMEA,$GPGSV,3,1,12,02,28,053,31,05,60,097,38,11,00,000,36,12,33,163,19,1*65
,1646708389997
NMEA,$GPGSV,3,2,12,18,33,253,33,20,43,056,34,25,62,209,38,26,09,319,28,1*65
,1646708389998
NMEA,$GPGSV,3,3,12,29,61,333,24,31,12,282,37,15,02,151,,23,01,201,,1*63
,1646708389998
NMEA,$GLGSV,3,1,10,78,37,300,35,86,11,064,10,77,39,223,12,76,05,184,13,1*79
,1646708389998
NMEA,$GLGSV,3,2,10,79,02,338,17,65,15,149,29,88,37,296,36,87,52,004,28,1*70
,1646708389998
NMEA,$GLGSV,3,3,10,71,22,045,38,72,33,099,30,1*73
,1646708389998
NMEA,$GAGSV,1,1,0,7*43
,1646708389999
NMEA,$PQGSV,1,1,0,0*43
,1646708389999
NMEA,$GBGSV,1,1,0,0*47
,1646708389999
NMEA,$GNGSA,A,3,02,05,12,18,20,25,29,31,,,,,1.1,0.7,0.8,1*3F
,1646708390007
NMEA,$GNGSA,A,3,65,71,72,78,87,88,,,,,,,1.1,0.7,0.8,2*3D
,1646708390008
NMEA,$GNVTG,,T,,M,0.0,N,0.0,K,A*3D
,1646708390008
NMEA,$GNGGA,025950.00,3725.650190,N,12210.218106,W,1,12,0.7,22.2,M,-27.9,M,,*78
,1646708390008
NMEA,$GNRMC,025950.00,A,3725.650190,N,12210.218106,W,0.0,,080322,15.0,E,A,V*5D
,1646708390008
NMEA,$AIDSTAT,0,0,0,2,1,23,3*00
,1646708390925
Raw,1243532,930070000000,,,-1330742678359872808,0.035317420959472656,39.838545490056276,0.1564225250738487,10.403468735709545,1,14,0.0,207,21590359690586,8,36.0,-165.78041076660156,0.21970000863075256,0,0.0,0.0,,,,,0,,3,0.0,
Raw,1243532,930070000000,,,-1330742678359872808,0.035317420959472656,39.838545490056276,0.1564225250738487,10.403468735709545,1,22,0.0,207,21590351464057,479,10.2,493.1841125488281,12.743000984191895,0,0.0,0.0,,,,,0,,3,0.0,
Raw,1243532,930070000000,,,-1330742678359872808,0.035317420959472656,39.838545490056276,0.1564225250738487,10.403468735709545,1,13,0.0,207,21590359706814,326,12.0,598.7515869140625,10.175000190734863,0,0.0,0.0,,,,,0,,3,0.0,
Raw,1243533,930070000000,,,-1330742678359872808,0.035317420959472656,39.838545490056276,0.1564225250738487,10.403468735709545,1,12,0.0,207,21590349595884,205,13.1,828.9403076171875,7.060000419616699,0,0.0,0.0,,,,,0,,3,0.0,
Raw,1243533,930070000000,,,-1330742678359872808,0.035317420959472656,39.838545490056276,0.1564225250738487,10.403468735709545,1,15,0.0,207,21590348753884,70,17.5,-677.8453369140625,1.378499984741211,0,0.0,0.0,,,,,0,,3,0.0,
Raw,1243533,930070000000,,,-1330742678359872808,0.035317420959472656,39.838545490056276,0.1564225250738487,10.403468735709545,1,1,0.0,207,21590353141265,17,28.9,-764.6937255859375,0.25280001759529114,0,0.0,0.0,,,,,0,,3,0.0,
Raw,1243533,930070000000,,,-1330742678359872808,0.035317420959472656,39.838545490056276,0.1564225250738487,10.403468735709545,1,24,0.0,207,21590359669383,8,36.7,-290.79510498046875,0.24970000982284546,0,0.0,0.0,,,,,0,,3,0.0,
Raw,1243533,930070000000,,,-1330742678359872808,0.035317420959472656,39.838545490056276,0.1564225250738487,10.403468735709545,1,23,0.0,207,21590362537100,27,24.4,115.38837432861328,0.8694999814033508,0,0.0,0.0,,,,,0,,3,0.0,
Raw,1243533,930070000000,,,-1330742678359872808,0.035317420959472656,39.838545490056276,0.1564225250738487,10.403468735709545,1,7,0.0,207,21590355079095,6,38.2,225.84385681152344,0.24260000884532928,0,0.0,0.0,,,,,0,,3,0.0,
Raw,1243534,930070000000,,,-1330742678359872808,0.035317420959472656,39.838545490056276,0.1564225250738487,10.403468735709545,1,8,0.0,207,21590358220394,13,31.6,-389.0986633300781,0.25220000743865967,0,0.0,0.0,,,,,0,,3,0.0,
Raw,1243534,930070000000,,,-1330742678359872808,0.035317420959472656,39.838545490056276,0.1564225250738487,10.403468735709545,1,2,0.0,15,183608351037295,14,30.1,461.6495056152344,0.04230000078678131,0,0.0,0.0,,,,,0,,1,0.0,
Raw,1243534,930070000000,,,-1330742678359872808,0.035317420959472656,39.838545490056276,0.1564225250738487,10.403468735709545,1,5,0.0,15,183608360847827,6,38.4,-26.17159652709961,0.020100001245737076,0,0.0,0.0,,,,,0,,1,0.0,
Raw,1243534,930070000000,,,-1330742678359872808,0.035317420959472656,39.838545490056276,0.1564225250738487,10.403468735709545,1,12,0.0,15,183608354409581,61,18.9,655.47607421875,0.9375,0,0.0,0.0,,,,,0,,1,0.0,
Raw,1243534,930070000000,,,-1330742678359872808,0.035317420959472656,39.838545490056276,0.1564225250738487,10.403468735709545,1,18,0.0,15,183608355151629,10,34.0,-439.4986572265625,0.044600002467632294,0,0.0,0.0,,,,,0,,1,0.0,
Raw,1243534,930070000000,,,-1330742678359872808,0.035317420959472656,39.838545490056276,0.1564225250738487,10.403468735709545,1,20,0.0,15,183608357639338,12,32.7,338.2001037597656,0.049400001764297485,0,0.0,0.0,,,,,0,,1,0.0,
Raw,1243534,930070000000,,,-1330742678359872808,0.035317420959472656,39.838545490056276,0.1564225250738487,10.403468735709545,1,25,0.0,15,183608360871372,8,36.8,320.0589599609375,0.02120000123977661,0,0.0,0.0,,,,,0,,1,0.0,
Raw,1243535,930070000000,,,-1330742678359872808,0.035317420959472656,39.838545490056276,0.1564225250738487,10.403468735709545,1,26,0.0,15,183608348010306,17,28.1,-590.7582397460938,0.04529999941587448,0,0.0,0.0,,,,,0,,1,0.0,
Raw,1243535,930070000000,,,-1330742678359872808,0.035317420959472656,39.838545490056276,0.1564225250738487,10.403468735709545,1,29,0.0,15,183608360139832,27,24.3,-231.53982543945312,0.5764999985694885,0,0.0,0.0,,,,,0,,1,0.0,
Raw,1243535,930070000000,,,-1330742678359872808,0.035317420959472656,39.838545490056276,0.1564225250738487,10.403468735709545,1,31,0.0,15,183608347805344,7,37.7,242.19064331054688,0.03110000118613243,0,0.0,0.0,,,,,0,,1,0.0,
Fix,gps,37.427503,-122.170302,-5.685822,0.000000,3.216000,1646708391000
NMEA,$GPGSV,3,1,12,02,28,053,30,05,60,097,38,11,00,000,36,12,33,163,19,1*64
,1646708391001
NMEA,$GPGSV,3,2,12,18,33,253,34,20,43,056,33,25,62,209,37,26,09,319,28,1*6A
,1646708391002
NMEA,$GPGSV,3,3,12,29,61,333,24,31,12,282,38,15,02,151,,23,01,201,,1*6C
,1646708391002
NMEA,$GLGSV,3,1,10,78,37,300,36,86,11,064,10,77,39,223,12,76,05,184,13,1*7A
,1646708391002
NMEA,$GLGSV,3,2,10,79,02,338,18,65,15,149,29,88,37,296,37,87,52,005,24,1*73
,1646708391002
NMEA,$GLGSV,3,3,10,71,22,045,38,72,33,099,32,1*71
,1646708391002
NMEA,$GAGSV,1,1,0,7*43
,1646708391003
NMEA,$PQGSV,1,1,0,0*43
,1646708391003
NMEA,$GBGSV,1,1,0,0*47
,1646708391003
NMEA,$GNGSA,A,3,02,05,12,18,20,25,29,31,,,,,1.1,0.7,0.8,1*3F
,1646708391013
NMEA,$GNGSA,A,3,65,71,72,78,87,88,,,,,,,1.1,0.7,0.8,2*3D
,1646708391013
NMEA,$GNVTG,,T,,M,0.0,N,0.0,K,A*3D
,1646708391013
NMEA,$GNGGA,025951.00,3725.650190,N,12210.218104,W,1,12,0.7,22.2,M,-27.9,M,,*7B
,1646708391014
NMEA,$GNRMC,025951.00,A,3725.650190,N,12210.218104,W,0.0,,080322,15.0,E,A,V*5E
,1646708391014
NMEA,$AIDSTAT,0,0,0,2,3,23,3*00
,1646708391932
Raw,1244550,931070000000,,,-1330742678359872805,0.17946243286132812,39.014415960991755,2.088186943298808,10.403871146770285,1,14,0.0,207,21591359691121,7,37.4,-166.7413330078125,0.2190999984741211,0,0.0,0.0,,,,,0,,3,0.0,
Raw,1244551,931070000000,,,-1330742678359872805,0.17946243286132812,39.014415960991755,2.088186943298808,10.403871146770285,1,22,0.0,207,21591351462411,562,10.2,493.1841125488281,14.243000984191895,0,0.0,0.0,,,,,0,,3,0.0,
Raw,1244551,931070000000,,,-1330742678359872805,0.17946243286132812,39.014415960991755,2.088186943298808,10.403871146770285,1,13,0.0,207,21591359704817,393,12.0,598.7515869140625,11.675000190734863,0,0.0,0.0,,,,,0,,3,0.0,
Raw,1244551,931070000000,,,-1330742678359872805,0.17946243286132812,39.014415960991755,2.088186943298808,10.403871146770285,1,12,0.0,207,21591349593119,251,13.1,828.9403076171875,8.5600004196167,0,0.0,0.0,,,,,0,,3,0.0,
Raw,1244551,931070000000,,,-1330742678359872805,0.17946243286132812,39.014415960991755,2.088186943298808,10.403871146770285,1,15,0.0,207,21591348756145,80,17.5,-677.8453369140625,2.878499984741211,0,0.0,0.0,,,,,0,,3,0.0,
Raw,1244551,931070000000,,,-1330742678359872805,0.17946243286132812,39.014415960991755,2.088186943298808,10.403871146770285,1,1,0.0,207,21591353143877,16,29.8,-765.7969970703125,0.24619999527931213,0,0.0,0.0,,,,,0,,3,0.0,
Raw,1244551,931070000000,,,-1330742678359872805,0.17946243286132812,39.014415960991755,2.088186943298808,10.403871146770285,1,24,0.0,207,21591359670367,7,37.3,-291.89520263671875,0.249099999666214,0,0.0,0.0,,,,,0,,3,0.0,
Raw,1244551,931070000000,,,-1330742678359872805,0.17946243286132812,39.014415960991755,2.088186943298808,10.403871146770285,1,23,0.0,207,21591362536769,31,23.2,113.986328125,0.9294999837875366,0,0.0,0.0,,,,,0,,3,0.0,
Raw,1244551,931070000000,,,-1330742678359872805,0.17946243286132812,39.014415960991755,2.088186943298808,10.403871146770285,1,7,0.0,207,21591355078350,6,38.6,224.8482208251953,0.24260000884532928,0,0.0,0.0,,,,,0,,3,0.0,
Raw,1244551,931070000000,,,-1330742678359872805,0.17946243286132812,39.014415960991755,2.088186943298808,10.403871146770285,1,8,0.0,207,21591358221696,11,33.9,-390.13970947265625,0.24990001320838928,0,0.0,0.0,,,,,0,,3,0.0,
Raw,1244551,931070000000,,,-1330742678359872805,0.17946243286132812,39.014415960991755,2.088186943298808,10.403871146770285,1,2,0.0,15,183609351035692,17,28.4,460.5263366699219,0.049800001084804535,0,0.0,0.0,,,,,0,,1,0.0,
Raw,1244552,931070000000,,,-1330742678359872805,0.17946243286132812,39.014415960991755,2.088186943298808,10.403871146770285,1,5,0.0,15,183609360847920,7,37.9,-27.176177978515625,0.020600000396370888,0,0.0,0.0,,,,,0,,1,0.0,
Raw,1244552,931070000000,,,-1330742678359872805,0.17946243286132812,39.014415960991755,2.088186943298808,10.403871146770285,1,12,0.0,15,183609354407553,35,22.9,653.8014526367188,0.6875,0,0.0,0.0,,,,,0,,1,0.0,
Raw,1244552,931070000000,,,-1330742678359872805,0.17946243286132812,39.014415960991755,2.088186943298808,10.403871146770285,1,18,0.0,15,183609355153096,10,34.1,-440.5854187011719,0.044600002467632294,0,0.0,0.0,,,,,0,,1,0.0,
Raw,1244552,931070000000,,,-1330742678359872805,0.17946243286132812,39.014415960991755,2.088186943298808,10.403871146770285,1,20,0.0,15,183609357638201,13,31.4,337.16925048828125,0.050700001418590546,0,0.0,0.0,,,,,0,,1,0.0,
Raw,1244552,931070000000,,,-1330742678359872805,0.17946243286132812,39.014415960991755,2.088186943298808,10.403871146770285,1,25,0.0,15,183609360870289,8,36.3,319.0202331542969,0.02120000123977661,0,0.0,0.0,,,,,0,,1,0.0,
Raw,1244553,931070000000,,,-1330742678359872805,0.17946243286132812,39.014415960991755,2.088186943298808,10.403871146770285,1,26,0.0,15,183609348012311,19,27.3,-591.8366088867188,0.053300000727176666,0,0.0,0.0,,,,,0,,1,0.0,
Raw,1244553,931070000000,,,-1330742678359872805,0.17946243286132812,39.014415960991755,2.088186943298808,10.403871146770285,1,29,0.0,15,183609360140535,21,26.2,-232.68040466308594,0.1112000048160553,0,0.0,0.0,,,,,0,,1,0.0,
Raw,1244553,931070000000,,,-1330742678359872805,0.17946243286132812,39.014415960991755,2.088186943298808,10.403871146770285,1,31,0.0,15,183609347804524,7,37.7,241.13636779785156,0.03110000118613243,0,0.0,0.0,,,,,0,,1,0.0,
Fix,gps,37.427503,-122.170302,-5.682892,0.000000,3.216000,1646708392000
NMEA,$GPGSV,3,1,12,02,28,053,28,05,60,097,38,11,00,000,36,12,33,163,23,1*64
,1646708392002
NMEA,$GPGSV,3,2,12,18,33,253,34,20,43,056,31,25,62,209,36,26,09,319,27,1*66
,1646708392003
NMEA,$GPGSV,3,3,12,29,61,333,26,31,12,282,38,15,02,151,,23,01,201,,1*6E
,1646708392003
NMEA,$GLGSV,3,1,10,78,37,300,37,86,11,064,10,77,39,223,12,76,05,184,13,1*7B
,1646708392003
NMEA,$GLGSV,3,2,10,79,02,338,18,65,15,149,30,88,37,296,37,87,52,005,23,1*7C
,1646708392003
NMEA,$GLGSV,3,3,10,71,22,045,39,72,33,099,34,1*76
,1646708392004
NMEA,$GAGSV,1,1,0,7*43
,1646708392004
NMEA,$PQGSV,1,1,0,0*43
,1646708392004
NMEA,$GBGSV,1,1,0,0*47
,1646708392005
NMEA,$GNGSA,A,3,02,05,12,18,20,25,29,31,,,,,1.1,0.7,0.8,1*3F
,1646708392007
NMEA,$GNGSA,A,3,65,71,72,78,87,88,,,,,,,1.1,0.7,0.8,2*3D
,1646708392008
NMEA,$GNVTG,,T,,M,0.0,N,0.0,K,A*3D
,1646708392008
NMEA,$GNGGA,025952.00,3725.650190,N,12210.218102,W,1,12,0.7,22.3,M,-27.9,M,,*7F
,1646708392008
NMEA,$GNRMC,025952.00,A,3725.650190,N,12210.218102,W,0.0,,080322,15.0,E,A,V*5B
,1646708392008
NMEA,$AIDSTAT,0,0,0,2,-1,23,3*00
,1646708392926
NMEA,$GPGSV,3,1,12,02,28,053,29,05,60,097,37,11,00,000,35,12,33,163,34,1*6F
,1646708393001
Raw,1245533,932070000000,,,-1330742678359872804,0.9527006149291992,38.70640284731053,-1.6301682011529501,10.62898355243016,1,14,0.0,207,21592359691669,9,35.4,-165.89605712890625,0.22010000050067902,0,0.0,0.0,,,,,0,,3,0.0,
Raw,1245533,932070000000,,,-1330742678359872804,0.9527006149291992,38.70640284731053,-1.6301682011529501,10.62898355243016,1,22,0.0,207,21592351460645,187,12.2,494.4673156738281,5.693000316619873,0,0.0,0.0,,,,,0,,3,0.0,
Raw,1245533,932070000000,,,-1330742678359872804,0.9527006149291992,38.70640284731053,-1.6301682011529501,10.62898355243016,1,13,0.0,207,21592359702994,168,13.6,596.6728515625,5.545000076293945,0,0.0,0.0,,,,,0,,3,0.0,
Raw,1245534,932070000000,,,-1330742678359872804,0.9527006149291992,38.70640284731053,-1.6301682011529501,10.62898355243016,1,12,0.0,207,21592349590354,307,13.1,828.9403076171875,10.0600004196167,0,0.0,0.0,,,,,0,,3,0.0,
Raw,1245534,932070000000,,,-1330742678359872804,0.9527006149291992,38.70640284731053,-1.6301682011529501,10.62898355243016,1,15,0.0,207,21592348758406,99,17.5,-677.8453369140625,4.378499984741211,0,0.0,0.0,,,,,0,,3,0.0,
Raw,1245534,932070000000,,,-1330742678359872804,0.9527006149291992,38.70640284731053,-1.6301682011529501,10.62898355243016,1,1,0.0,207,21592353146432,17,28.2,-764.9894409179688,0.25280001759529114,0,0.0,0.0,,,,,0,,3,0.0,
Raw,1245534,932070000000,,,-1330742678359872804,0.9527006149291992,38.70640284731053,-1.6301682011529501,10.62898355243016,1,24,0.0,207,21592359671323,9,35.7,-291.25152587890625,0.2501000165939331,0,0.0,0.0,,,,,0,,3,0.0,
Raw,1245535,932070000000,,,-1330742678359872804,0.9527006149291992,38.70640284731053,-1.6301682011529501,10.62898355243016,1,23,0.0,207,21592362536357,31,23.0,114.66866302490234,0.9294999837875366,0,0.0,0.0,,,,,0,,3,0.0,
Raw,1245535,932070000000,,,-1330742678359872804,0.9527006149291992,38.70640284731053,-1.6301682011529501,10.62898355243016,1,7,0.0,207,21592355077583,7,37.4,225.74119567871094,0.24310000240802765,0,0.0,0.0,,,,,0,,3,0.0,
Raw,1245535,932070000000,,,-1330742678359872804,0.9527006149291992,38.70640284731053,-1.6301682011529501,10.62898355243016,1,8,0.0,207,21592358222990,11,33.4,-389.24456787109375,0.24990001320838928,0,0.0,0.0,,,,,0,,3,0.0,
Raw,1245535,932070000000,,,-1330742678359872804,0.9527006149291992,38.70640284731053,-1.6301682011529501,10.62898355243016,1,2,0.0,15,183610351034178,17,28.7,461.41015625,0.049800001084804535,0,0.0,0.0,,,,,0,,1,0.0,
Raw,1245536,932070000000,,,-1330742678359872804,0.9527006149291992,38.70640284731053,-1.6301682011529501,10.62898355243016,1,5,0.0,15,183610360848013,8,36.5,-26.307514190673828,0.02120000123977661,0,0.0,0.0,,,,,0,,1,0.0,
Raw,1245536,932070000000,,,-1330742678359872804,0.9527006149291992,38.70640284731053,-1.6301682011529501,10.62898355243016,1,12,0.0,15,183610354405285,10,34.1,655.2286987304688,0.2874999940395355,0,0.0,0.0,,,,,0,,1,0.0,
Raw,1245536,932070000000,,,-1330742678359872804,0.9527006149291992,38.70640284731053,-1.6301682011529501,10.62898355243016,1,18,0.0,15,183610355154577,12,32.3,-439.91668701171875,0.046400003135204315,0,0.0,0.0,,,,,0,,1,0.0,
Raw,1245536,932070000000,,,-1330742678359872804,0.9527006149291992,38.70640284731053,-1.6301682011529501,10.62898355243016,1,20,0.0,15,183610357637064,12,32.0,338.0101013183594,0.049400001764297485,0,0.0,0.0,,,,,0,,1,0.0,
Raw,1245537,932070000000,,,-1330742678359872804,0.9527006149291992,38.70640284731053,-1.6301682011529501,10.62898355243016,1,25,0.0,15,183610360869234,7,37.5,319.7835998535156,0.020600000396370888,0,0.0,0.0,,,,,0,,1,0.0,
Raw,1245537,932070000000,,,-1330742678359872804,0.9527006149291992,38.70640284731053,-1.6301682011529501,10.62898355243016,1,26,0.0,15,183610348014293,16,29.0,-591.22900390625,0.038700003176927567,0,0.0,0.0,,,,,0,,1,0.0,
Raw,1245537,932070000000,,,-1330742678359872804,0.9527006149291992,38.70640284731053,-1.6301682011529501,10.62898355243016,1,29,0.0,15,183610360141285,31,23.8,-231.5112762451172,0.6165000200271606,0,0.0,0.0,,,,,0,,1,0.0,
Raw,1245537,932070000000,,,-1330742678359872804,0.9527006149291992,38.70640284731053,-1.6301682011529501,10.62898355243016,1,31,0.0,15,183610347803731,7,37.0,241.7803192138672,0.03110000118613243,0,0.0,0.0,,,,,0,,1,0.0,
NMEA,$GPGSV,3,2,12,18,33,253,32,20,43,056,32,25,62,209,38,26,09,319,29,1*63
,1646708393002
NMEA,$GPGSV,3,3,12,29,61,333,24,31,12,282,37,15,02,151,,23,01,201,,1*63
,1646708393002
NMEA,$GLGSV,3,1,10,78,37,300,35,86,11,064,12,77,39,223,14,76,05,184,13,1*7D
,1646708393002
NMEA,$GLGSV,3,2,10,79,02,338,18,65,15,149,28,88,37,296,36,87,52,005,23,1*74
,1646708393002
NMEA,$GLGSV,3,3,10,71,22,045,37,72,33,099,33,1*7F
,1646708393003
NMEA,$GAGSV,1,1,0,7*43
,1646708393003
NMEA,$PQGSV,1,1,0,0*43
,1646708393004
NMEA,$GBGSV,1,1,0,0*47
,1646708393004
Fix,gps,37.427503,-122.170302,-5.679626,0.000000,3.216000,1646708393000
NMEA,$GNGSA,A,3,02,05,12,18,20,25,29,31,,,,,1.1,0.7,0.8,1*3F
,1646708393019
NMEA,$GNGSA,A,3,65,71,72,78,87,88,,,,,,,1.1,0.7,0.8,2*3D
,1646708393020
NMEA,$GNVTG,,T,,M,0.0,N,0.0,K,A*3D
,1646708393020
NMEA,$GNGGA,025953.00,3725.650188,N,12210.218101,W,1,12,0.7,22.3,M,-27.9,M,,*74
,1646708393020
NMEA,$GNRMC,025953.00,A,3725.650188,N,12210.218101,W,0.0,,080322,15.0,E,A,V*50
,1646708393020
NMEA,$AIDSTAT,0,0,0,2,,23,3*00
,1646708393926
Raw,1246512,933070000000,,,-1330742678359872798,0.7641534805297852,35.855868190992624,0.8960560056307374,10.414647969466088,1,14,0.0,207,21593359692250,24,25.9,-165.44351196289062,0.580299973487854,0,0.0,0.0,,,,,0,,3,0.0,
Raw,1246512,933070000000,,,-1330742678359872798,0.7641534805297852,35.855868190992624,0.8960560056307374,10.414647969466088,1,22,0.0,207,21593351458996,224,12.2,494.4673156738281,7.193000316619873,0,0.0,0.0,,,,,0,,3,0.0,
Raw,1246513,933070000000,,,-1330742678359872798,0.7641534805297852,35.855868190992624,0.8960560056307374,10.414647969466088,1,13,0.0,207,21593359700983,31,23.0,597.8526611328125,0.9249999523162842,0,0.0,0.0,,,,,0,,3,0.0,
Raw,1246513,933070000000,,,-1330742678359872798,0.7641534805297852,35.855868190992624,0.8960560056307374,10.414647969466088,1,12,0.0,207,21593349587455,123,15.1,830.0260620117188,4.570000171661377,0,0.0,0.0,,,,,0,,3,0.0,
Raw,1246513,933070000000,,,-1330742678359872798,0.7641534805297852,35.855868190992624,0.8960560056307374,10.414647969466088,1,15,0.0,207,21593348760625,133,13.3,-676.3763427734375,3.308500051498413,0,0.0,0.0,,,,,0,,3,0.0,
Raw,1246513,933070000000,,,-1330742678359872798,0.7641534805297852,35.855868190992624,0.8960560056307374,10.414647969466088,1,1,0.0,207,21593353148901,19,27.5,-764.3611450195312,0.26080000400543213,0,0.0,0.0,,,,,0,,3,0.0,
Raw,1246514,933070000000,,,-1330742678359872798,0.7641534805297852,35.855868190992624,0.8960560056307374,10.414647969466088,1,24,0.0,207,21593359672311,13,31.9,-290.7567443847656,0.25370001792907715,0,0.0,0.0,,,,,0,,3,0.0,
Raw,1246514,933070000000,,,-1330742678359872798,0.7641534805297852,35.855868190992624,0.8960560056307374,10.414647969466088,1,23,0.0,207,21593362535938,27,24.7,115.82769012451172,0.8694999814033508,0,0.0,0.0,,,,,0,,3,0.0,
Raw,1246514,933070000000,,,-1330742678359872798,0.7641534805297852,35.855868190992624,0.8960560056307374,10.414647969466088,1,7,0.0,207,21593355076689,24,25.9,226.5680694580078,0.6042999625205994,0,0.0,0.0,,,,,0,,3,0.0,
Raw,1246514,933070000000,,,-1330742678359872798,0.7641534805297852,35.855868190992624,0.8960560056307374,10.414647969466088,1,8,0.0,207,21593358224247,11,33.6,-388.45806884765625,0.24990001320838928,0,0.0,0.0,,,,,0,,3,0.0,
Raw,1246515,933070000000,,,-1330742678359872798,0.7641534805297852,35.855868190992624,0.8960560056307374,10.414647969466088,1,2,0.0,15,183611351032484,70,17.9,461.3194274902344,1.0130000114440918,0,0.0,0.0,,,,,0,,1,0.0,
Raw,1246515,933070000000,,,-1330742678359872798,0.7641534805297852,35.855868190992624,0.8960560056307374,10.414647969466088,1,5,0.0,15,183611360848105,9,35.4,-25.54875946044922,0.02160000056028366,0,0.0,0.0,,,,,0,,1,0.0,
Raw,1246515,933070000000,,,-1330742678359872798,0.7641534805297852,35.855868190992624,0.8960560056307374,10.414647969466088,1,12,0.0,15,183611354403133,12,32.9,655.8609619140625,0.04490000009536743,0,0.0,0.0,,,,,0,,1,0.0,
Raw,1246515,933070000000,,,-1330742678359872798,0.7641534805297852,35.855868190992624,0.8960560056307374,10.414647969466088,1,18,0.0,15,183611355156059,13,31.8,-439.3598937988281,0.047700002789497375,0,0.0,0.0,,,,,0,,1,0.0,
Raw,1246515,933070000000,,,-1330742678359872798,0.7641534805297852,35.855868190992624,0.8960560056307374,10.414647969466088,1,20,0.0,15,183611357635915,19,27.5,338.2475891113281,0.06680000573396683,0,0.0,0.0,,,,,0,,1,0.0,
Raw,1246516,933070000000,,,-1330742678359872798,0.7641534805297852,35.855868190992624,0.8960560056307374,10.414647969466088,1,25,0.0,15,183611360868163,5,40.6,320.49920654296875,0.01940000057220459,0,0.0,0.0,,,,,0,,1,0.0,
Raw,1246517,933070000000,,,-1330742678359872798,0.7641534805297852,35.855868190992624,0.8960560056307374,10.414647969466088,1,26,0.0,15,183611348016298,14,30.1,-590.6923217773438,0.037800002843141556,0,0.0,0.0,,,,,0,,1,0.0,
Raw,1246517,933070000000,,,-1330742678359872798,0.7641534805297852,35.855868190992624,0.8960560056307374,10.414647969466088,1,29,0.0,15,183611360142125,16,29.0,-231.38265991210938,0.02670000120997429,0,0.0,0.0,,,,,0,,1,0.0,
Raw,1246518,933070000000,,,-1330742678359872798,0.7641534805297852,35.855868190992624,0.8960560056307374,10.414647969466088,1,31,0.0,15,183611347802954,8,36.9,242.39425659179688,0.031700000166893005,0,0.0,0.0,,,,,0,,1,0.0,
Fix,gps,37.427503,-122.170305,-5.439636,0.440000,3.216000,1646708394000
NMEA,$GPGSV,3,1,12,02,28,053,18,05,60,097,35,11,00,000,28,12,33,163,33,1*64
,1646708394014
NMEA,$GPGSV,3,2,12,18,33,253,32,20,43,056,28,25,62,209,41,26,09,319,30,1*6E
,1646708394015
NMEA,$GPGSV,3,3,12,29,61,333,29,31,12,282,37,15,02,151,,23,01,201,,1*6E
,1646708394015
NMEA,$GLGSV,3,1,10,78,37,300,26,86,11,064,12,77,39,223,23,76,05,184,15,1*7D
,1646708394015
NMEA,$GLGSV,3,2,10,79,02,338,13,65,15,149,28,88,37,296,32,87,52,005,25,1*7D
,1646708394015
NMEA,$GLGSV,3,3,10,71,22,045,26,72,33,099,34,1*78
,1646708394015
NMEA,$GAGSV,1,1,0,7*43
,1646708394016
NMEA,$PQGSV,1,1,0,0*43
,1646708394016
NMEA,$GBGSV,1,1,0,0*47
,1646708394016
NMEA,$GNGSA,A,3,02,05,12,18,20,25,29,31,,,,,1.1,0.7,0.8,1*3F
,1646708394018
NMEA,$GNGSA,A,3,65,71,72,78,87,88,,,,,,,1.1,0.7,0.8,2*3D
,1646708394018
NMEA,$GNVTG,201.0,T,201.0,M,0.9,N,1.6,K,A*33
,1646708394018
NMEA,$GNGGA,025954.00,3725.650181,N,12210.218280,W,1,12,0.7,22.5,M,-27.9,M,,*76
,1646708394018
NMEA,$GNRMC,025954.00,A,3725.650181,N,12210.218280,W,0.9,201.0,080322,15.0,E,A,V*70
,1646708394019
NMEA,$AIDSTAT,0,0,0,2,-5,23,3*00
,1646708394926
Raw,1247534,934070000000,,,-1330742678359872799,0.2591361999511719,38.07102621067315,3.1557498869116,11.802358536031322,1,14,0.0,207,21594359692759,17,28.3,-165.20606994628906,0.23180000483989716,0,0.0,0.0,,,,,0,,3,0.0,
Raw,1247535,934070000000,,,-1330742678359872799,0.2591361999511719,38.07102621067315,3.1557498869116,11.802358536031322,1,22,0.0,207,21594351457347,270,12.2,494.4673156738281,8.693000793457031,0,0.0,0.0,,,,,0,,3,0.0,
Raw,1247535,934070000000,,,-1330742678359872799,0.2591361999511719,38.07102621067315,3.1557498869116,11.802358536031322,1,13,0.0,207,21594359698984,31,23.4,597.8713989257812,0.9249999523162842,0,0.0,0.0,,,,,0,,3,0.0,
Raw,1247535,934070000000,,,-1330742678359872799,0.2591361999511719,38.07102621067315,3.1557498869116,11.802358536031322,1,12,0.0,207,21594349584928,53,19.3,829.6047973632812,1.2100000381469727,0,0.0,0.0,,,,,0,,3,0.0,
Raw,1247535,934070000000,,,-1330742678359872799,0.2591361999511719,38.07102621067315,3.1557498869116,11.802358536031322,1,15,0.0,207,21594348762784,70,17.9,-676.9845581054688,1.378499984741211,0,0.0,0.0,,,,,0,,3,0.0,
Raw,1247536,934070000000,,,-1330742678359872799,0.2591361999511719,38.07102621067315,3.1557498869116,11.802358536031322,1,1,0.0,207,21594353151445,16,29.6,-764.8136596679688,0.24619999527931213,0,0.0,0.0,,,,,0,,3,0.0,
Raw,1247536,934070000000,,,-1330742678359872799,0.2591361999511719,38.07102621067315,3.1557498869116,11.802358536031322,1,24,0.0,207,21594359673291,11,33.0,-290.78857421875,0.25140002369880676,0,0.0,0.0,,,,,0,,3,0.0,
Raw,1247536,934070000000,,,-1330742678359872799,0.2591361999511719,38.07102621067315,3.1557498869116,11.802358536031322,1,23,0.0,207,21594362535394,46,20.8,114.6219253540039,1.1195000410079956,0,0.0,0.0,,,,,0,,3,0.0,
Raw,1247536,934070000000,,,-1330742678359872799,0.2591361999511719,38.07102621067315,3.1557498869116,11.802358536031322,1,7,0.0,207,21594355076056,46,20.5,225.6458740234375,1.1390000581741333,0,0.0,0.0,,,,,0,,3,0.0,
Raw,1247536,934070000000,,,-1330742678359872799,0.2591361999511719,38.07102621067315,3.1557498869116,11.802358536031322,1,8,0.0,207,21594358225501,8,36.7,-388.7833251953125,0.24820001423358917,0,0.0,0.0,,,,,0,,3,0.0,
Raw,1247537,934070000000,,,-1330742678359872799,0.2591361999511719,38.07102621067315,3.1557498869116,11.802358536031322,1,2,0.0,15,183612351030946,78,17.9,461.3194274902344,2.513000011444092,0,0.0,0.0,,,,,0,,1,0.0,
Raw,1247537,934070000000,,,-1330742678359872799,0.2591361999511719,38.07102621067315,3.1557498869116,11.802358536031322,1,5,0.0,15,183612360848175,8,36.4,-25.84684944152832,0.02120000123977661,0,0.0,0.0,,,,,0,,1,0.0,
Raw,1247537,934070000000,,,-1330742678359872799,0.2591361999511719,38.07102621067315,3.1557498869116,11.802358536031322,1,12,0.0,15,183612354400924,17,28.8,655.2477416992188,0.4375,0,0.0,0.0,,,,,0,,1,0.0,
Raw,1247538,934070000000,,,-1330742678359872799,0.2591361999511719,38.07102621067315,3.1557498869116,11.802358536031322,1,18,0.0,15,183612355157507,11,33.1,-439.4746398925781,0.04540000110864639,0,0.0,0.0,,,,,0,,1,0.0,
Raw,1247538,934070000000,,,-1330742678359872799,0.2591361999511719,38.07102621067315,3.1557498869116,11.802358536031322,1,20,0.0,15,183612357634629,81,16.7,337.0576477050781,1.1019999980926514,0,0.0,0.0,,,,,0,,1,0.0,
Raw,1247539,934070000000,,,-1330742678359872799,0.2591361999511719,38.07102621067315,3.1557498869116,11.802358536031322,1,25,0.0,15,183612360867087,6,39.1,320.2823791503906,0.019600000232458115,0,0.0,0.0,,,,,0,,1,0.0,
Raw,1247540,934070000000,,,-1330742678359872799,0.2591361999511719,38.07102621067315,3.1557498869116,11.802358536031322,1,26,0.0,15,183612348018326,17,28.2,-590.673095703125,0.04529999941587448,0,0.0,0.0,,,,,0,,1,0.0,
Raw,1247540,934070000000,,,-1330742678359872799,0.2591361999511719,38.07102621067315,3.1557498869116,11.802358536031322,1,29,0.0,15,183612360142880,14,30.3,-231.5030059814453,0.025800000876188278,0,0.0,0.0,,,,,0,,1,0.0,
Raw,1247540,934070000000,,,-1330742678359872799,0.2591361999511719,38.07102621067315,3.1557498869116,11.802358536031322,1,31,0.0,15,183612347802142,8,36.5,242.35015869140625,0.031700000166893005,0,0.0,0.0,,,,,0,,1,0.0,
Fix,gps,37.427504,-122.170307,-5.467682,0.000000,3.216000,1646708395000
NMEA,$GPGSV,3,1,12,02,28,053,18,05,60,097,36,11,00,000,27,12,33,163,29,1*63
,1646708395004
NMEA,$GPGSV,3,2,12,18,33,253,33,20,43,056,17,25,62,209,39,26,09,319,28,1*65
,1646708395005
NMEA,$GPGSV,3,3,12,29,61,333,30,31,12,282,37,15,02,151,,23,01,201,,1*66
,1646708395005
NMEA,$GLGSV,3,1,10,78,37,300,28,86,11,064,12,77,39,223,23,76,05,184,19,1*7F
,1646708395005
NMEA,$GLGSV,3,2,10,79,02,338,18,65,15,149,30,88,37,296,33,87,52,005,21,1*7A
,1646708395006
NMEA,$GLGSV,3,3,10,71,22,045,21,72,33,099,37,1*7C
,1646708395006
NMEA,$GAGSV,1,1,0,7*43
,1646708395007
NMEA,$PQGSV,1,1,0,0*43
,1646708395007
NMEA,$GBGSV,1,1,0,0*47
,1646708395008
NMEA,$GNGSA,A,3,02,05,12,18,20,25,26,29,31,,,,1.0,0.7,0.8,1*3A
,1646708395018
NMEA,$GNGSA,A,3,65,71,72,78,87,88,,,,,,,1.0,0.7,0.8,2*3C
,1646708395018
NMEA,$GNVTG,,T,,M,0.0,N,0.0,K,A*3D
,1646708395019
NMEA,$GNGGA,025955.00,3725.650216,N,12210.218431,W,1,12,0.7,22.5,M,-27.9,M,,*76
,1646708395019
NMEA,$GNRMC,025955.00,A,3725.650216,N,12210.218431,W,0.0,,080322,15.0,E,A,V*54
,1646708395019
NMEA,$AIDSTAT,0,0,0,2,-4,23,3*00
,1646708395926
Fix,gps,37.427505,-122.170308,-5.652679,0.000000,3.216000,1646708396000
Raw,1248559,935070000000,,,-1330742678359872798,0.0041942596435546875,38.435973692685366,1.5114987897804832,10.06099226937843,1,14,0.0,207,21595359693351,17,28.4,-165.3455810546875,0.23180000483989716,0,0.0,0.0,,,,,0,,3,0.0,
Raw,1248559,935070000000,,,-1330742678359872798,0.0041942596435546875,38.435973692685366,1.5114987897804832,10.06099226937843,1,22,0.0,207,21595351455697,327,12.2,494.4673156738281,10.193000793457031,0,0.0,0.0,,,,,0,,3,0.0,
Raw,1248559,935070000000,,,-1330742678359872798,0.0041942596435546875,38.435973692685366,1.5114987897804832,10.06099226937843,1,13,0.0,207,21595359696949,31,23.7,597.46875,0.9249999523162842,0,0.0,0.0,,,,,0,,3,0.0,
Raw,1248559,935070000000,,,-1330742678359872798,0.0041942596435546875,38.435973692685366,1.5114987897804832,10.06099226937843,1,12,0.0,207,21595349582184,53,19.1,829.3240356445312,1.2100000381469727,0,0.0,0.0,,,,,0,,3,0.0,
Raw,1248559,935070000000,,,-1330742678359872798,0.0041942596435546875,38.435973692685366,1.5114987897804832,10.06099226937843,1,15,0.0,207,21595348765369,70,17.0,-676.1985473632812,1.378499984741211,0,0.0,0.0,,,,,0,,3,0.0,
Raw,1248559,935070000000,,,-1330742678359872798,0.0041942596435546875,38.435973692685366,1.5114987897804832,10.06099226937843,1,1,0.0,207,21595353154021,16,29.3,-765.1048583984375,0.24619999527931213,0,0.0,0.0,,,,,0,,3,0.0,
Raw,1248560,935070000000,,,-1330742678359872798,0.0041942596435546875,38.435973692685366,1.5114987897804832,10.06099226937843,1,24,0.0,207,21595359674252,12,32.9,-291.1014404296875,0.2524000108242035,0,0.0,0.0,,,,,0,,3,0.0,
Raw,1248560,935070000000,,,-1330742678359872798,0.0041942596435546875,38.435973692685366,1.5114987897804832,10.06099226937843,1,23,0.0,207,21595362535151,46,20.1,114.46302032470703,1.1195000410079956,0,0.0,0.0,,,,,0,,3,0.0,
Raw,1248560,935070000000,,,-1330742678359872798,0.0041942596435546875,38.435973692685366,1.5114987897804832,10.06099226937843,1,7,0.0,207,21595355075217,70,17.1,226.4398193359375,1.3890000581741333,0,0.0,0.0,,,,,0,,3,0.0,
Raw,1248560,935070000000,,,-1330742678359872798,0.0041942596435546875,38.435973692685366,1.5114987897804832,10.06099226937843,1,8,0.0,207,21595358226793,8,36.2,-388.97088623046875,0.24820001423358917,0,0.0,0.0,,,,,0,,3,0.0,
Raw,1248560,935070000000,,,-1330742678359872798,0.0041942596435546875,38.435973692685366,1.5114987897804832,10.06099226937843,1,5,0.0,15,183613360848265,8,36.4,-26.005800247192383,0.02120000123977661,0,0.0,0.0,,,,,0,,1,0.0,
Raw,1248560,935070000000,,,-1330742678359872798,0.0041942596435546875,38.435973692685366,1.5114987897804832,10.06099226937843,1,12,0.0,15,183613354398750,13,31.2,654.9151000976562,0.04620000347495079,0,0.0,0.0,,,,,0,,1,0.0,
Raw,1248560,935070000000,,,-1330742678359872798,0.0041942596435546875,38.435973692685366,1.5114987897804832,10.06099226937843,1,18,0.0,15,183613355158978,12,32.1,-439.7869873046875,0.046400003135204315,0,0.0,0.0,,,,,0,,1,0.0,
Raw,1248560,935070000000,,,-1330742678359872798,0.0041942596435546875,38.435973692685366,1.5114987897804832,10.06099226937843,1,20,0.0,15,183613357633427,53,19.4,338.41827392578125,0.871999979019165,0,0.0,0.0,,,,,0,,1,0.0,
Raw,1248560,935070000000,,,-1330742678359872798,0.0041942596435546875,38.435973692685366,1.5114987897804832,10.06099226937843,1,25,0.0,15,183613360866007,5,40.3,320.0963439941406,0.01940000057220459,0,0.0,0.0,,,,,0,,1,0.0,
Raw,1248561,935070000000,,,-1330742678359872798,0.0041942596435546875,38.435973692685366,1.5114987897804832,10.06099226937843,1,26,0.0,15,183613348020284,17,28.2,-590.9293212890625,0.04529999941587448,0,0.0,0.0,,,,,0,,1,0.0,
Raw,1248561,935070000000,,,-1330742678359872798,0.0041942596435546875,38.435973692685366,1.5114987897804832,10.06099226937843,1,29,0.0,15,183613360143669,13,31.2,-231.79934692382812,0.025200000032782555,0,0.0,0.0,,,,,0,,1,0.0,
Raw,1248561,935070000000,,,-1330742678359872798,0.0041942596435546875,38.435973692685366,1.5114987897804832,10.06099226937843,1,31,0.0,15,183613347801347,8,36.2,242.1369171142578,0.031700000166893005,0,0.0,0.0,,,,,0,,1,0.0,
NMEA,$GPGSV,3,1,12,05,60,097,36,11,00,000,28,12,33,163,31,18,33,253,32,1*6E
,1646708395999
NMEA,$GPGSV,3,2,12,20,43,056,19,25,62,209,40,26,09,319,28,29,61,333,31,1*65
,1646708395999
NMEA,$GPGSV,3,3,12,31,12,282,36,02,28,053,,15,02,151,,23,01,201,,1*65
,1646708395999
NMEA,$GLGSV,3,1,10,78,37,300,28,86,11,064,12,77,39,223,24,76,05,184,19,1*78
,1646708396011
NMEA,$GLGSV,3,2,10,79,02,338,17,65,15,149,29,88,37,296,33,87,52,005,20,1*7C
,1646708396011
NMEA,$GLGSV,3,3,10,71,22,045,17,72,33,099,36,1*78
,1646708396012
NMEA,$GAGSV,1,1,0,7*43
,1646708396014
NMEA,$PQGSV,1,1,0,0*43
,1646708396014
NMEA,$GBGSV,1,1,0,0*47
,1646708396014
NMEA,$GNGSA,A,3,02,05,12,18,20,25,26,29,31,,,,1.0,0.7,0.8,1*3A
,1646708396019
NMEA,$GNGSA,A,3,65,71,72,78,87,88,,,,,,,1.0,0.7,0.8,2*3C
,1646708396019
NMEA,$GNVTG,,T,,M,0.0,N,0.0,K,A*3D
,1646708396019
NMEA,$GNGGA,025956.00,3725.650277,N,12210.218482,W,1,12,0.7,22.3,M,-27.9,M,,*7C
,1646708396019
NMEA,$GNRMC,025956.00,A,3725.650277,N,12210.218482,W,0.0,,080322,15.0,E,A,V*58
,1646708396020
NMEA,$AIDSTAT,0,0,0,2,2,23,3*00
,1646708396925
Raw,1249525,936070000000,,,-1330742678359872799,0.19953155517578125,38.422451325459406,0.6651158468040519,9.854455190093425,1,14,0.0,207,21596359693924,14,30.1,-164.9776153564453,0.22429999709129333,0,0.0,0.0,,,,,0,,3,0.0,
Raw,1249525,936070000000,,,-1330742678359872799,0.19953155517578125,38.422451325459406,0.6651158468040519,9.854455190093425,1,22,0.0,207,21596351454332,160,12.2,494.7108459472656,4.193000316619873,0,0.0,0.0,,,,,0,,3,0.0,
Raw,1249526,936070000000,,,-1330742678359872799,0.19953155517578125,38.422451325459406,0.6651158468040519,9.854455190093425,1,13,0.0,207,21596359694965,27,24.2,598.5830688476562,0.8649999499320984,0,0.0,0.0,,,,,0,,3,0.0,
Raw,1249526,936070000000,,,-1330742678359872799,0.19953155517578125,38.422451325459406,0.6651158468040519,9.854455190093425,1,12,0.0,207,21596349579137,35,22.0,829.7920532226562,1.0,0,0.0,0.0,,,,,0,,3,0.0,
Raw,1249526,936070000000,,,-1330742678359872799,0.19953155517578125,38.422451325459406,0.6651158468040519,9.854455190093425,1,15,0.0,207,21596348767460,53,19.2,-677.1716918945312,1.2085000276565552,0,0.0,0.0,,,,,0,,3,0.0,
Raw,1249527,936070000000,,,-1330742678359872799,0.19953155517578125,38.422451325459406,0.6651158468040519,9.854455190093425,1,1,0.0,207,21596353156595,17,28.7,-764.7265625,0.25280001759529114,0,0.0,0.0,,,,,0,,3,0.0,
Raw,1249527,936070000000,,,-1330742678359872799,0.19953155517578125,38.422451325459406,0.6651158468040519,9.854455190093425,1,24,0.0,207,21596359675185,10,34.2,-290.8294372558594,0.25060001015663147,0,0.0,0.0,,,,,0,,3,0.0,
Raw,1249527,936070000000,,,-1330742678359872799,0.19953155517578125,38.422451325459406,0.6651158468040519,9.854455190093425,1,23,0.0,207,21596362534855,40,21.4,115.1173095703125,1.0494999885559082,0,0.0,0.0,,,,,0,,3,0.0,
Raw,1249527,936070000000,,,-1330742678359872799,0.19953155517578125,38.422451325459406,0.6651158468040519,9.854455190093425,1,7,0.0,207,21596355074399,31,23.0,226.58926391601562,0.9489999413490295,0,0.0,0.0,,,,,0,,3,0.0,
Raw,1249527,936070000000,,,-1330742678359872799,0.19953155517578125,38.422451325459406,0.6651158468040519,9.854455190093425,1,8,0.0,207,21596358228086,9,35.9,-388.5684509277344,0.24860000610351562,0,0.0,0.0,,,,,0,,3,0.0,
Raw,1249527,936070000000,,,-1330742678359872799,0.19953155517578125,38.422451325459406,0.6651158468040519,9.854455190093425,1,5,0.0,15,183614360848334,8,36.4,-25.59351348876953,0.02120000123977661,0,0.0,0.0,,,,,0,,1,0.0,
Raw,1249528,936070000000,,,-1330742678359872799,0.19953155517578125,38.422451325459406,0.6651158468040519,9.854455190093425,1,12,0.0,15,183614354396582,19,27.3,655.2216186523438,0.062300004065036774,0,0.0,0.0,,,,,0,,1,0.0,
Raw,1249528,936070000000,,,-1330742678359872799,0.19953155517578125,38.422451325459406,0.6651158468040519,9.854455190093425,1,18,0.0,15,183614355160457,10,34.2,-439.39208984375,0.044600002467632294,0,0.0,0.0,,,,,0,,1,0.0,
Raw,1249528,936070000000,,,-1330742678359872799,0.19953155517578125,38.422451325459406,0.6651158468040519,9.854455190093425,1,20,0.0,15,183614357632166,70,17.5,339.94061279296875,1.0220000743865967,0,0.0,0.0,,,,,0,,1,0.0,
Raw,1249528,936070000000,,,-1330742678359872799,0.19953155517578125,38.422451325459406,0.6651158468040519,9.854455190093425,1,25,0.0,15,183614360864952,6,39.6,320.52056884765625,0.019600000232458115,0,0.0,0.0,,,,,0,,1,0.0,
Raw,1249528,936070000000,,,-1330742678359872799,0.19953155517578125,38.422451325459406,0.6651158468040519,9.854455190093425,1,26,0.0,15,183614348022237,17,28.4,-590.6404418945312,0.04529999941587448,0,0.0,0.0,,,,,0,,1,0.0,
Raw,1249528,936070000000,,,-1330742678359872799,0.19953155517578125,38.422451325459406,0.6651158468040519,9.854455190093425,1,29,0.0,15,183614360144452,14,30.3,-231.39495849609375,0.025800000876188278,0,0.0,0.0,,,,,0,,1,0.0,
Raw,1249529,936070000000,,,-1330742678359872799,0.19953155517578125,38.422451325459406,0.6651158468040519,9.854455190093425,1,31,0.0,15,183614347800526,8,36.1,242.4893798828125,0.031700000166893005,0,0.0,0.0,,,,,0,,1,0.0,
Fix,gps,37.427506,-122.170309,-5.495667,0.000000,3.216000,1646708397000
NMEA,$GPGSV,3,1,12,05,60,097,36,11,00,000,27,12,33,163,27,18,33,253,34,1*60
,1646708396999
NMEA,$GPGSV,3,2,12,20,43,056,18,25,62,209,40,26,09,319,28,29,61,333,30,1*65
,1646708397000
NMEA,$GPGSV,3,3,12,31,12,282,36,02,28,053,,15,02,151,,23,01,201,,1*65
,1646708397000
NMEA,$GLGSV,3,1,10,78,37,300,30,86,11,064,12,77,39,223,24,76,05,184,22,1*79
,1646708397000
NMEA,$GLGSV,3,2,10,79,02,338,19,65,15,149,29,88,37,298,34,87,52,005,21,1*7A
,1646708397000
NMEA,$GLGSV,3,3,10,71,22,045,23,72,33,099,36,1*7F
,1646708397000
NMEA,$GAGSV,1,1,0,7*43
,1646708397001
NMEA,$PQGSV,1,1,0,0*43
,1646708397001
NMEA,$GBGSV,1,1,0,0*47
,1646708397001
NMEA,$GNGSA,A,3,02,05,12,18,20,25,26,29,31,,,,1.0,0.6,0.7,1*34
,1646708397012
NMEA,$GNGSA,A,3,65,71,72,76,78,87,88,,,,,,1.0,0.6,0.7,2*33
,1646708397012
NMEA,$GNVTG,,T,,M,0.0,N,0.0,K,A*3D
,1646708397012
NMEA,$GNGGA,025957.00,3725.650341,N,12210.218560,W,1,12,0.6,22.4,M,-27.9,M,,*72
,1646708397012
NMEA,$GNRMC,025957.00,A,3725.650341,N,12210.218560,W,0.0,,080322,15.0,E,A,V*50
,1646708397012
NMEA,$AIDSTAT,0,0,0,2,,23,3*00
,1646708397933
Raw,1250523,937070000000,,,-1330742678359872801,0.5902061462402344,41.945539123844355,1.2479637823782344,10.051207159316503,1,14,0.0,207,21597359694465,11,33.5,-164.79689025878906,0.22140000760555267,0,0.0,0.0,,,,,0,,3,0.0,
Raw,1250524,937070000000,,,-1330742678359872801,0.5902061462402344,41.945539123844355,1.2479637823782344,10.051207159316503,1,22,0.0,207,21597351452682,187,12.2,494.7108459472656,5.693000316619873,0,0.0,0.0,,,,,0,,3,0.0,
Raw,1250524,937070000000,,,-1330742678359872801,0.5902061462402344,41.945539123844355,1.2479637823782344,10.051207159316503,1,13,0.0,207,21597359693022,24,25.2,598.3606567382812,0.580299973487854,0,0.0,0.0,,,,,0,,3,0.0,
Raw,1250524,937070000000,,,-1330742678359872801,0.5902061462402344,41.945539123844355,1.2479637823782344,10.051207159316503,1,12,0.0,207,21597349576536,40,21.4,829.7639770507812,1.059999942779541,0,0.0,0.0,,,,,0,,3,0.0,
Raw,1250524,937070000000,,,-1330742678359872801,0.5902061462402344,41.945539123844355,1.2479637823782344,10.051207159316503,1,15,0.0,207,21597348769849,61,18.2,-675.4874267578125,1.2884999513626099,0,0.0,0.0,,,,,0,,3,0.0,
Raw,1250525,937070000000,,,-1330742678359872801,0.5902061462402344,41.945539123844355,1.2479637823782344,10.051207159316503,1,1,0.0,207,21597353159126,16,29.4,-764.67724609375,0.24619999527931213,0,0.0,0.0,,,,,0,,3,0.0,
Raw,1250525,937070000000,,,-1330742678359872801,0.5902061462402344,41.945539123844355,1.2479637823782344,10.051207159316503,1,24,0.0,207,21597359676135,10,34.5,-290.7936096191406,0.25060001015663147,0,0.0,0.0,,,,,0,,3,0.0,
Raw,1250525,937070000000,,,-1330742678359872801,0.5902061462402344,41.945539123844355,1.2479637823782344,10.051207159316503,1,23,0.0,207,21597362534354,46,20.3,115.92115783691406,1.1195000410079956,0,0.0,0.0,,,,,0,,3,0.0,
Raw,1250526,937070000000,,,-1330742678359872801,0.5902061462402344,41.945539123844355,1.2479637823782344,10.051207159316503,1,7,0.0,207,21597355073686,27,24.5,226.64529418945312,0.8889999389648438,0,0.0,0.0,,,,,0,,3,0.0,
Raw,1250526,937070000000,,,-1330742678359872801,0.5902061462402344,41.945539123844355,1.2479637823782344,10.051207159316503,1,8,0.0,207,21597358229409,11,33.5,-388.3824157714844,0.24990001320838928,0,0.0,0.0,,,,,0,,3,0.0,
Raw,1250526,937070000000,,,-1330742678359872801,0.5902061462402344,41.945539123844355,1.2479637823782344,10.051207159316503,1,2,0.0,15,183615351026409,491,19.5,460.32037353515625,1.8830000162124634,0,0.0,0.0,,,,,0,,1,0.0,
Raw,1250526,937070000000,,,-1330742678359872801,0.5902061462402344,41.945539123844355,1.2479637823782344,10.051207159316503,1,5,0.0,15,183615360848437,10,34.9,-25.467437744140625,0.022099999710917473,0,0.0,0.0,,,,,0,,1,0.0,
Raw,1250526,937070000000,,,-1330742678359872801,0.5902061462402344,41.945539123844355,1.2479637823782344,10.051207159316503,1,12,0.0,15,183615354394379,11,33.1,655.4066772460938,0.04390000179409981,0,0.0,0.0,,,,,0,,1,0.0,
Raw,1250527,937070000000,,,-1330742678359872801,0.5902061462402344,41.945539123844355,1.2479637823782344,10.051207159316503,1,18,0.0,15,183615355161928,10,34.8,-439.3717346191406,0.044600002467632294,0,0.0,0.0,,,,,0,,1,0.0,
Raw,1250527,937070000000,,,-1330742678359872801,0.5902061462402344,41.945539123844355,1.2479637823782344,10.051207159316503,1,20,0.0,15,183615357631300,40,21.9,338.40875244140625,0.7519999742507935,0,0.0,0.0,,,,,0,,1,0.0,
Raw,1250527,937070000000,,,-1330742678359872801,0.5902061462402344,41.945539123844355,1.2479637823782344,10.051207159316503,1,25,0.0,15,183615360863883,6,39.6,320.6014404296875,0.019600000232458115,0,0.0,0.0,,,,,0,,1,0.0,
Raw,1250528,937070000000,,,-1330742678359872801,0.5902061462402344,41.945539123844355,1.2479637823782344,10.051207159316503,1,26,0.0,15,183615348024190,16,29.1,-590.7727661132812,0.038700003176927567,0,0.0,0.0,,,,,0,,1,0.0,
Raw,1250529,937070000000,,,-1330742678359872801,0.5902061462402344,41.945539123844355,1.2479637823782344,10.051207159316503,1,29,0.0,15,183615360145213,13,31.5,-231.47705078125,0.025200000032782555,0,0.0,0.0,,,,,0,,1,0.0,
Raw,1250529,937070000000,,,-1330742678359872801,0.5902061462402344,41.945539123844355,1.2479637823782344,10.051207159316503,1,31,0.0,15,183615347799697,8,36.6,242.44593811035156,0.031700000166893005,0,0.0,0.0,,,,,0,,1,0.0,
NMEA,$GPGSV,3,1,12,02,28,053,20,05,60,097,35,11,00,000,27,12,33,163,33,1*60
,1646708398000
NMEA,$GPGSV,3,2,12,18,33,253,35,20,43,056,22,25,62,209,40,26,09,319,29,1*6A
,1646708398001
NMEA,$GPGSV,3,3,12,29,61,333,32,31,12,282,37,15,02,151,,23,01,201,,1*64
,1646708398001
NMEA,$GLGSV,3,1,10,78,37,300,34,86,11,064,12,77,39,223,25,76,05,184,21,1*7F
,1646708398001
NMEA,$GLGSV,3,2,10,79,02,338,18,65,15,149,29,88,37,298,35,87,52,005,20,1*7B
,1646708398001
NMEA,$GLGSV,3,3,10,71,22,045,25,72,33,099,34,1*7B
,1646708398002
NMEA,$GAGSV,1,1,0,7*43
,1646708398002
NMEA,$PQGSV,1,1,0,0*43
,1646708398002
NMEA,$GBGSV,1,1,0,0*47
,1646708398002
Fix,gps,37.427506,-122.170310,-5.331238,0.000000,3.216000,1646708398000
NMEA,$GNGSA,A,3,02,05,12,18,20,25,26,29,31,,,,1.0,0.6,0.7,1*34
,1646708398018
NMEA,$GNGSA,A,3,65,71,72,76,78,87,88,,,,,,1.0,0.6,0.7,2*33
,1646708398019
NMEA,$GNVTG,,T,,M,0.0,N,0.0,K,A*3D
,1646708398019
NMEA,$GNGGA,025958.00,3725.650363,N,12210.218629,W,1,12,0.6,22.6,M,-27.9,M,,*71
,1646708398019
NMEA,$GNRMC,025958.00,A,3725.650363,N,12210.218629,W,0.0,,080322,15.0,E,A,V*51
,1646708398019
NMEA,$AIDSTAT,0,0,0,2,2,23,3*00
,1646708398925
Raw,1251527,938070000000,,,-1330742678359872799,0.6167640686035156,40.09230178780854,1.33408283108168,9.852444725347281,1,14,0.0,207,21598359694996,19,27.9,-164.8361053466797,0.23980000615119934,0,0.0,0.0,,,,,0,,3,0.0,
Raw,1251528,938070000000,,,-1330742678359872799,0.6167640686035156,40.09230178780854,1.33408283108168,9.852444725347281,1,22,0.0,207,21598351450638,126,13.7,495.09490966796875,2.563000202178955,0,0.0,0.0,,,,,0,,3,0.0,
Raw,1251528,938070000000,,,-1330742678359872799,0.6167640686035156,40.09230178780854,1.33408283108168,9.852444725347281,1,13,0.0,207,21598359690788,70,17.0,599.669189453125,1.3650000095367432,0,0.0,0.0,,,,,0,,3,0.0,
