# 
# Header Description:
# 
# Version: v2.0.0.1 Platform: 9 Manufacturer: samsung Model: SM-G960U
# 
# Raw,ElapsedRealtimeMillis,TimeNanos,LeapSecond,TimeUncertaintyNanos,FullBiasNanos,BiasNanos,BiasUncertaintyNanos,DriftNanosPerSecond,DriftUncertaintyNanosPerSecond,HardwareClockDiscontinuityCount,Svid,TimeOffsetNanos,State,ReceivedSvTimeNanos,ReceivedSvTimeUncertaintyNanos,Cn0DbHz,PseudorangeRateMetersPerSecond,PseudorangeRateUncertaintyMetersPerSecond,AccumulatedDeltaRangeState,AccumulatedDeltaRangeMeters,AccumulatedDeltaRangeUncertaintyMeters,CarrierFrequencyHz,CarrierCycles,CarrierPhase,CarrierPhaseUncertainty,MultipathIndicator,SnrInDb,ConstellationType,AgcDb,CarrierFrequencyHz
# 
# Fix,Provider,Latitude,Longitude,Altitude,Speed,Accuracy,(UTC)TimeInMs
# 
# Nav,Svid,Type,Status,MessageId,Sub-messageId,Data(Bytes)
# 
Raw,2261508,1948070000000,,,-1330742678359878119,0.7383050918579102,22.89986514369957,3.7009351593189583,10.323756353417034,5,14,0.0,207,22608359974022,8,36.9,3.7645843029022217,0.21970000863075256,0,0.0,0.0,,,,,0,,3,0.0,
Raw,2261508,1948070000000,,,-1330742678359878119,0.7383050918579102,22.89986514369957,3.7009351593189583,10.323756353417034,5,22,0.0,207,22608349798674,80,17.2,491.6198425292969,2.880000114440918,0,0.0,0.0,,,,,0,,3,0.0,
Raw,2261508,1948070000000,,,-1330742678359878119,0.7383050918579102,22.89986514369957,3.7009351593189583,10.323756353417034,5,13,0.0,207,22608357520265,27,24.7,689.4922485351562,0.8919999599456787,0,0.0,0.0,,,,,0,,3,0.0,
Raw,2261508,1948070000000,,,-1330742678359878119,0.7383050918579102,22.89986514369957,3.7009351593189583,10.323756353417034,5,15,0.0,207,22608350916312,81,16.1,-587.2058715820312,1.471500039100647,0,0.0,0.0,,,,,0,,3,0.0,
Raw,2261508,1948070000000,,,-1330742678359878119,0.7383050918579102,22.89986514369957,3.7009351593189583,10.323756353417034,5,1,0.0,207,22608355696153,13,31.3,-730.3170776367188,0.24770000576972961,0,0.0,0.0,,,,,0,,3,0.0,
Raw,2261509,1948070000000,,,-1330742678359878119,0.7383050918579102,22.89986514369957,3.7009351593189583,10.323756353417034,5,24,0.0,207,22608360601212,8,36.3,-253.8421630859375,0.22120000422000885,0,0.0,0.0,,,,,0,,3,0.0,
Raw,2261509,1948070000000,,,-1330742678359878119,0.7383050918579102,22.89986514369957,3.7009351593189583,10.323756353417034,5,23,0.0,207,22608362088348,13,31.3,153.04598999023438,0.2282000035047531,0,0.0,0.0,,,,,0,,3,0.0,
Raw,2261509,1948070000000,,,-1330742678359878119,0.7383050918579102,22.89986514369957,3.7009351593189583,10.323756353417034,5,17,0.0,207,22606756824062,7937,10.1,-486.656982421875,51.360504150390625,0,0.0,0.0,,,,,0,,3,0.0,
Raw,2261509,1948070000000,,,-1330742678359878119,0.7383050918579102,22.89986514369957,3.7009351593189583,10.323756353417034,5,7,0.0,207,22608354062138,16,29.3,375.3704833984375,0.24770000576972961,0,0.0,0.0,,,,,0,,3,0.0,
Raw,2261509,1948070000000,,,-1330742678359878119,0.7383050918579102,22.89986514369957,3.7009351593189583,10.323756353417034,5,8,0.0,207,22608359311683,9,35.7,-245.51966857910156,0.2501000165939331,0,0.0,0.0,,,,,0,,3,0.0,
Raw,2261509,1948070000000,,,-1330742678359878119,0.7383050918579102,22.89986514369957,3.7009351593189583,10.323756353417034,5,2,0.0,15,184626349477445,7,37.4,460.74005126953125,0.0340999998152256,0,0.0,0.0,,,,,0,,1,0.0,
Raw,2261509,1948070000000,,,-1330742678359878119,0.7383050918579102,22.89986514369957,3.7009351593189583,10.323756353417034,5,5,0.0,15,184626360715049,6,38.8,108.3349380493164,0.020100001245737076,0,0.0,0.0,,,,,0,,1,0.0,
Raw,2261509,1948070000000,,,-1330742678359878119,0.7383050918579102,22.89986514369957,3.7009351593189583,10.323756353417034,5,12,0.0,15,184626352109778,8,36.8,700.8628540039062,0.03920000046491623,0,0.0,0.0,,,,,0,,1,0.0,
Raw,2261509,1948070000000,,,-1330742678359878119,0.7383050918579102,22.89986514369957,3.7009351593189583,10.323756353417034,5,15,0.0,15,184626346758732,28,26.2,-586.0664672851562,2.005500078201294,0,0.0,0.0,,,,,0,,1,0.0,
Raw,2261509,1948070000000,,,-1330742678359878119,0.7383050918579102,22.89986514369957,3.7009351593189583,10.323756353417034,5,18,0.0,15,184626356559164,6,38.6,-384.7315673828125,0.04410000145435333,0,0.0,0.0,,,,,0,,1,0.0,
Raw,2261509,1948070000000,,,-1330742678359878119,0.7383050918579102,22.89986514369957,3.7009351593189583,10.323756353417034,5,20,0.0,15,184626356336086,8,36.6,431.3338317871094,0.04520000144839287,0,0.0,0.0,,,,,0,,1,0.0,
Raw,2261509,1948070000000,,,-1330742678359878119,0.7383050918579102,22.89986514369957,3.7009351593189583,10.323756353417034,5,23,0.0,15,184626347003783,368,21.0,-719.6145629882812,1.2920000553131104,0,0.0,0.0,,,,,0,,1,0.0,
Raw,2261509,1948070000000,,,-1330742678359878119,0.7383050918579102,22.89986514369957,3.7009351593189583,10.323756353417034,5,25,0.0,15,184626359605676,8,36.2,427.5958251953125,0.019700000062584877,0,0.0,0.0,,,,,0,,1,0.0,
Raw,2261509,1948070000000,,,-1330742678359878119,0.7383050918579102,22.89986514369957,3.7009351593189583,10.323756353417034,5,26,0.0,15,184626349924664,24,25.4,-529.1298217773438,0.3953000009059906,0,0.0,0.0,,,,,0,,1,0.0,
Raw,2261509,1948070000000,,,-1330742678359878119,0.7383050918579102,22.89986514369957,3.7009351593189583,10.323756353417034,5,29,0.0,15,184626360844053,12,32.0,-177.2786102294922,0.023900000378489494,0,0.0,0.0,,,,,0,,1,0.0,
Raw,2261510,1948070000000,,,-1330742678359878119,0.7383050918579102,22.89986514369957,3.7009351593189583,10.323756353417034,5,31,0.0,15,184626346854118,11,33.5,319.63818359375,0.03189999982714653,0,0.0,0.0,,,,,0,,1,0.0,
Fix,gps,37.427556,-122.170282,-3.441833,0.000000,3.216000,1646709409000
NMEA,$GPGSV,3,1,12,02,23,057,37,05,59,080,39,12,26,164,37,15,07,146,26,1*6F
,1646709408996
NMEA,$GPGSV,3,2,12,18,39,260,39,20,37,050,37,23,08,201,21,25,55,201,36,1*64
,1646709408996
NMEA,$GPGSV,3,3,12,26,15,316,25,29,66,345,32,31,10,275,34,13,02,115,,1*6D
,1646709408996
NMEA,$GLGSV,3,1,10,78,39,288,37,86,07,071,17,77,30,216,25,79,08,334,16,1*75
,1646709408996
NMEA,$GLGSV,3,2,10,65,23,144,31,88,42,307,36,87,49,019,31,81,02,275,10,1*7C
,1646709408996
NMEA,$GLGSV,3,3,10,71,18,036,29,72,37,088,36,1*7C
,1646709408996
NMEA,$GAGSV,1,1,0,7*43
,1646709408996
NMEA,$PQGSV,1,1,0,0*43
,1646709408996
NMEA,$GBGSV,1,1,0,0*47
,1646709408996
NMEA,$GNGSA,A,3,02,05,12,18,20,25,26,29,31,,,,1.0,0.6,0.7,1*34
,1646709408998
NMEA,$GNGSA,A,3,65,71,72,77,78,79,87,88,,,,,1.0,0.6,0.7,2*3C
,1646709408999
NMEA,$GNVTG,,T,,M,0.0,N,0.0,K,A*3D
,1646709408999
NMEA,$GNGGA,031649.00,3725.653343,N,12210.216908,W,1,12,0.6,24.5,M,-27.9,M,,*7D
,1646709408999
NMEA,$GNRMC,031649.00,A,3725.653343,N,12210.216908,W,0.0,,080322,15.0,E,A,V*58
,1646709408999
NMEA,$AIDSTAT,0,0,0,2,1,23,3*00
,1646709409928
Raw,2262515,1949070000000,,,-1330742678359878119,0.8277120590209961,24.953731553978287,2.463906658932679,9.559355071015975,5,14,0.0,207,22609359973993,7,37.4,3.847078561782837,0.2190999984741211,0,0.0,0.0,,,,,0,,3,0.0,
Raw,2262516,1949070000000,,,-1330742678359878119,0.8277120590209961,24.953731553978287,2.463906658932679,9.559355071015975,5,22,0.0,207,22609349797034,99,17.2,491.6198425292969,4.380000114440918,0,0.0,0.0,,,,,0,,3,0.0,
Raw,2262516,1949070000000,,,-1330742678359878119,0.8277120590209961,24.953731553978287,2.463906658932679,9.559355071015975,5,13,0.0,207,22609357517995,27,24.7,689.3143310546875,0.8919999599456787,0,0.0,0.0,,,,,0,,3,0.0,
Raw,2262516,1949070000000,,,-1330742678359878119,0.8277120590209961,24.953731553978287,2.463906658932679,9.559355071015975,5,15,0.0,207,22609350918067,27,24.4,-587.2713623046875,0.8814999461174011,0,0.0,0.0,,,,,0,,3,0.0,
Raw,2262516,1949070000000,,,-1330742678359878119,0.8277120590209961,24.953731553978287,2.463906658932679,9.559355071015975,5,1,0.0,207,22609355698569,12,32.7,-730.34375,0.24640001356601715,0,0.0,0.0,,,,,0,,3,0.0,
Raw,2262516,1949070000000,,,-1330742678359878119,0.8277120590209961,24.953731553978287,2.463906658932679,9.559355071015975,5,24,0.0,207,22609360602078,7,37.2,-253.89306640625,0.22059999406337738,0,0.0,0.0,,,,,0,,3,0.0,
Raw,2262516,1949070000000,,,-1330742678359878119,0.8277120590209961,24.953731553978287,2.463906658932679,9.559355071015975,5,23,0.0,207,22609362087883,13,31.4,153.01705932617188,0.2282000035047531,0,0.0,0.0,,,,,0,,3,0.0,
Raw,2262516,1949070000000,,,-1330742678359878119,0.8277120590209961,24.953731553978287,2.463906658932679,9.559355071015975,5,17,0.0,207,22606756824062,7937,10.1,-486.656982421875,51.360504150390625,0,0.0,0.0,,,,,0,,3,0.0,
Raw,2262517,1949070000000,,,-1330742678359878119,0.8277120590209961,24.953731553978287,2.463906658932679,9.559355071015975,5,7,0.0,207,22609354060838,17,28.3,375.34014892578125,0.25429999828338623,0,0.0,0.0,,,,,0,,3,0.0,
Raw,2262517,1949070000000,,,-1330742678359878119,0.8277120590209961,24.953731553978287,2.463906658932679,9.559355071015975,5,8,0.0,207,22609359312507,8,36.9,-245.48129272460938,0.24970000982284546,0,0.0,0.0,,,,,0,,3,0.0,
Raw,2262517,1949070000000,,,-1330742678359878119,0.8277120590209961,24.953731553978287,2.463906658932679,9.559355071015975,5,2,0.0,15,184627349475929,9,35.2,460.6029968261719,0.035100001841783524,0,0.0,0.0,,,,,0,,1,0.0,
Raw,2262517,1949070000000,,,-1330742678359878119,0.8277120590209961,24.953731553978287,2.463906658932679,9.559355071015975,5,5,0.0,15,184627360714689,6,39.1,108.37089538574219,0.019600000232458115,0,0.0,0.0,,,,,0,,1,0.0,
Raw,2262517,1949070000000,,,-1330742678359878119,0.8277120590209961,24.953731553978287,2.463906658932679,9.559355071015975,5,12,0.0,15,184627352107418,9,35.5,700.865966796875,0.03960000351071358,0,0.0,0.0,,,,,0,,1,0.0,
Raw,2262517,1949070000000,,,-1330742678359878119,0.8277120590209961,24.953731553978287,2.463906658932679,9.559355071015975,5,15,0.0,15,184627346760621,84,16.7,-586.0855102539062,1.8355000019073486,0,0.0,0.0,,,,,0,,1,0.0,
Raw,2262517,1949070000000,,,-1330742678359878119,0.8277120590209961,24.953731553978287,2.463906658932679,9.559355071015975,5,18,0.0,15,184627356560435,6,38.9,-384.6987609863281,0.04410000145435333,0,0.0,0.0,,,,,0,,1,0.0,
Raw,2262517,1949070000000,,,-1330742678359878119,0.8277120590209961,24.953731553978287,2.463906658932679,9.559355071015975,5,20,0.0,15,184627356334711,10,34.7,431.33868408203125,0.04610000178217888,0,0.0,0.0,,,,,0,,1,0.0,
Raw,2262517,1949070000000,,,-1330742678359878119,0.8277120590209961,24.953731553978287,2.463906658932679,9.559355071015975,5,23,0.0,15,184627347006181,372,21.6,-719.1197509765625,2.0420000553131104,0,0.0,0.0,,,,,0,,1,0.0,
Raw,2262517,1949070000000,,,-1330742678359878119,0.8277120590209961,24.953731553978287,2.463906658932679,9.559355071015975,5,25,0.0,15,184627359604246,6,39.6,427.64056396484375,0.01810000091791153,0,0.0,0.0,,,,,0,,1,0.0,
Raw,2262519,1949070000000,,,-1330742678359878119,0.8277120590209961,24.953731553978287,2.463906658932679,9.559355071015975,5,26,0.0,15,184627349926357,13,31.2,-529.08447265625,0.038700003176927567,0,0.0,0.0,,,,,0,,1,0.0,
Raw,2262519,1949070000000,,,-1330742678359878119,0.8277120590209961,24.953731553978287,2.463906658932679,9.559355071015975,5,29,0.0,15,184627360844656,8,36.4,-177.2920684814453,0.02120000123977661,0,0.0,0.0,,,,,0,,1,0.0,
Raw,2262519,1949070000000,,,-1330742678359878119,0.8277120590209961,24.953731553978287,2.463906658932679,9.559355071015975,5,31,0.0,15,184627346853090,9,35.0,319.6945495605469,0.03060000203549862,0,0.0,0.0,,,,,0,,1,0.0,
Fix,gps,37.427552,-122.170281,-3.651764,0.000000,3.216000,1646709410000
NMEA,$GPGSV,3,1,12,02,23,057,35,05,59,080,39,12,26,164,36,15,07,146,17,1*6E
,1646709410001
NMEA,$GPGSV,3,2,12,18,39,260,39,20,37,050,35,23,08,201,22,25,55,201,40,1*64
,1646709410003
NMEA,$GPGSV,3,3,12,26,15,316,31,29,66,345,36,31,10,275,35,13,02,115,,1*6D
,1646709410003
NMEA,$GLGSV,3,1,10,78,39,288,37,86,07,071,17,77,30,216,25,79,08,334,24,1*74
,1646709410004
NMEA,$GLGSV,3,2,10,65,23,144,33,88,42,307,37,87,49,019,31,81,02,275,10,1*7F
,1646709410004
NMEA,$GLGSV,3,3,10,71,18,036,28,72,37,088,37,1*7C
,1646709410004
NMEA,$GAGSV,1,1,0,7*43
,1646709410004
NMEA,$PQGSV,1,1,0,0*43
,1646709410004
NMEA,$GBGSV,1,1,0,0*47
,1646709410004
NMEA,$GNGSA,A,3,02,05,12,18,20,25,26,29,31,,,,1.0,0.6,0.7,1*34
,1646709410009
NMEA,$GNGSA,A,3,65,71,72,77,78,79,87,88,,,,,1.0,0.6,0.7,2*3C
,1646709410009
NMEA,$GNVTG,,T,,M,0.0,N,0.0,K,A*3D
,1646709410009
NMEA,$GNGGA,031650.00,3725.653100,N,12210.216846,W,1,12,0.6,24.3,M,-27.9,M,,*7D
,1646709410009
NMEA,$GNRMC,031650.00,A,3725.653100,N,12210.216846,W,0.0,,080322,15.0,E,A,V*5E
,1646709410009
NMEA,$AIDSTAT,0,0,0,2,-5,23,3*00
,1646709410926
Raw,2263513,1950070000000,,,-1330742678359878118,0.6472759246826172,24.3676477111876,2.2912544201031,9.532320364299043,5,14,0.0,207,22610359974104,11,33.6,3.6386148929595947,0.22140000760555267,0,0.0,0.0,,,,,0,,3,0.0,
Raw,2263513,1950070000000,,,-1330742678359878118,0.6472759246826172,24.3676477111876,2.2912544201031,9.532320364299043,5,22,0.0,207,22610349795338,64,18.3,490.3459777832031,2.0399999618530273,0,0.0,0.0,,,,,0,,3,0.0,
Raw,2263513,1950070000000,,,-1330742678359878118,0.6472759246826172,24.3676477111876,2.2912544201031,9.532320364299043,5,13,0.0,207,22610357515725,40,21.2,688.7431640625,1.0720000267028809,0,0.0,0.0,,,,,0,,3,0.0,
Raw,2263513,1950070000000,,,-1330742678359878118,0.6472759246826172,24.3676477111876,2.2912544201031,9.532320364299043,5,15,0.0,207,22610350920194,53,19.9,-587.9263305664062,1.2115000486373901,0,0.0,0.0,,,,,0,,3,0.0,
Raw,2263514,1950070000000,,,-1330742678359878118,0.6472759246826172,24.3676477111876,2.2912544201031,9.532320364299043,5,1,0.0,207,22610355701049,13,31.1,-730.5349731445312,0.24770000576972961,0,0.0,0.0,,,,,0,,3,0.0,
Raw,2263514,1950070000000,,,-1330742678359878118,0.6472759246826172,24.3676477111876,2.2912544201031,9.532320364299043,5,24,0.0,207,22610360602909,11,33.8,-254.1968994140625,0.22290000319480896,0,0.0,0.0,,,,,0,,3,0.0,
Raw,2263514,1950070000000,,,-1330742678359878118,0.6472759246826172,24.3676477111876,2.2912544201031,9.532320364299043,5,23,0.0,207,22610362087433,14,30.1,152.80264282226562,0.2287999987602234,0,0.0,0.0,,,,,0,,3,0.0,
Raw,2263514,1950070000000,,,-1330742678359878118,0.6472759246826172,24.3676477111876,2.2912544201031,9.532320364299043,5,17,0.0,207,22606756824062,7937,10.1,-486.656982421875,51.360504150390625,0,0.0,0.0,,,,,0,,3,0.0,
Raw,2263514,1950070000000,,,-1330742678359878118,0.6472759246826172,24.3676477111876,2.2912544201031,9.532320364299043,5,7,0.0,207,22610354059680,19,27.3,375.3024597167969,0.2623000144958496,0,0.0,0.0,,,,,0,,3,0.0,
Raw,2263514,1950070000000,,,-1330742678359878118,0.6472759246826172,24.3676477111876,2.2912544201031,9.532320364299043,5,8,0.0,207,22610359313304,7,37.9,-245.54579162597656,0.249099999666214,0,0.0,0.0,,,,,0,,3,0.0,
Raw,2263514,1950070000000,,,-1330742678359878118,0.6472759246826172,24.3676477111876,2.2912544201031,9.532320364299043,5,2,0.0,15,184628349474409,11,33.7,460.3630676269531,0.036400001496076584,0,0.0,0.0,,,,,0,,1,0.0,
Raw,2263515,1950070000000,,,-1330742678359878118,0.6472759246826172,24.3676477111876,2.2912544201031,9.532320364299043,5,5,0.0,15,184628360714326,7,37.5,108.24966430664062,0.020600000396370888,0,0.0,0.0,,,,,0,,1,0.0,
Raw,2263515,1950070000000,,,-1330742678359878118,0.6472759246826172,24.3676477111876,2.2912544201031,9.532320364299043,5,12,0.0,15,184628352105150,16,29.0,700.6998291015625,0.04470000043511391,0,0.0,0.0,,,,,0,,1,0.0,
Raw,2263515,1950070000000,,,-1330742678359878118,0.6472759246826172,24.3676477111876,2.2912544201031,9.532320364299043,5,15,0.0,15,184628346762747,70,17.8,-586.0188598632812,1.005500078201294,0,0.0,0.0,,,,,0,,1,0.0,
Raw,2263515,1950070000000,,,-1330742678359878118,0.6472759246826172,24.3676477111876,2.2912544201031,9.532320364299043,5,18,0.0,15,184628356561677,9,35.3,-385.00830078125,0.04560000076889992,0,0.0,0.0,,,,,0,,1,0.0,
Raw,2263515,1950070000000,,,-1330742678359878118,0.6472759246826172,24.3676477111876,2.2912544201031,9.532320364299043,5,20,0.0,15,184628356333272,9,35.4,431.1818542480469,0.04560000076889992,0,0.0,0.0,,,,,0,,1,0.0,
Raw,2263515,1950070000000,,,-1330742678359878118,0.6472759246826172,24.3676477111876,2.2912544201031,9.532320364299043,5,25,0.0,15,184628359602805,6,39.9,427.4466552734375,0.01810000091791153,0,0.0,0.0,,,,,0,,1,0.0,
Raw,2263515,1950070000000,,,-1330742678359878118,0.6472759246826172,24.3676477111876,2.2912544201031,9.532320364299043,5,26,0.0,15,184628349928120,14,30.5,-529.350830078125,0.03930000215768814,0,0.0,0.0,,,,,0,,1,0.0,
Raw,2263516,1950070000000,,,-1330742678359878118,0.6472759246826172,24.3676477111876,2.2912544201031,9.532320364299043,5,29,0.0,15,184628360845286,9,35.1,-177.54762268066406,0.02160000056028366,0,0.0,0.0,,,,,0,,1,0.0,
Raw,2263516,1950070000000,,,-1330742678359878118,0.6472759246826172,24.3676477111876,2.2912544201031,9.532320364299043,5,31,0.0,15,184628346852006,10,34.8,319.38336181640625,0.03110000118613243,0,0.0,0.0,,,,,0,,1,0.0,
Fix,gps,37.427550,-122.170280,-3.761658,0.000000,3.216000,1646709411000
NMEA,$GPGSV,3,1,12,02,23,057,34,05,59,080,38,12,26,164,29,15,07,146,18,1*6F
,1646709411006
NMEA,$GPGSV,3,2,12,18,39,260,35,20,37,050,35,25,55,201,40,26,15,316,31,1*64
,1646709411006
NMEA,$GPGSV,3,3,12,29,66,345,35,31,10,275,35,13,02,115,,23,08,201,,1*62
,1646709411006
NMEA,$GLGSV,3,1,10,78,39,288,34,86,07,071,18,77,30,216,21,79,08,334,20,1*78
,1646709411007
NMEA,$GLGSV,3,2,10,65,23,144,31,88,42,307,34,87,49,019,30,81,02,275,10,1*7F
,1646709411007
NMEA,$GLGSV,3,3,10,71,18,036,27,72,37,088,38,1*7C
,1646709411007
NMEA,$GAGSV,1,1,0,7*43
,1646709411007
NMEA,$PQGSV,1,1,0,0*43
,1646709411007
NMEA,$GBGSV,1,1,0,0*47
,1646709411008
NMEA,$GNGSA,A,3,02,05,12,18,20,25,26,29,31,,,,1.0,0.6,0.7,1*34
,1646709411015
NMEA,$GNGSA,A,3,65,71,72,77,78,79,87,88,,,,,1.0,0.6,0.7,2*3C
,1646709411016
NMEA,$GNVTG,,T,,M,0.0,N,0.0,K,A*3D
,1646709411016
NMEA,$GNGGA,031651.00,3725.653007,N,12210.216799,W,1,12,0.6,24.2,M,-27.9,M,,*76
,1646709411017
NMEA,$GNRMC,031651.00,A,3725.653007,N,12210.216799,W,0.0,,080322,15.0,E,A,V*54
,1646709411017
NMEA,$AIDSTAT,0,0,0,2,1,23,3*00
,1646709411927
Raw,2264535,1951070000000,,,-1330742678359878129,0.471405029296875,29.14575452450663,1.2436320977041608,9.64677370464952,5,14,0.0,207,22611359974051,9,35.5,3.4217867851257324,0.22010000050067902,0,0.0,0.0,,,,,0,,3,0.0,
Raw,2264535,1951070000000,,,-1330742678359878129,0.471405029296875,29.14575452450663,1.2436320977041608,9.64677370464952,5,22,0.0,207,22611349793815,46,20.9,490.2897644042969,1.1299999952316284,0,0.0,0.0,,,,,0,,3,0.0,
Raw,2264535,1951070000000,,,-1330742678359878129,0.471405029296875,29.14575452450663,1.2436320977041608,9.64677370464952,5,13,0.0,207,22611357513385,35,22.2,689.1364135742188,1.0119999647140503,0,0.0,0.0,,,,,0,,3,0.0,
Raw,2264535,1951070000000,,,-1330742678359878129,0.471405029296875,29.14575452450663,1.2436320977041608,9.64677370464952,5,15,0.0,207,22611350922556,81,16.8,-587.9263305664062,1.471500039100647,0,0.0,0.0,,,,,0,,3,0.0,
Raw,2264535,1951070000000,,,-1330742678359878129,0.471405029296875,29.14575452450663,1.2436320977041608,9.64677370464952,5,1,0.0,207,22611355703436,11,33.1,-730.8958740234375,0.24540001153945923,0,0.0,0.0,,,,,0,,3,0.0,
Raw,2264536,1951070000000,,,-1330742678359878129,0.471405029296875,29.14575452450663,1.2436320977041608,9.64677370464952,5,24,0.0,207,22611360603763,9,35.0,-254.53329467773438,0.2215999960899353,0,0.0,0.0,,,,,0,,3,0.0,
Raw,2264536,1951070000000,,,-1330742678359878129,0.471405029296875,29.14575452450663,1.2436320977041608,9.64677370464952,5,23,0.0,207,22611362086947,17,28.7,152.41488647460938,0.2363000065088272,0,0.0,0.0,,,,,0,,3,0.0,
Raw,2264536,1951070000000,,,-1330742678359878129,0.471405029296875,29.14575452450663,1.2436320977041608,9.64677370464952,5,17,0.0,207,22611348831194,1592,13.3,-487.3858337402344,6.773500442504883,0,0.0,0.0,,,,,0,,3,0.0,
Raw,2264536,1951070000000,,,-1330742678359878129,0.471405029296875,29.14575452450663,1.2436320977041608,9.64677370464952,5,7,0.0,207,22611354058455,19,27.7,374.96868896484375,0.2623000144958496,0,0.0,0.0,,,,,0,,3,0.0,
Raw,2264536,1951070000000,,,-1330742678359878129,0.471405029296875,29.14575452450663,1.2436320977041608,9.64677370464952,5,8,0.0,207,22611359314156,6,39.5,-245.8503875732422,0.24809999763965607,0,0.0,0.0,,,,,0,,3,0.0,
Raw,2264536,1951070000000,,,-1330742678359878129,0.471405029296875,29.14575452450663,1.2436320977041608,9.64677370464952,5,2,0.0,15,184629349472878,13,31.2,459.94903564453125,0.038700003176927567,0,0.0,0.0,,,,,0,,1,0.0,
Raw,2264536,1951070000000,,,-1330742678359878129,0.471405029296875,29.14575452450663,1.2436320977041608,9.64677370464952,5,5,0.0,15,184629360713981,7,37.8,107.93329620361328,0.020600000396370888,0,0.0,0.0,,,,,0,,1,0.0,
Raw,2264536,1951070000000,,,-1330742678359878129,0.471405029296875,29.14575452450663,1.2436320977041608,9.64677370464952,5,12,0.0,15,184629352102790,11,33.1,700.2062377929688,0.04090000316500664,0,0.0,0.0,,,,,0,,1,0.0,
Raw,2264536,1951070000000,,,-1330742678359878129,0.471405029296875,29.14575452450663,1.2436320977041608,9.64677370464952,5,15,0.0,15,184629346764665,35,22.7,-586.6944580078125,0.6754999756813049,0,0.0,0.0,,,,,0,,1,0.0,
Raw,2264536,1951070000000,,,-1330742678359878129,0.471405029296875,29.14575452450663,1.2436320977041608,9.64677370464952,5,18,0.0,15,184629356562985,8,36.9,-385.423828125,0.04520000144839287,0,0.0,0.0,,,,,0,,1,0.0,
Raw,2264536,1951070000000,,,-1330742678359878129,0.471405029296875,29.14575452450663,1.2436320977041608,9.64677370464952,5,20,0.0,15,184629356331797,9,35.8,430.81939697265625,0.04560000076889992,0,0.0,0.0,,,,,0,,1,0.0,
Raw,2264536,1951070000000,,,-1330742678359878129,0.471405029296875,29.14575452450663,1.2436320977041608,9.64677370464952,5,25,0.0,15,184629359601375,5,40.4,427.1414489746094,0.017900001257658005,0,0.0,0.0,,,,,0,,1,0.0,
Raw,2264536,1951070000000,,,-1330742678359878129,0.471405029296875,29.14575452450663,1.2436320977041608,9.64677370464952,5,26,0.0,15,184629349929892,17,28.6,-529.7786865234375,0.046800002455711365,0,0.0,0.0,,,,,0,,1,0.0,
Raw,2264536,1951070000000,,,-1330742678359878129,0.471405029296875,29.14575452450663,1.2436320977041608,9.64677370464952,5,29,0.0,15,184629360845872,9,35.5,-177.90652465820312,0.02160000056028366,0,0.0,0.0,,,,,0,,1,0.0,
Raw,2264536,1951070000000,,,-1330742678359878129,0.471405029296875,29.14575452450663,1.2436320977041608,9.64677370464952,5,31,0.0,15,184629346850956,8,36.2,319.0906066894531,0.03020000085234642,0,0.0,0.0,,,,,0,,1,0.0,
Fix,gps,37.427549,-122.170280,-4.071381,0.000000,3.216000,1646709412000
NMEA,$GPGSV,3,1,12,02,23,057,31,05,59,080,38,12,26,164,33,15,07,146,23,1*69
,1646709412000
NMEA,$GPGSV,3,2,12,18,39,260,37,20,37,050,36,25,55,201,40,26,15,316,29,1*6C
,1646709412004
NMEA,$GPGSV,3,3,12,29,66,345,36,31,10,275,36,13,02,115,,23,08,201,,1*62
,1646709412004
NMEA,$GLGSV,3,1,10,78,39,288,36,86,07,071,21,77,30,216,22,79,08,334,17,1*77
,1646709412004
NMEA,$GLGSV,3,2,10,65,23,144,33,88,42,307,35,87,49,019,29,81,02,275,13,1*77
,1646709412005
NMEA,$GLGSV,3,3,10,71,18,036,28,72,37,088,40,1*7C
,1646709412005
NMEA,$GAGSV,1,1,0,7*43
,1646709412006
NMEA,$PQGSV,1,1,0,0*43
,1646709412006
NMEA,$GBGSV,1,1,0,0*47
,1646709412006
NMEA,$GNGSA,A,3,02,05,12,18,20,25,26,29,31,,,,0.9,0.6,0.7,1*3C
,1646709412010
NMEA,$GNGSA,A,3,65,71,72,77,78,79,86,87,88,,,,0.9,0.6,0.7,2*3A
,1646709412012
NMEA,$GNVTG,,T,,M,0.0,N,0.0,K,A*3D
,1646709412013
NMEA,$GNGGA,031652.00,3725.652954,N,12210.216816,W,1,12,0.6,23.9,M,-27.9,M,,*7F
,1646709412013
NMEA,$GNRMC,031652.00,A,3725.652954,N,12210.216816,W,0.0,,080322,15.0,E,A,V*51
,1646709412016
NMEA,$AIDSTAT,0,0,0,2,,23,3*00
,1646709412926
Raw,2265545,1952070000000,,,-1330742678359878131,0.5268034934997559,29.063026886433363,-0.03762901293360749,9.558531957482645,5,14,0.0,207,22612359974028,8,36.3,4.223108291625977,0.21970000863075256,0,0.0,0.0,,,,,0,,3,0.0,
Raw,2265545,1952070000000,,,-1330742678359878131,0.5268034934997559,29.063026886433363,-0.03762901293360749,9.558531957482645,5,22,0.0,207,22612349792039,35,22.2,491.5917663574219,1.0,0,0.0,0.0,,,,,0,,3,0.0,
Raw,2265545,1952070000000,,,-1330742678359878131,0.5268034934997559,29.063026886433363,-0.03762901293360749,9.558531957482645,5,13,0.0,207,22612357511044,31,23.9,688.9490966796875,0.9519999623298645,0,0.0,0.0,,,,,0,,3,0.0,
Raw,2265545,1952070000000,,,-1330742678359878131,0.5268034934997559,29.063026886433363,-0.03762901293360749,9.558531957482645,5,15,0.0,207,22612350924203,46,20.4,-587.05615234375,1.131500005722046,0,0.0,0.0,,,,,0,,3,0.0,
Raw,2265545,1952070000000,,,-1330742678359878131,0.5268034934997559,29.063026886433363,-0.03762901293360749,9.558531957482645,5,1,0.0,207,22612355705879,11,33.2,-730.1651000976562,0.24540001153945923,0,0.0,0.0,,,,,0,,3,0.0,
Raw,2265546,1952070000000,,,-1330742678359878131,0.5268034934997559,29.063026886433363,-0.03762901293360749,9.558531957482645,5,24,0.0,207,22612360604608,9,35.6,-253.911376953125,0.2215999960899353,0,0.0,0.0,,,,,0,,3,0.0,
Raw,2265546,1952070000000,,,-1330742678359878131,0.5268034934997559,29.063026886433363,-0.03762901293360749,9.558531957482645,5,23,0.0,207,22612362086414,17,28.4,153.0033721923828,0.2363000065088272,0,0.0,0.0,,,,,0,,3,0.0,
Raw,2265546,1952070000000,,,-1330742678359878131,0.5268034934997559,29.063026886433363,-0.03762901293360749,9.558531957482645,5,17,0.0,207,22612348832689,1613,13.5,-487.2176208496094,7.523500442504883,0,0.0,0.0,,,,,0,,3,0.0,
Raw,2265547,1952070000000,,,-1330742678359878131,0.5268034934997559,29.063026886433363,-0.03762901293360749,9.558531957482645,5,7,0.0,207,22612354057257,17,28.3,375.75469970703125,0.25429999828338623,0,0.0,0.0,,,,,0,,3,0.0,
Raw,2265547,1952070000000,,,-1330742678359878131,0.5268034934997559,29.063026886433363,-0.03762901293360749,9.558531957482645,5,8,0.0,207,22612359314951,6,39.4,-245.04937744140625,0.24809999763965607,0,0.0,0.0,,,,,0,,3,0.0,
Raw,2265547,1952070000000,,,-1330742678359878131,0.5268034934997559,29.063026886433363,-0.03762901293360749,9.558531957482645,5,2,0.0,15,184630349471355,13,31.3,460.5796813964844,0.038700003176927567,0,0.0,0.0,,,,,0,,1,0.0,
Raw,2265547,1952070000000,,,-1330742678359878131,0.5268034934997559,29.063026886433363,-0.03762901293360749,9.558531957482645,5,5,0.0,15,184630360713610,7,37.9,108.72645568847656,0.020600000396370888,0,0.0,0.0,,,,,0,,1,0.0,
Raw,2265547,1952070000000,,,-1330742678359878131,0.5268034934997559,29.063026886433363,-0.03762901293360749,9.558531957482645,5,12,0.0,15,184630352100462,11,33.5,700.9275512695312,0.04090000316500664,0,0.0,0.0,,,,,0,,1,0.0,
Raw,2265547,1952070000000,,,-1330742678359878131,0.5268034934997559,29.063026886433363,-0.03762901293360749,9.558531957482645,5,15,0.0,15,184630346766632,31,23.3,-585.1625366210938,0.6255000233650208,0,0.0,0.0,,,,,0,,1,0.0,
Raw,2265547,1952070000000,,,-1330742678359878131,0.5268034934997559,29.063026886433363,-0.03762901293360749,9.558531957482645,5,18,0.0,15,184630356564262,7,37.2,-384.66644287109375,0.044600002467632294,0,0.0,0.0,,,,,0,,1,0.0,
Raw,2265547,1952070000000,,,-1330742678359878131,0.5268034934997559,29.063026886433363,-0.03762901293360749,9.558531957482645,5,20,0.0,15,184630356330362,8,36.2,431.5281982421875,0.04520000144839287,0,0.0,0.0,,,,,0,,1,0.0,
Raw,2265547,1952070000000,,,-1330742678359878131,0.5268034934997559,29.063026886433363,-0.03762901293360749,9.558531957482645,5,25,0.0,15,184630359599945,5,40.1,427.9000244140625,0.017900001257658005,0,0.0,0.0,,,,,0,,1,0.0,
Raw,2265547,1952070000000,,,-1330742678359878131,0.5268034934997559,29.063026886433363,-0.03762901293360749,9.558531957482645,5,26,0.0,15,184630349931625,16,29.1,-529.0015869140625,0.04020000249147415,0,0.0,0.0,,,,,0,,1,0.0,
Raw,2265548,1952070000000,,,-1330742678359878131,0.5268034934997559,29.063026886433363,-0.03762901293360749,9.558531957482645,5,29,0.0,15,184630360846466,9,35.3,-177.25390625,0.02160000056028366,0,0.0,0.0,,,,,0,,1,0.0,
Raw,2265548,1952070000000,,,-1330742678359878131,0.5268034934997559,29.063026886433363,-0.03762901293360749,9.558531957482645,5,31,0.0,15,184630346849889,8,36.6,319.7588806152344,0.03020000085234642,0,0.0,0.0,,,,,0,,1,0.0,
Fix,gps,37.427548,-122.170280,-4.449554,0.000000,3.216000,1646709413000
NMEA,$GPGSV,3,1,12,02,23,057,31,05,59,080,38,12,26,164,34,15,07,146,23,1*6E
,1646709413009
NMEA,$GPGSV,3,2,12,18,39,260,37,20,37,050,36,25,55,201,40,26,15,316,29,1*6C
,1646709413010
NMEA,$GPGSV,3,3,12,29,66,345,35,31,10,275,37,13,02,115,,23,08,201,,1*60
,1646709413010
NMEA,$GLGSV,3,1,10,78,39,288,36,86,07,071,22,77,30,216,24,79,08,334,20,1*76
,1646709413010
NMEA,$GLGSV,3,2,10,65,23,144,33,88,42,307,36,87,49,019,28,81,02,275,14,1*72
,1646709413010
NMEA,$GLGSV,3,3,10,71,18,036,28,72,37,088,39,1*72
,1646709413010
NMEA,$GAGSV,1,1,0,7*43
,1646709413010
NMEA,$PQGSV,1,1,0,0*43
,1646709413010
NMEA,$GBGSV,1,1,0,0*47
,1646709413010
NMEA,$GNGSA,A,3,02,05,12,18,20,25,26,29,31,,,,0.9,0.6,0.7,1*3C
,1646709413018
NMEA,$GNGSA,A,3,65,71,72,77,78,79,86,87,88,,,,0.9,0.6,0.7,2*3A
,1646709413018
NMEA,$GNVTG,,T,,M,0.0,N,0.0,K,A*3D
,1646709413019
NMEA,$GNGGA,031653.00,3725.652894,N,12210.216827,W,1,12,0.6,23.5,M,-27.9,M,,*7D
,1646709413019
NMEA,$GNRMC,031653.00,A,3725.652894,N,12210.216827,W,0.0,,080322,15.0,E,A,V*5F
,1646709413019
NMEA,$AIDSTAT,0,0,0,2,-2,23,3*00
,1646709413926
Raw,2266515,1953070000000,,,-1330742678359878130,0.1973557472229004,30.867297027725726,2.083360197586572,9.55827587771672,5,14,0.0,207,22613359974022,9,35.8,4.379820823669434,0.22010000050067902,0,0.0,0.0,,,,,0,,3,0.0,
Raw,2266515,1953070000000,,,-1330742678359878130,0.1973557472229004,30.867297027725726,2.083360197586572,9.55827587771672,5,22,0.0,207,22613349790415,40,21.2,491.544921875,1.059999942779541,0,0.0,0.0,,,,,0,,3,0.0,
Raw,2266515,1953070000000,,,-1330742678359878130,0.1973557472229004,30.867297027725726,2.083360197586572,9.55827587771672,5,13,0.0,207,22613357508757,31,23.4,689.8199462890625,0.9519999623298645,0,0.0,0.0,,,,,0,,3,0.0,
Raw,2266515,1953070000000,,,-1330742678359878130,0.1973557472229004,30.867297027725726,2.083360197586572,9.55827587771672,5,15,0.0,207,22613350926070,31,23.3,-587.74853515625,0.9414999485015869,0,0.0,0.0,,,,,0,,3,0.0,
Raw,2266515,1953070000000,,,-1330742678359878130,0.1973557472229004,30.867297027725726,2.083360197586572,9.55827587771672,5,1,0.0,207,22613355708288,12,32.5,-730.1109008789062,0.24640001356601715,0,0.0,0.0,,,,,0,,3,0.0,
Raw,2266515,1953070000000,,,-1330742678359878130,0.1973557472229004,30.867297027725726,2.083360197586572,9.55827587771672,5,24,0.0,207,22613360605453,8,36.1,-253.8897705078125,0.22120000422000885,0,0.0,0.0,,,,,0,,3,0.0,
Raw,2266515,1953070000000,,,-1330742678359878130,0.1973557472229004,30.867297027725726,2.083360197586572,9.55827587771672,5,23,0.0,207,22613362085883,16,29.3,153.0836181640625,0.2296999990940094,0,0.0,0.0,,,,,0,,3,0.0,
Raw,2266515,1953070000000,,,-1330742678359878130,0.1973557472229004,30.867297027725726,2.083360197586572,9.55827587771672,5,17,0.0,207,22613348834408,1636,13.4,-487.57269287109375,8.273500442504883,0,0.0,0.0,,,,,0,,3,0.0,
Raw,2266515,1953070000000,,,-1330742678359878130,0.1973557472229004,30.867297027725726,2.083360197586572,9.55827587771672,5,7,0.0,207,22613354056099,21,26.8,375.9122314453125,0.33219999074935913,0,0.0,0.0,,,,,0,,3,0.0,
Raw,2266516,1953070000000,,,-1330742678359878130,0.1973557472229004,30.867297027725726,2.083360197586572,9.55827587771672,5,8,0.0,207,22613359315788,6,39.2,-244.88540649414062,0.24809999763965607,0,0.0,0.0,,,,,0,,3,0.0,
Raw,2266516,1953070000000,,,-1330742678359878130,0.1973557472229004,30.867297027725726,2.083360197586572,9.55827587771672,5,2,0.0,15,184631349469842,14,30.5,460.5596618652344,0.03930000215768814,0,0.0,0.0,,,,,0,,1,0.0,
Raw,2266516,1953070000000,,,-1330742678359878130,0.1973557472229004,30.867297027725726,2.083360197586572,9.55827587771672,5,5,0.0,15,184631360713240,6,38.2,108.83242797851562,0.020100001245737076,0,0.0,0.0,,,,,0,,1,0.0,
Raw,2266516,1953070000000,,,-1330742678359878130,0.1973557472229004,30.867297027725726,2.083360197586572,9.55827587771672,5,12,0.0,15,184631352098091,10,34.9,700.9902954101562,0.04010000079870224,0,0.0,0.0,,,,,0,,1,0.0,
Raw,2266516,1953070000000,,,-1330742678359878130,0.1973557472229004,30.867297027725726,2.083360197586572,9.55827587771672,5,15,0.0,15,184631346768510,35,22.9,-585.2196655273438,0.6754999756813049,0,0.0,0.0,,,,,0,,1,0.0,
Raw,2266516,1953070000000,,,-1330742678359878130,0.1973557472229004,30.867297027725726,2.083360197586572,9.55827587771672,5,18,0.0,15,184631356565552,7,37.4,-384.60693359375,0.044600002467632294,0,0.0,0.0,,,,,0,,1,0.0,
Raw,2266516,1953070000000,,,-1330742678359878130,0.1973557472229004,30.867297027725726,2.083360197586572,9.55827587771672,5,20,0.0,15,184631356328951,9,35.5,431.55291748046875,0.04560000076889992,0,0.0,0.0,,,,,0,,1,0.0,
Raw,2266516,1953070000000,,,-1330742678359878130,0.1973557472229004,30.867297027725726,2.083360197586572,9.55827587771672,5,25,0.0,15,184631359598516,5,40.0,427.9438781738281,0.017900001257658005,0,0.0,0.0,,,,,0,,1,0.0,
Raw,2266516,1953070000000,,,-1330742678359878130,0.1973557472229004,30.867297027725726,2.083360197586572,9.55827587771672,5,26,0.0,15,184631349933397,14,30.2,-528.9960327148438,0.03930000215768814,0,0.0,0.0,,,,,0,,1,0.0,
Raw,2266516,1953070000000,,,-1330742678359878130,0.1973557472229004,30.867297027725726,2.083360197586572,9.55827587771672,5,29,0.0,15,184631360847058,9,35.6,-177.18580627441406,0.02160000056028366,0,0.0,0.0,,,,,0,,1,0.0,
Raw,2266517,1953070000000,,,-1330742678359878130,0.1973557472229004,30.867297027725726,2.083360197586572,9.55827587771672,5,31,0.0,15,184631346848829,8,36.6,319.8162536621094,0.03020000085234642,0,0.0,0.0,,,,,0,,1,0.0,
NMEA,$GPGSV,3,1,12,02,23,057,31,05,59,080,38,12,26,164,35,15,07,146,23,1*6F
,1646709414006
NMEA,$GPGSV,3,2,12,18,39,260,37,20,37,050,36,25,55,201,40,26,15,316,30,1*64
,1646709414006
NMEA,$GPGSV,3,3,12,29,66,345,36,31,10,275,37,13,02,115,,23,08,201,,1*63
,1646709414006
NMEA,$GLGSV,3,1,10,78,39,288,36,86,07,071,21,77,30,216,23,79,08,334,23,1*71
,1646709414007
NMEA,$GLGSV,3,2,10,65,23,144,33,88,42,307,36,87,49,019,29,81,02,275,13,1*74
,1646709414007
NMEA,$GLGSV,3,3,10,71,18,036,27,72,37,088,39,1*7D
,1646709414007
NMEA,$GAGSV,1,1,0,7*43
,1646709414008
NMEA,$PQGSV,1,1,0,0*43
,1646709414011
NMEA,$GBGSV,1,1,0,0*47
,1646709414011
Fix,gps,37.427549,-122.170281,-4.692108,0.000000,3.216000,1646709414000
NMEA,$GNGSA,A,3,02,05,12,18,20,25,26,29,31,,,,0.9,0.6,0.7,1*3C
,1646709414019
NMEA,$GNGSA,A,3,65,71,72,77,78,79,86,87,88,,,,0.9,0.6,0.7,2*3A
,1646709414019
NMEA,$GNVTG,,T,,M,0.0,N,0.0,K,A*3D
,1646709414019
NMEA,$GNGGA,031654.00,3725.652953,N,12210.216856,W,1,12,0.6,23.2,M,-27.9,M,,*71
,1646709414020
NMEA,$GNRMC,031654.00,A,3725.652953,N,12210.216856,W,0.0,,080322,15.0,E,A,V*54
,1646709414020
NMEA,$AIDSTAT,0,0,0,2,-5,23,3*00
,1646709414927
Raw,2267533,1954070000000,,,-1330742678359878129,0.7023730278015137,31.842188036534935,2.0521301965056775,9.532323545414148,5,14,0.0,207,22614359974005,9,35.9,4.146998405456543,0.22010000050067902,0,0.0,0.0,,,,,0,,3,0.0,
Raw,2267533,1954070000000,,,-1330742678359878129,0.7023730278015137,31.842188036534935,2.0521301965056775,9.532323545414148,5,22,0.0,207,22614349788825,46,20.5,490.9829406738281,1.1299999952316284,0,0.0,0.0,,,,,0,,3,0.0,
Raw,2267534,1954070000000,,,-1330742678359878129,0.7023730278015137,31.842188036534935,2.0521301965056775,9.532323545414148,5,13,0.0,207,22614357506322,35,22.8,689.1270751953125,1.0119999647140503,0,0.0,0.0,,,,,0,,3,0.0,
Raw,2267534,1954070000000,,,-1330742678359878129,0.7023730278015137,31.842188036534935,2.0521301965056775,9.532323545414148,5,15,0.0,207,22614350928085,27,24.6,-587.7111206054688,0.8814999461174011,0,0.0,0.0,,,,,0,,3,0.0,
Raw,2267534,1954070000000,,,-1330742678359878129,0.7023730278015137,31.842188036534935,2.0521301965056775,9.532323545414148,5,1,0.0,207,22614355710735,13,31.8,-730.4514770507812,0.24770000576972961,0,0.0,0.0,,,,,0,,3,0.0,
Raw,2267534,1954070000000,,,-1330742678359878129,0.7023730278015137,31.842188036534935,2.0521301965056775,9.532323545414148,5,24,0.0,207,22614360606328,9,35.0,-254.23899841308594,0.2215999960899353,0,0.0,0.0,,,,,0,,3,0.0,
Raw,2267534,1954070000000,,,-1330742678359878129,0.7023730278015137,31.842188036534935,2.0521301965056775,9.532323545414148,5,23,0.0,207,22614362085384,16,29.0,152.6886749267578,0.2296999990940094,0,0.0,0.0,,,,,0,,3,0.0,
Raw,2267534,1954070000000,,,-1330742678359878129,0.7023730278015137,31.842188036534935,2.0521301965056775,9.532323545414148,5,17,0.0,207,22614348836008,1896,12.2,-487.4138488769531,9.1535005569458,0,0.0,0.0,,,,,0,,3,0.0,
Raw,2267534,1954070000000,,,-1330742678359878129,0.7023730278015137,31.842188036534935,2.0521301965056775,9.532323545414148,5,7,0.0,207,22614354054847,17,28.4,375.5758056640625,0.25429999828338623,0,0.0,0.0,,,,,0,,3,0.0,
Raw,2267534,1954070000000,,,-1330742678359878129,0.7023730278015137,31.842188036534935,2.0521301965056775,9.532323545414148,5,8,0.0,207,22614359316602,6,38.4,-245.16371154785156,0.24860000610351562,0,0.0,0.0,,,,,0,,3,0.0,
Raw,2267534,1954070000000,,,-1330742678359878129,0.7023730278015137,31.842188036534935,2.0521301965056775,9.532323545414148,5,2,0.0,15,184632349468318,14,30.2,460.1771240234375,0.03930000215768814,0,0.0,0.0,,,,,0,,1,0.0,
Raw,2267534,1954070000000,,,-1330742678359878129,0.7023730278015137,31.842188036534935,2.0521301965056775,9.532323545414148,5,5,0.0,15,184632360712880,7,37.2,108.61894989013672,0.020600000396370888,0,0.0,0.0,,,,,0,,1,0.0,
Raw,2267535,1954070000000,,,-1330742678359878129,0.7023730278015137,31.842188036534935,2.0521301965056775,9.532323545414148,5,12,0.0,15,184632352095748,10,34.6,700.5830078125,0.04010000079870224,0,0.0,0.0,,,,,0,,1,0.0,
Raw,2267535,1954070000000,,,-1330742678359878129,0.7023730278015137,31.842188036534935,2.0521301965056775,9.532323545414148,5,15,0.0,15,184632346770414,61,18.6,-586.16162109375,0.9254999756813049,0,0.0,0.0,,,,,0,,1,0.0,
Raw,2267535,1954070000000,,,-1330742678359878129,0.7023730278015137,31.842188036534935,2.0521301965056775,9.532323545414148,5,18,0.0,15,184632356566819,8,36.0,-384.9797668457031,0.04520000144839287,0,0.0,0.0,,,,,0,,1,0.0,
Raw,2267535,1954070000000,,,-1330742678359878129,0.7023730278015137,31.842188036534935,2.0521301965056775,9.532323545414148,5,20,0.0,15,184632356327534,10,34.6,431.2447509765625,0.04610000178217888,0,0.0,0.0,,,,,0,,1,0.0,
Raw,2267535,1954070000000,,,-1330742678359878129,0.7023730278015137,31.842188036534935,2.0521301965056775,9.532323545414148,5,25,0.0,15,184632359597103,6,38.7,427.7176818847656,0.01860000006854534,0,0.0,0.0,,,,,0,,1,0.0,
Raw,2267535,1954070000000,,,-1330742678359878129,0.7023730278015137,31.842188036534935,2.0521301965056775,9.532323545414148,5,26,0.0,15,184632349935166,17,28.8,-529.3218383789062,0.046800002455711365,0,0.0,0.0,,,,,0,,1,0.0,
Raw,2267535,1954070000000,,,-1330742678359878129,0.7023730278015137,31.842188036534935,2.0521301965056775,9.532323545414148,5,29,0.0,15,184632360847648,10,34.8,-177.4656219482422,0.022099999710917473,0,0.0,0.0,,,,,0,,1,0.0,
Raw,2267535,1954070000000,,,-1330742678359878129,0.7023730278015137,31.842188036534935,2.0521301965056775,9.532323545414148,5,31,0.0,15,184632346847759,9,35.3,319.4819641113281,0.03060000203549862,0,0.0,0.0,,,,,0,,1,0.0,
Fix,gps,37.427551,-122.170281,-4.952911,0.000000,3.216000,1646709415000
NMEA,$GPGSV,3,1,12,02,23,057,30,05,59,080,37,12,26,164,35,15,07,146,19,1*68
,1646709415007
NMEA,$GPGSV,3,2,12,18,39,260,36,20,37,050,35,25,55,201,39,26,15,316,29,1*60
,1646709415007
NMEA,$GPGSV,3,3,12,29,66,345,35,31,10,275,35,13,02,115,,23,08,201,,1*62
,1646709415007
NMEA,$GLGSV,3,1,10,78,39,288,36,86,07,071,21,77,30,216,23,79,08,334,25,1*77
,1646709415007
NMEA,$GLGSV,3,2,10,65,23,144,32,88,42,307,35,87,49,019,29,81,02,275,12,1*77
,1646709415007
NMEA,$GLGSV,3,3,10,71,18,036,28,72,37,088,38,1*73
,1646709415007
NMEA,$GAGSV,1,1,0,7*43
,1646709415008
NMEA,$PQGSV,1,1,0,0*43
,1646709415008
NMEA,$GBGSV,1,1,0,0*47
,1646709415010
NMEA,$GNGSA,A,3,02,05,12,18,20,25,26,29,31,,,,0.9,0.6,0.7,1*3C
,1646709415017
NMEA,$GNGSA,A,3,65,71,72,77,78,79,86,87,88,,,,0.9,0.6,0.7,2*3A
,1646709415018
NMEA,$GNVTG,,T,,M,0.0,N,0.0,K,A*3D
,1646709415018
NMEA,$GNGGA,031655.00,3725.653084,N,12210.216862,W,1,12,0.6,23.0,M,-27.9,M,,*77
,1646709415018
NMEA,$GNRMC,031655.00,A,3725.653084,N,12210.216862,W,0.0,,080322,15.0,E,A,V*50
,1646709415018
NMEA,$AIDSTAT,0,0,0,2,2,23,3*00
,1646709415927
NMEA,$GPGSV,3,1,12,02,23,057,31,05,59,080,38,12,26,164,36,15,07,146,19,1*65
,1646709416007
NMEA,$GPGSV,3,2,12,18,39,260,36,20,37,050,35,23,08,201,23,25,55,201,39,1*64
,1646709416007
NMEA,$GPGSV,3,3,12,26,15,316,30,29,66,345,35,31,10,275,35,13,02,115,,1*6F
,1646709416008
NMEA,$GLGSV,3,1,10,78,39,288,38,86,07,071,20,77,30,216,25,79,08,334,27,1*7C
,1646709416008
NMEA,$GLGSV,3,2,10,65,23,144,32,88,42,307,37,87,49,019,32,81,02,275,12,1*7F
,1646709416009
NMEA,$GLGSV,3,3,10,71,18,036,27,72,37,088,38,1*7C
,1646709416010
NMEA,$GAGSV,1,1,0,7*43
,1646709416011
NMEA,$PQGSV,1,1,0,0*43
,1646709416011
NMEA,$GBGSV,1,1,0,0*47
,1646709416011
Raw,2268553,1955070000000,,,-1330742678359878131,0.303286075592041,32.52447640988976,0.5811650759788952,9.558372106448637,5,14,0.0,207,22615359973957,7,37.7,4.3283610343933105,0.2190999984741211,0,0.0,0.0,,,,,0,,3,0.0,
Raw,2268554,1955070000000,,,-1330742678359878131,0.303286075592041,32.52447640988976,0.5811650759788952,9.558372106448637,5,22,0.0,207,22615349787076,53,19.9,490.3927917480469,1.2100000381469727,0,0.0,0.0,,,,,0,,3,0.0,
Raw,2268554,1955070000000,,,-1330742678359878131,0.303286075592041,32.52447640988976,0.5811650759788952,9.558372106448637,5,13,0.0,207,22615357504206,24,25.0,689.2564697265625,0.6072999835014343,0,0.0,0.0,,,,,0,,3,0.0,
Raw,2268554,1955070000000,,,-1330742678359878131,0.303286075592041,32.52447640988976,0.5811650759788952,9.558372106448637,5,15,0.0,207,22615350929831,21,26.7,-587.217041015625,0.326200008392334,0,0.0,0.0,,,,,0,,3,0.0,
Raw,2268554,1955070000000,,,-1330742678359878131,0.303286075592041,32.52447640988976,0.5811650759788952,9.558372106448637,5,1,0.0,207,22615355713154,13,31.7,-730.4402465820312,0.24770000576972961,0,0.0,0.0,,,,,0,,3,0.0,
Raw,2268554,1955070000000,,,-1330742678359878131,0.303286075592041,32.52447640988976,0.5811650759788952,9.558372106448637,5,24,0.0,207,22615360607219,8,36.5,-254.1864013671875,0.22120000422000885,0,0.0,0.0,,,,,0,,3,0.0,
Raw,2268554,1955070000000,,,-1330742678359878131,0.303286075592041,32.52447640988976,0.5811650759788952,9.558372106448637,5,23,0.0,207,22615362084864,13,31.9,152.7352752685547,0.2282000035047531,0,0.0,0.0,,,,,0,,3,0.0,
Raw,2268554,1955070000000,,,-1330742678359878131,0.303286075592041,32.52447640988976,0.5811650759788952,9.558372106448637,5,17,0.0,207,22615348837617,1925,12.3,-487.4512023925781,9.9035005569458,0,0.0,0.0,,,,,0,,3,0.0,
Raw,2268554,1955070000000,,,-1330742678359878131,0.303286075592041,32.52447640988976,0.5811650759788952,9.558372106448637,5,7,0.0,207,22615354053444,19,27.2,375.77166748046875,0.2623000144958496,0,0.0,0.0,,,,,0,,3,0.0,
Raw,2268554,1955070000000,,,-1330742678359878131,0.303286075592041,32.52447640988976,0.5811650759788952,9.558372106448637,5,8,0.0,207,22615359317422,6,38.3,-244.99649047851562,0.24860000610351562,0,0.0,0.0,,,,,0,,3,0.0,
Raw,2268554,1955070000000,,,-1330742678359878131,0.303286075592041,32.52447640988976,0.5811650759788952,9.558372106448637,5,2,0.0,15,184633349466759,13,31.1,460.17120361328125,0.038700003176927567,0,0.0,0.0,,,,,0,,1,0.0,
Raw,2268554,1955070000000,,,-1330742678359878131,0.303286075592041,32.52447640988976,0.5811650759788952,9.558372106448637,5,5,0.0,15,184633360712533,7,37.8,108.70809173583984,0.020600000396370888,0,0.0,0.0,,,,,0,,1,0.0,
Raw,2268554,1955070000000,,,-1330742678359878131,0.303286075592041,32.52447640988976,0.5811650759788952,9.558372106448637,5,12,0.0,15,184633352093409,8,36.3,700.6177978515625,0.03920000046491623,0,0.0,0.0,,,,,0,,1,0.0,
Raw,2268554,1955070000000,,,-1330742678359878131,0.303286075592041,32.52447640988976,0.5811650759788952,9.558372106448637,5,15,0.0,15,184633346772564,53,19.0,-585.45751953125,0.8554999828338623,0,0.0,0.0,,,,,0,,1,0.0,
Raw,2268554,1955070000000,,,-1330742678359878131,0.303286075592041,32.52447640988976,0.5811650759788952,9.558372106448637,5,18,0.0,15,184633356568129,8,36.3,-384.9385986328125,0.04520000144839287,0,0.0,0.0,,,,,0,,1,0.0,
Raw,2268554,1955070000000,,,-1330742678359878131,0.303286075592041,32.52447640988976,0.5811650759788952,9.558372106448637,5,20,0.0,15,184633356326080,10,34.6,431.357421875,0.04610000178217888,0,0.0,0.0,,,,,0,,1,0.0,
Raw,2268554,1955070000000,,,-1330742678359878131,0.303286075592041,32.52447640988976,0.5811650759788952,9.558372106448637,5,23,0.0,15,184633347020591,276,23.0,-719.1292724609375,0.7320000529289246,0,0.0,0.0,,,,,0,,1,0.0,
Raw,2268554,1955070000000,,,-1330742678359878131,0.303286075592041,32.52447640988976,0.5811650759788952,9.558372106448637,5,25,0.0,15,184633359595674,6,39.2,427.7904357910156,0.01810000091791153,0,0.0,0.0,,,,,0,,1,0.0,
Raw,2268555,1955070000000,,,-1330742678359878131,0.303286075592041,32.52447640988976,0.5811650759788952,9.558372106448637,5,26,0.0,15,184633349936899,16,29.7,-529.221435546875,0.04020000249147415,0,0.0,0.0,,,,,0,,1,0.0,
Raw,2268555,1955070000000,,,-1330742678359878131,0.303286075592041,32.52447640988976,0.5811650759788952,9.558372106448637,5,29,0.0,15,184633360848230,9,35.0,-177.42837524414062,0.02160000056028366,0,0.0,0.0,,,,,0,,1,0.0,
Raw,2268555,1955070000000,,,-1330742678359878131,0.303286075592041,32.52447640988976,0.5811650759788952,9.558372106448637,5,31,0.0,15,184633346846679,9,35.3,319.5509338378906,0.03060000203549862,0,0.0,0.0,,,,,0,,1,0.0,
Fix,gps,37.427554,-122.170281,-4.943939,0.000000,3.216000,1646709416000
NMEA,$GNGSA,A,3,02,05,12,18,20,25,26,29,31,,,,0.9,0.6,0.7,1*3C
,1646709416018
NMEA,$GNGSA,A,3,65,71,72,77,78,79,86,87,88,,,,0.9,0.6,0.7,2*3A
,1646709416019
NMEA,$GNVTG,,T,,M,0.0,N,0.0,K,A*3D
,1646709416019
NMEA,$GNGGA,031656.00,3725.653248,N,12210.216852,W,1,12,0.6,23.0,M,-27.9,M,,*75
,1646709416019
NMEA,$GNRMC,031656.00,A,3725.653248,N,12210.216852,W,0.0,,080322,15.0,E,A,V*52
,1646709416019
NMEA,$AIDSTAT,0,0,0,2,-2,23,3*00
,1646709416926
Raw,2269536,1956070000000,,,-1330742678359878129,0.5086579322814941,31.72997458023019,0.6523076832942298,9.558079443859008,5,14,0.0,207,22616359973940,7,37.5,5.315823554992676,0.2190999984741211,0,0.0,0.0,,,,,0,,3,0.0,
Raw,2269537,1956070000000,,,-1330742678359878129,0.5086579322814941,31.72997458023019,0.6523076832942298,9.558079443859008,5,22,0.0,207,22616349785746,53,19.1,491.1983337402344,1.2100000381469727,0,0.0,0.0,,,,,0,,3,0.0,
Raw,2269537,1956070000000,,,-1330742678359878129,0.5086579322814941,31.72997458023019,0.6523076832942298,9.558079443859008,5,13,0.0,207,22616357501850,31,23.7,690.3723754882812,0.9519999623298645,0,0.0,0.0,,,,,0,,3,0.0,
Raw,2269537,1956070000000,,,-1330742678359878129,0.5086579322814941,31.72997458023019,0.6523076832942298,9.558079443859008,5,15,0.0,207,22616350931744,21,26.1,-586.2467651367188,0.326200008392334,0,0.0,0.0,,,,,0,,3,0.0,
Raw,2269537,1956070000000,,,-1330742678359878129,0.5086579322814941,31.72997458023019,0.6523076832942298,9.558079443859008,5,1,0.0,207,22616355715606,12,32.6,-729.5848388671875,0.24640001356601715,0,0.0,0.0,,,,,0,,3,0.0,
Raw,2269537,1956070000000,,,-1330742678359878129,0.5086579322814941,31.72997458023019,0.6523076832942298,9.558079443859008,5,24,0.0,207,22616360608006,8,36.6,-253.32179260253906,0.22120000422000885,0,0.0,0.0,,,,,0,,3,0.0,
Raw,2269537,1956070000000,,,-1330742678359878129,0.5086579322814941,31.72997458023019,0.6523076832942298,9.558079443859008,5,23,0.0,207,22616362084329,12,32.6,153.6061248779297,0.22690001130104065,0,0.0,0.0,,,,,0,,3,0.0,
Raw,2269537,1956070000000,,,-1330742678359878129,0.5086579322814941,31.72997458023019,0.6523076832942298,9.558079443859008,5,17,0.0,207,22616348839136,346,12.5,-487.6194152832031,10.6535005569458,0,0.0,0.0,,,,,0,,3,0.0,
Raw,2269537,1956070000000,,,-1330742678359878129,0.5086579322814941,31.72997458023019,0.6523076832942298,9.558079443859008,5,7,0.0,207,22616354052169,16,29.1,376.7077941894531,0.24770000576972961,0,0.0,0.0,,,,,0,,3,0.0,
Raw,2269537,1956070000000,,,-1330742678359878129,0.5086579322814941,31.72997458023019,0.6523076832942298,9.558079443859008,5,8,0.0,207,22616359318225,6,39.2,-244.01998901367188,0.24809999763965607,0,0.0,0.0,,,,,0,,3,0.0,
Raw,2269537,1956070000000,,,-1330742678359878129,0.5086579322814941,31.72997458023019,0.6523076832942298,9.558079443859008,5,2,0.0,15,184634349465174,11,33.2,460.9208984375,0.036400001496076584,0,0.0,0.0,,,,,0,,1,0.0,
Raw,2269537,1956070000000,,,-1330742678359878129,0.5086579322814941,31.72997458023019,0.6523076832942298,9.558079443859008,5,5,0.0,15,184634360712165,6,38.2,109.64982604980469,0.020100001245737076,0,0.0,0.0,,,,,0,,1,0.0,
Raw,2269537,1956070000000,,,-1330742678359878129,0.5086579322814941,31.72997458023019,0.6523076832942298,9.558079443859008,5,12,0.0,15,184634352091079,9,35.3,701.493408203125,0.03960000351071358,0,0.0,0.0,,,,,0,,1,0.0,
Raw,2269537,1956070000000,,,-1330742678359878129,0.5086579322814941,31.72997458023019,0.6523076832942298,9.558079443859008,5,15,0.0,15,184634346774490,46,20.0,-585.2957763671875,0.7954999804496765,0,0.0,0.0,,,,,0,,1,0.0,
Raw,2269537,1956070000000,,,-1330742678359878129,0.5086579322814941,31.72997458023019,0.6523076832942298,9.558079443859008,5,18,0.0,15,184634356569425,9,35.9,-384.0522155761719,0.04560000076889992,0,0.0,0.0,,,,,0,,1,0.0,
Raw,2269538,1956070000000,,,-1330742678359878129,0.5086579322814941,31.72997458023019,0.6523076832942298,9.558079443859008,5,20,0.0,15,184634356324618,8,36.0,432.2707824707031,0.04520000144839287,0,0.0,0.0,,,,,0,,1,0.0,
Raw,2269538,1956070000000,,,-1330742678359878129,0.5086579322814941,31.72997458023019,0.6523076832942298,9.558079443859008,5,23,0.0,15,184634347022989,36,22.3,-718.9390258789062,0.9679999947547913,0,0.0,0.0,,,,,0,,1,0.0,
Raw,2269538,1956070000000,,,-1330742678359878129,0.5086579322814941,31.72997458023019,0.6523076832942298,9.558079443859008,5,25,0.0,15,184634359594244,6,39.5,428.70965576171875,0.01810000091791153,0,0.0,0.0,,,,,0,,1,0.0,
Raw,2269539,1956070000000,,,-1330742678359878129,0.5086579322814941,31.72997458023019,0.6523076832942298,9.558079443859008,5,26,0.0,15,184634349938696,16,29.6,-528.3123168945312,0.04020000249147415,0,0.0,0.0,,,,,0,,1,0.0,
Raw,2269539,1956070000000,,,-1330742678359878129,0.5086579322814941,31.72997458023019,0.6523076832942298,9.558079443859008,5,29,0.0,15,184634360848829,10,34.2,-176.53041076660156,0.022099999710917473,0,0.0,0.0,,,,,0,,1,0.0,
Raw,2269539,1956070000000,,,-1330742678359878129,0.5086579322814941,31.72997458023019,0.6523076832942298,9.558079443859008,5,31,0.0,15,184634346845637,10,34.2,320.4904479980469,0.03110000118613243,0,0.0,0.0,,,,,0,,1,0.0,
Fix,gps,37.427555,-122.170281,-5.136566,0.000000,3.216000,1646709417000
NMEA,$GPGSV,3,1,12,02,23,057,33,05,59,080,38,12,26,164,35,15,07,146,20,1*6E
,1646709416999
NMEA,$GPGSV,3,2,12,18,39,260,36,20,37,050,36,23,08,201,22,25,55,201,40,1*68
,1646709416999
NMEA,$GPGSV,3,3,12,26,15,316,30,29,66,345,34,31,10,275,34,13,02,115,,1*6F
,1646709416999
NMEA,$GLGSV,3,1,10,78,39,288,38,86,07,071,19,77,30,216,24,79,08,334,26,1*76
,1646709417000
NMEA,$GLGSV,3,2,10,65,23,144,33,88,42,307,37,87,49,019,33,81,02,275,13,1*7E
,1646709417000
NMEA,$GLGSV,3,3,10,71,18,036,29,72,37,088,39,1*73
,1646709417000
NMEA,$GAGSV,1,1,0,7*43
,1646709417000
NMEA,$PQGSV,1,1,0,0*43
,1646709417001
NMEA,$GBGSV,1,1,0,0*47
,1646709417001
NMEA,$GNGSA,A,3,02,05,12,18,20,25,26,29,31,,,,0.9,0.6,0.7,1*3C
,1646709417009
NMEA,$GNGSA,A,3,65,71,72,77,78,79,86,87,88,,,,0.9,0.6,0.7,2*3A
,1646709417009
NMEA,$GNVTG,,T,,M,0.0,N,0.0,K,A*3D
,1646709417010
NMEA,$GNGGA,031657.00,3725.653329,N,12210.216857,W,1,12,0.6,22.8,M,-27.9,M,,*7E
,1646709417010
NMEA,$GNRMC,031657.00,A,3725.653329,N,12210.216857,W,0.0,,080322,15.0,E,A,V*50
,1646709417010
NMEA,$AIDSTAT,0,0,0,2,,23,3*00
,1646709417927
NMEA,$GPGSV,3,1,12,02,23,057,34,05,59,080,38,12,26,164,35,15,07,146,19,1*63
,1646709417999
Raw,2270518,1957070000000,,,-1330742678359878121,0.7415494918823242,30.5399953504093,3.3937030625111206,9.55799593958751,5,14,0.0,207,22617359973923,7,37.7,5.104837894439697,0.2190999984741211,0,0.0,0.0,,,,,0,,3,0.0,
Raw,2270519,1957070000000,,,-1330742678359878121,0.7415494918823242,30.5399953504093,3.3937030625111206,9.55799593958751,5,22,0.0,207,22617349783764,70,17.3,491.4044189453125,1.3799999952316284,0,0.0,0.0,,,,,0,,3,0.0,
Raw,2270519,1957070000000,,,-1330742678359878121,0.7415494918823242,30.5399953504093,3.3937030625111206,9.55799593958751,5,13,0.0,207,22617357499608,27,24.9,689.623291015625,0.8919999599456787,0,0.0,0.0,,,,,0,,3,0.0,
Raw,2270519,1957070000000,,,-1330742678359878121,0.7415494918823242,30.5399953504093,3.3937030625111206,9.55799593958751,5,15,0.0,207,22617350933688,24,25.0,-586.445556640625,0.5967999696731567,0,0.0,0.0,,,,,0,,3,0.0,
Raw,2270519,1957070000000,,,-1330742678359878121,0.7415494918823242,30.5399953504093,3.3937030625111206,9.55799593958751,5,1,0.0,207,22617355718035,13,31.5,-729.828125,0.24770000576972961,0,0.0,0.0,,,,,0,,3,0.0,
Raw,2270519,1957070000000,,,-1330742678359878121,0.7415494918823242,30.5399953504093,3.3937030625111206,9.55799593958751,5,24,0.0,207,22617360608845,9,35.9,-253.64117431640625,0.2215999960899353,0,0.0,0.0,,,,,0,,3,0.0,
Raw,2270519,1957070000000,,,-1330742678359878121,0.7415494918823242,30.5399953504093,3.3937030625111206,9.55799593958751,5,23,0.0,207,22617362083803,13,31.6,153.3300018310547,0.2282000035047531,0,0.0,0.0,,,,,0,,3,0.0,
Raw,2270519,1957070000000,,,-1330742678359878121,0.7415494918823242,30.5399953504093,3.3937030625111206,9.55799593958751,5,17,0.0,207,22617348840763,416,12.5,-487.6194152832031,12.1535005569458,0,0.0,0.0,,,,,0,,3,0.0,
Raw,2270519,1957070000000,,,-1330742678359878121,0.7415494918823242,30.5399953504093,3.3937030625111206,9.55799593958751,5,7,0.0,207,22617354050954,24,25.9,376.5563659667969,0.6028000116348267,0,0.0,0.0,,,,,0,,3,0.0,
Raw,2270519,1957070000000,,,-1330742678359878121,0.7415494918823242,30.5399953504093,3.3937030625111206,9.55799593958751,5,8,0.0,207,22617359319033,7,37.9,-244.18443298339844,0.249099999666214,0,0.0,0.0,,,,,0,,3,0.0,
Raw,2270519,1957070000000,,,-1330742678359878121,0.7415494918823242,30.5399953504093,3.3937030625111206,9.55799593958751,5,2,0.0,15,184635349463606,11,33.5,460.66790771484375,0.036400001496076584,0,0.0,0.0,,,,,0,,1,0.0,
Raw,2270519,1957070000000,,,-1330742678359878121,0.7415494918823242,30.5399953504093,3.3937030625111206,9.55799593958751,5,5,0.0,15,184635360711810,7,37.7,109.46124267578125,0.020600000396370888,0,0.0,0.0,,,,,0,,1,0.0,
Raw,2270519,1957070000000,,,-1330742678359878121,0.7415494918823242,30.5399953504093,3.3937030625111206,9.55799593958751,5,12,0.0,15,184635352088750,10,34.8,701.1318969726562,0.04010000079870224,0,0.0,0.0,,,,,0,,1,0.0,
Raw,2270519,1957070000000,,,-1330742678359878121,0.7415494918823242,30.5399953504093,3.3937030625111206,9.55799593958751,5,15,0.0,15,184635346776367,61,18.8,-585.6953735351562,0.9254999756813049,0,0.0,0.0,,,,,0,,1,0.0,
Raw,2270519,1957070000000,,,-1330742678359878121,0.7415494918823242,30.5399953504093,3.3937030625111206,9.55799593958751,5,18,0.0,15,184635356570714,9,35.2,-384.3240966796875,0.04560000076889992,0,0.0,0.0,,,,,0,,1,0.0,
Raw,2270519,1957070000000,,,-1330742678359878121,0.7415494918823242,30.5399953504093,3.3937030625111206,9.55799593958751,5,20,0.0,15,184635356323144,10,34.7,432.0515441894531,0.04610000178217888,0,0.0,0.0,,,,,0,,1,0.0,
Raw,2270519,1957070000000,,,-1330742678359878121,0.7415494918823242,30.5399953504093,3.3937030625111206,9.55799593958751,5,23,0.0,15,184635347025296,35,22.1,-719.300537109375,0.6769999861717224,0,0.0,0.0,,,,,0,,1,0.0,
Raw,2270519,1957070000000,,,-1330742678359878121,0.7415494918823242,30.5399953504093,3.3937030625111206,9.55799593958751,5,25,0.0,15,184635359592822,6,38.8,428.44647216796875,0.01860000006854534,0,0.0,0.0,,,,,0,,1,0.0,
Raw,2270520,1957070000000,,,-1330742678359878121,0.7415494918823242,30.5399953504093,3.3937030625111206,9.55799593958751,5,26,0.0,15,184635349940449,16,29.8,-528.6139526367188,0.04020000249147415,0,0.0,0.0,,,,,0,,1,0.0,
Raw,2270520,1957070000000,,,-1330742678359878121,0.7415494918823242,30.5399953504093,3.3937030625111206,9.55799593958751,5,29,0.0,15,184635360849433,12,32.7,-176.87203979492188,0.023900000378489494,0,0.0,0.0,,,,,0,,1,0.0,
Raw,2270520,1957070000000,,,-1330742678359878121,0.7415494918823242,30.5399953504093,3.3937030625111206,9.55799593958751,5,31,0.0,15,184635346844557,12,32.9,320.20220947265625,0.03290000185370445,0,0.0,0.0,,,,,0,,1,0.0,
NMEA,$GPGSV,3,2,12,18,39,260,35,20,37,050,35,23,08,201,22,25,55,201,39,1*66
,1646709418000
NMEA,$GPGSV,3,3,12,26,15,316,30,29,66,345,33,31,10,275,33,13,02,115,,1*6F
,1646709418000
NMEA,$GLGSV,3,1,10,78,39,288,38,86,07,071,17,77,30,216,25,79,08,334,25,1*7A
,1646709418001
NMEA,$GLGSV,3,2,10,65,23,144,32,88,42,307,36,87,49,019,32,81,02,275,13,1*7F
,1646709418001
NMEA,$GLGSV,3,3,10,71,18,036,26,72,37,088,38,1*7D
,1646709418001
NMEA,$GAGSV,1,1,0,7*43
,1646709418002
NMEA,$PQGSV,1,1,0,0*43
,1646709418002
NMEA,$GBGSV,1,1,0,0*47
,1646709418003
Fix,gps,37.427556,-122.170281,-5.092072,0.000000,3.216000,1646709418000
NMEA,$GNGSA,A,3,02,05,12,18,20,25,26,29,31,,,,0.9,0.6,0.7,1*3C
,1646709418010
NMEA,$GNGSA,A,3,65,71,72,77,78,79,86,87,88,,,,0.9,0.6,0.7,2*3A
,1646709418011
NMEA,$GNVTG,,T,,M,0.0,N,0.0,K,A*3D
,1646709418011
NMEA,$GNGGA,031658.00,3725.653333,N,12210.216884,W,1,12,0.6,22.8,M,-27.9,M,,*74
,1646709418011
NMEA,$GNRMC,031658.00,A,3725.653333,N,12210.216884,W,0.0,,080322,15.0,E,A,V*5A
,1646709418011
NMEA,$AIDSTAT,0,0,0,2,0,23,3*00
,1646709418927
Raw,2271536,1958070000000,,,-1330742678359878118,0.6398253440856934,31.438696169061586,2.3922269899188158,9.557980034011987,5,14,0.0,207,22618359973947,8,36.9,5.36356782913208,0.21970000863075256,0,0.0,0.0,,,,,0,,3,0.0,
Raw,2271537,1958070000000,,,-1330742678359878118,0.6398253440856934,31.438696169061586,2.3922269899188158,9.557980034011987,5,22,0.0,207,22618349782132,61,18.9,491.3950500488281,1.2899999618530273,0,0.0,0.0,,,,,0,,3,0.0,
Raw,2271537,1958070000000,,,-1330742678359878118,0.6398253440856934,31.438696169061586,2.3922269899188158,9.557980034011987,5,13,0.0,207,22618357497311,24,25.7,689.995849609375,0.6072999835014343,0,0.0,0.0,,,,,0,,3,0.0,
Raw,2271537,1958070000000,,,-1330742678359878118,0.6398253440856934,31.438696169061586,2.3922269899188158,9.557980034011987,5,15,0.0,207,22618350935706,27,24.3,-586.7473754882812,0.8814999461174011,0,0.0,0.0,,,,,0,,3,0.0,
Raw,2271537,1958070000000,,,-1330742678359878118,0.6398253440856934,31.438696169061586,2.3922269899188158,9.557980034011987,5,1,0.0,207,22618355720470,16,29.8,-729.7540893554688,0.2492000013589859,0,0.0,0.0,,,,,0,,3,0.0,
Raw,2271537,1958070000000,,,-1330742678359878118,0.6398253440856934,31.438696169061586,2.3922269899188158,9.557980034011987,5,24,0.0,207,22618360609684,9,35.9,-253.56475830078125,0.2215999960899353,0,0.0,0.0,,,,,0,,3,0.0,
Raw,2271537,1958070000000,,,-1330742678359878118,0.6398253440856934,31.438696169061586,2.3922269899188158,9.557980034011987,5,23,0.0,207,22618362083278,12,32.1,153.36756896972656,0.22690001130104065,0,0.0,0.0,,,,,0,,3,0.0,
Raw,2271537,1958070000000,,,-1330742678359878118,0.6398253440856934,31.438696169061586,2.3922269899188158,9.557980034011987,5,17,0.0,207,22618348842389,496,12.5,-487.6194152832031,13.6535005569458,0,0.0,0.0,,,,,0,,3,0.0,
Raw,2271537,1958070000000,,,-1330742678359878118,0.6398253440856934,31.438696169061586,2.3922269899188158,9.557980034011987,5,7,0.0,207,22618354049597,17,28.1,376.7459716796875,0.25429999828338623,0,0.0,0.0,,,,,0,,3,0.0,
Raw,2271537,1958070000000,,,-1330742678359878118,0.6398253440856934,31.438696169061586,2.3922269899188158,9.557980034011987,5,8,0.0,207,22618359319851,6,38.5,-243.99559020996094,0.24860000610351562,0,0.0,0.0,,,,,0,,3,0.0,
Raw,2271537,1958070000000,,,-1330742678359878118,0.6398253440856934,31.438696169061586,2.3922269899188158,9.557980034011987,5,2,0.0,15,184636349462074,9,35.6,460.67877197265625,0.035100001841783524,0,0.0,0.0,,,,,0,,1,0.0,
