# 
# Header Description:
# 
# Version: v2.0.0.1 Platform: 9 Manufacturer: samsung Model: SM-G960U
# 
# Raw,ElapsedRealtimeMillis,TimeNanos,LeapSecond,TimeUncertaintyNanos,FullBiasNanos,BiasNanos,BiasUncertaintyNanos,DriftNanosPerSecond,DriftUncertaintyNanosPerSecond,HardwareClockDiscontinuityCount,Svid,TimeOffsetNanos,State,ReceivedSvTimeNanos,ReceivedSvTimeUncertaintyNanos,Cn0DbHz,PseudorangeRateMetersPerSecond,PseudorangeRateUncertaintyMetersPerSecond,AccumulatedDeltaRangeState,AccumulatedDeltaRangeMeters,AccumulatedDeltaRangeUncertaintyMeters,CarrierFrequencyHz,CarrierCycles,CarrierPhase,CarrierPhaseUncertainty,MultipathIndicator,SnrInDb,ConstellationType,AgcDb,CarrierFrequencyHz
# 
# Fix,Provider,Latitude,Longitude,Altitude,Speed,Accuracy,(UTC)TimeInMs
# 
# Nav,Svid,Type,Status,MessageId,Sub-messageId,Data(Bytes)
# 
NMEA,$AIDSTAT,0,0,0,2,,23,3*00
,1646709761926
Raw,2614522,2301070000000,,,-1330742678359875848,0.17608213424682617,38.78373172483407,6.715751507289827,12.59495642744129,8,14,0.0,207,22961359933689,5,40.3,62.84519958496094,0.21790000796318054,0,0.0,0.0,,,,,0,,3,0.0,
Raw,2614523,2301070000000,,,-1330742678359875848,0.17608213424682617,38.78373172483407,6.715751507289827,12.59495642744129,8,22,0.0,207,22961349219530,64,18.2,489.90576171875,2.0399999618530273,0,0.0,0.0,,,,,0,,3,0.0,
Raw,2614523,2301070000000,,,-1330742678359875848,0.17608213424682617,38.78373172483407,6.715751507289827,12.59495642744129,8,13,0.0,207,22961356691947,24,25.9,713.8250732421875,0.6057999730110168,0,0.0,0.0,,,,,0,,3,0.0,
Raw,2614523,2301070000000,,,-1330742678359875848,0.17608213424682617,38.78373172483407,6.715751507289827,12.59495642744129,8,15,0.0,207,22961351585398,10,34.0,-549.4466552734375,0.2386000156402588,0,0.0,0.0,,,,,0,,3,0.0,
Raw,2614523,2301070000000,,,-1330742678359875848,0.17608213424682617,38.78373172483407,6.715751507289827,12.59495642744129,8,1,0.0,207,22961356543034,14,30.6,-710.8088989257812,0.24979999661445618,0,0.0,0.0,,,,,0,,3,0.0,
Raw,2614523,2301070000000,,,-1330742678359875848,0.17608213424682617,38.78373172483407,6.715751507289827,12.59495642744129,8,24,0.0,207,22961360891793,7,37.7,-241.09921264648438,0.22059999406337738,0,0.0,0.0,,,,,0,,3,0.0,
Raw,2614523,2301070000000,,,-1330742678359875848,0.17608213424682617,38.78373172483407,6.715751507289827,12.59495642744129,8,23,0.0,207,22961361899952,14,30.5,165.793701171875,0.2273000031709671,0,0.0,0.0,,,,,0,,3,0.0,
Raw,2614523,2301070000000,,,-1330742678359875848,0.17608213424682617,38.78373172483407,6.715751507289827,12.59495642744129,8,17,0.0,207,22961349397445,46,20.4,-484.9377746582031,1.1299999952316284,0,0.0,0.0,,,,,0,,3,0.0,
Raw,2614523,2301070000000,,,-1330742678359875848,0.17608213424682617,38.78373172483407,6.715751507289827,12.59495642744129,8,7,0.0,207,22961353591128,19,27.3,423.8098449707031,0.26080000400543213,0,0.0,0.0,,,,,0,,3,0.0,
Raw,2614523,2301070000000,,,-1330742678359875848,0.17608213424682617,38.78373172483407,6.715751507289827,12.59495642744129,8,8,0.0,207,22961359567770,6,38.0,-191.22979736328125,0.24860000610351562,0,0.0,0.0,,,,,0,,3,0.0,
Raw,2614523,2301070000000,,,-1330742678359875848,0.17608213424682617,38.78373172483407,6.715751507289827,12.59495642744129,8,2,0.0,15,184979348934851,9,35.3,459.5108642578125,0.03360000252723694,0,0.0,0.0,,,,,0,,1,0.0,
Raw,2614523,2301070000000,,,-1330742678359875848,0.17608213424682617,38.78373172483407,6.715751507289827,12.59495642744129,8,5,0.0,15,184979360559427,8,36.3,153.81475830078125,0.02120000123977661,0,0.0,0.0,,,,,0,,1,0.0,
Raw,2614523,2301070000000,,,-1330742678359875848,0.17608213424682617,38.78373172483407,6.715751507289827,12.59495642744129,8,12,0.0,15,184979351275345,6,38.8,712.4171752929688,0.03660000115633011,0,0.0,0.0,,,,,0,,1,0.0,
Raw,2614523,2301070000000,,,-1330742678359875848,0.17608213424682617,38.78373172483407,6.715751507289827,12.59495642744129,8,15,0.0,15,184979347449381,53,19.4,-590.6715698242188,0.8569999933242798,0,0.0,0.0,,,,,0,,1,0.0,
Raw,2614523,2301070000000,,,-1330742678359875848,0.17608213424682617,38.78373172483407,6.715751507289827,12.59495642744129,8,18,0.0,15,184979356999244,11,33.5,-365.23077392578125,0.04690000042319298,0,0.0,0.0,,,,,0,,1,0.0,
Raw,2614523,2301070000000,,,-1330742678359875848,0.17608213424682617,38.78373172483407,6.715751507289827,12.59495642744129,8,20,0.0,15,184979355810398,8,36.3,459.8990173339844,0.04370000213384628,0,0.0,0.0,,,,,0,,1,0.0,
Raw,2614523,2301070000000,,,-1330742678359875848,0.17608213424682617,38.78373172483407,6.715751507289827,12.59495642744129,8,23,0.0,15,184979347846759,6,38.3,-715.775390625,0.03060000203549862,0,0.0,0.0,,,,,0,,1,0.0,
Raw,2614524,2301070000000,,,-1330742678359875848,0.17608213424682617,38.78373172483407,6.715751507289827,12.59495642744129,8,25,0.0,15,184979359080047,5,41.0,461.66131591796875,0.047600001096725464,0,0.0,0.0,,,,,0,,1,0.0,
Raw,2614524,2301070000000,,,-1330742678359875848,0.17608213424682617,38.78373172483407,6.715751507289827,12.59495642744129,8,26,0.0,15,184979350531853,19,27.5,-503.0157775878906,0.056300003081560135,0,0.0,0.0,,,,,0,,1,0.0,
Raw,2614524,2301070000000,,,-1330742678359875848,0.17608213424682617,38.78373172483407,6.715751507289827,12.59495642744129,8,29,0.0,15,184979361039506,9,35.2,-156.11788940429688,0.023100001737475395,0,0.0,0.0,,,,,0,,1,0.0,
Raw,2614524,2301070000000,,,-1330742678359875848,0.17608213424682617,38.78373172483407,6.715751507289827,12.59495642744129,8,31,0.0,15,184979346462670,6,38.5,342.8562316894531,0.029100000858306885,0,0.0,0.0,,,,,0,,1,0.0,
Fix,gps,37.429772,-122.169530,-10.665436,0.380000,3.216000,1646709762000
NMEA,$GPGSV,3,1,12,02,21,059,35,05,58,075,36,12,23,164,39,15,09,144,19,1*6E
,1646709762000
NMEA,$GPGSV,3,2,12,18,41,262,34,20,35,050,36,23,10,201,38,25,52,199,41,1*63
,1646709762000
NMEA,$GPGSV,3,3,12,26,16,314,28,29,67,350,35,31,09,274,39,13,04,112,,1*66
,1646709762000
NMEA,$GLGSV,3,1,10,78,39,284,40,86,05,074,18,77,27,215,26,79,10,331,34,1*7B
,1646709762000
NMEA,$GLGSV,3,2,10,65,26,143,31,88,43,312,38,87,48,023,31,81,03,277,20,1*7D
,1646709762001
NMEA,$GLGSV,3,3,10,71,17,033,27,72,38,084,38,1*75
,1646709762001
NMEA,$GAGSV,1,1,0,7*43
,1646709762001
NMEA,$PQGSV,1,1,0,0*43
,1646709762001
NMEA,$GBGSV,1,1,0,0*47
,1646709762001
NMEA,$GNGSA,A,3,02,05,12,15,18,20,23,25,26,29,31,,0.9,0.5,0.7,1*3A
,1646709762005
NMEA,$GNGSA,A,3,65,71,72,77,78,79,86,87,88,,,,0.9,0.5,0.7,2*39
,1646709762005
NMEA,$GNVTG,123.2,T,123.2,M,0.7,N,1.4,K,A*3F
,1646709762005
NMEA,$GNGGA,032242.00,3725.786294,N,12210.171814,W,1,12,0.5,17.3,M,-27.9,M,,*78
,1646709762005
NMEA,$GNRMC,032242.00,A,3725.786294,N,12210.171814,W,0.7,123.2,080322,15.0,E,A,V*73
,1646709762006
NMEA,$AIDSTAT,0,0,0,2,-6,23,3*00
,1646709762927
Raw,2615524,2302070000000,,,-1330742678359875843,0.36168622970581055,32.958141673589125,3.4944450014817483,10.475731741705726,8,14,0.0,207,22962359933503,7,37.9,63.453529357910156,0.2190999984741211,0,0.0,0.0,,,,,0,,3,0.0,
Raw,2615524,2302070000000,,,-1330742678359875843,0.36168622970581055,32.958141673589125,3.4944450014817483,10.475731741705726,8,22,0.0,207,22962349218027,40,21.7,490.3365783691406,1.059999942779541,0,0.0,0.0,,,,,0,,3,0.0,
Raw,2615524,2302070000000,,,-1330742678359875843,0.36168622970581055,32.958141673589125,3.4944450014817483,10.475731741705726,8,13,0.0,207,22962356689562,21,26.9,714.4232177734375,0.3352000117301941,0,0.0,0.0,,,,,0,,3,0.0,
Raw,2615524,2302070000000,,,-1330742678359875843,0.36168622970581055,32.958141673589125,3.4944450014817483,10.475731741705726,8,15,0.0,207,22962351587254,11,33.5,-549.0003662109375,0.2394000142812729,0,0.0,0.0,,,,,0,,3,0.0,
Raw,2615524,2302070000000,,,-1330742678359875843,0.36168622970581055,32.958141673589125,3.4944450014817483,10.475731741705726,8,1,0.0,207,22962356545373,16,29.1,-709.7169189453125,0.2506999969482422,0,0.0,0.0,,,,,0,,3,0.0,
Raw,2615524,2302070000000,,,-1330742678359875843,0.36168622970581055,32.958141673589125,3.4944450014817483,10.475731741705726,8,24,0.0,207,22962360892655,21,26.0,-240.588134765625,0.31119999289512634,0,0.0,0.0,,,,,0,,3,0.0,
Raw,2615525,2302070000000,,,-1330742678359875843,0.36168622970581055,32.958141673589125,3.4944450014817483,10.475731741705726,8,23,0.0,207,22962361899363,24,25.9,166.14244079589844,0.8180000185966492,0,0.0,0.0,,,,,0,,3,0.0,
Raw,2615525,2302070000000,,,-1330742678359875843,0.36168622970581055,32.958141673589125,3.4944450014817483,10.475731741705726,8,17,0.0,207,22962349399046,53,19.1,-484.5266418457031,1.2100000381469727,0,0.0,0.0,,,,,0,,3,0.0,
Raw,2615525,2302070000000,,,-1330742678359875843,0.36168622970581055,32.958141673589125,3.4944450014817483,10.475731741705726,8,7,0.0,207,22962353589570,21,26.6,424.6114196777344,0.33070001006126404,0,0.0,0.0,,,,,0,,3,0.0,
Raw,2615525,2302070000000,,,-1330742678359875843,0.36168622970581055,32.958141673589125,3.4944450014817483,10.475731741705726,8,8,0.0,207,22962359568380,6,39.1,-190.13194274902344,0.24809999763965607,0,0.0,0.0,,,,,0,,3,0.0,
Raw,2615525,2302070000000,,,-1330742678359875843,0.36168622970581055,32.958141673589125,3.4944450014817483,10.475731741705726,8,2,0.0,15,184980348933327,9,35.0,460.365966796875,0.03360000252723694,0,0.0,0.0,,,,,0,,1,0.0,
Raw,2615525,2302070000000,,,-1330742678359875843,0.36168622970581055,32.958141673589125,3.4944450014817483,10.475731741705726,8,5,0.0,15,184980360558917,9,35.7,154.8632049560547,0.02160000056028366,0,0.0,0.0,,,,,0,,1,0.0,
Raw,2615525,2302070000000,,,-1330742678359875843,0.36168622970581055,32.958141673589125,3.4944450014817483,10.475731741705726,8,12,0.0,15,184980351272956,6,39.7,713.4480590820312,0.03610000014305115,0,0.0,0.0,,,,,0,,1,0.0,
Raw,2615525,2302070000000,,,-1330742678359875843,0.36168622970581055,32.958141673589125,3.4944450014817483,10.475731741705726,8,15,0.0,15,184980347451322,61,18.0,-590.5098266601562,0.9269999861717224,0,0.0,0.0,,,,,0,,1,0.0,
Raw,2615525,2302070000000,,,-1330742678359875843,0.36168622970581055,32.958141673589125,3.4944450014817483,10.475731741705726,8,18,0.0,15,184980357000462,13,31.2,-364.7024230957031,0.050700001418590546,0,0.0,0.0,,,,,0,,1,0.0,
Raw,2615525,2302070000000,,,-1330742678359875843,0.36168622970581055,32.958141673589125,3.4944450014817483,10.475731741705726,8,20,0.0,15,184980355808885,9,35.6,460.87017822265625,0.04410000145435333,0,0.0,0.0,,,,,0,,1,0.0,
Raw,2615525,2302070000000,,,-1330742678359875843,0.36168622970581055,32.958141673589125,3.4944450014817483,10.475731741705726,8,23,0.0,15,184980347849151,6,39.4,-715.0387573242188,0.030100001022219658,0,0.0,0.0,,,,,0,,1,0.0,
Raw,2615525,2302070000000,,,-1330742678359875843,0.36168622970581055,32.958141673589125,3.4944450014817483,10.475731741705726,8,25,0.0,15,184980359078523,5,40.3,462.5095520019531,0.0479000024497509,0,0.0,0.0,,,,,0,,1,0.0,
Raw,2615525,2302070000000,,,-1330742678359875843,0.36168622970581055,32.958141673589125,3.4944450014817483,10.475731741705726,8,26,0.0,15,184980350533533,24,25.9,-502.7940673828125,0.3968000113964081,0,0.0,0.0,,,,,0,,1,0.0,
Raw,2615526,2302070000000,,,-1330742678359875843,0.36168622970581055,32.958141673589125,3.4944450014817483,10.475731741705726,8,29,0.0,15,184980361040011,10,34.1,-155.30581665039062,0.023600000888109207,0,0.0,0.0,,,,,0,,1,0.0,
Raw,2615526,2302070000000,,,-1330742678359875843,0.36168622970581055,32.958141673589125,3.4944450014817483,10.475731741705726,8,31,0.0,15,184980346461520,10,34.1,343.2144775390625,0.03110000118613243,0,0.0,0.0,,,,,0,,1,0.0,
NMEA,$GPGSV,3,1,12,02,21,059,35,05,58,075,36,12,23,164,40,15,09,144,18,1*61
,1646709763008
NMEA,$GPGSV,3,2,12,18,41,262,31,20,35,050,36,23,10,201,39,25,52,199,40,1*66
,1646709763009
NMEA,$GPGSV,3,3,12,26,16,314,26,29,67,350,34,31,09,274,34,13,04,112,,1*64
,1646709763010
NMEA,$GLGSV,3,1,10,78,39,284,38,86,05,074,22,77,27,215,27,79,10,331,34,1*7C
,1646709763010
NMEA,$GLGSV,3,2,10,65,26,143,29,88,43,312,26,87,48,023,26,81,03,277,19,1*77
,1646709763011
NMEA,$GLGSV,3,3,10,71,17,033,27,72,38,084,39,1*74
,1646709763011
NMEA,$GAGSV,1,1,0,7*43
,1646709763012
NMEA,$PQGSV,1,1,0,0*43
,1646709763012
NMEA,$GBGSV,1,1,0,0*47
,1646709763016
Fix,gps,37.429773,-122.169529,-10.915619,0.000000,3.216000,1646709763000
NMEA,$GNGSA,A,3,02,05,12,15,18,20,23,25,26,29,31,,0.9,0.5,0.7,1*3A
,1646709763025
NMEA,$GNGSA,A,3,65,71,72,77,78,79,86,87,88,,,,0.9,0.5,0.7,2*39
,1646709763025
NMEA,$GNVTG,,T,,M,0.0,N,0.0,K,A*3D
,1646709763026
NMEA,$GNGGA,032243.00,3725.786387,N,12210.171742,W,1,12,0.5,17.0,M,-27.9,M,,*75
,1646709763026
NMEA,$GNRMC,032243.00,A,3725.786387,N,12210.171742,W,0.0,,080322,15.0,E,A,V*56
,1646709763026
NMEA,$AIDSTAT,0,0,0,2,-11,23,3*00
,1646709763926
Fix,gps,37.429774,-122.169528,-10.886932,0.000000,3.216000,1646709764000
Raw,2616540,2303070000000,,,-1330742678359875842,0.8965058326721191,33.48788231960498,5.634756106327925,9.49975131257878,8,14,0.0,207,22963359933282,6,39.0,64.36927032470703,0.21809999644756317,0,0.0,0.0,,,,,0,,3,0.0,
Raw,2616540,2303070000000,,,-1330742678359875842,0.8965058326721191,33.48788231960498,5.634756106327925,9.49975131257878,8,22,0.0,207,22963349216397,40,21.0,492.2661437988281,1.059999942779541,0,0.0,0.0,,,,,0,,3,0.0,
Raw,2616540,2303070000000,,,-1330742678359875842,0.8965058326721191,33.48788231960498,5.634756106327925,9.49975131257878,8,13,0.0,207,22963356687175,24,25.7,715.3370361328125,0.6057999730110168,0,0.0,0.0,,,,,0,,3,0.0,
Raw,2616540,2303070000000,,,-1330742678359875842,0.8965058326721191,33.48788231960498,5.634756106327925,9.49975131257878,8,15,0.0,207,22963351589031,9,35.0,-548.0505981445312,0.23810000717639923,0,0.0,0.0,,,,,0,,3,0.0,
Raw,2616540,2303070000000,,,-1330742678359875842,0.8965058326721191,33.48788231960498,5.634756106327925,9.49975131257878,8,1,0.0,207,22963356547707,14,30.4,-708.8434448242188,0.24979999661445618,0,0.0,0.0,,,,,0,,3,0.0,
Raw,2616540,2303070000000,,,-1330742678359875842,0.8965058326721191,33.48788231960498,5.634756106327925,9.49975131257878,8,24,0.0,207,22963360893456,21,26.7,-239.89208984375,0.31119999289512634,0,0.0,0.0,,,,,0,,3,0.0,
Raw,2616541,2303070000000,,,-1330742678359875842,0.8965058326721191,33.48788231960498,5.634756106327925,9.49975131257878,8,23,0.0,207,22963361898832,19,27.9,167.33993530273438,0.2428000122308731,0,0.0,0.0,,,,,0,,3,0.0,
Raw,2616541,2303070000000,,,-1330742678359875842,0.8965058326721191,33.48788231960498,5.634756106327925,9.49975131257878,8,17,0.0,207,22963349400719,40,21.0,-483.5175476074219,1.059999942779541,0,0.0,0.0,,,,,0,,3,0.0,
Raw,2616541,2303070000000,,,-1330742678359875842,0.8965058326721191,33.48788231960498,5.634756106327925,9.49975131257878,8,7,0.0,207,22963353588011,24,25.8,425.4525451660156,0.6013000011444092,0,0.0,0.0,,,,,0,,3,0.0,
Raw,2616541,2303070000000,,,-1330742678359875842,0.8965058326721191,33.48788231960498,5.634756106327925,9.49975131257878,8,8,0.0,207,22963359569012,6,39.9,-189.1726531982422,0.24809999763965607,0,0.0,0.0,,,,,0,,3,0.0,
Raw,2616541,2303070000000,,,-1330742678359875842,0.8965058326721191,33.48788231960498,5.634756106327925,9.49975131257878,8,2,0.0,15,184981348931778,9,35.2,461.0997314453125,0.03360000252723694,0,0.0,0.0,,,,,0,,1,0.0,
Raw,2616541,2303070000000,,,-1330742678359875842,0.8965058326721191,33.48788231960498,5.634756106327925,9.49975131257878,8,5,0.0,15,184981360558394,8,36.7,155.70358276367188,0.02120000123977661,0,0.0,0.0,,,,,0,,1,0.0,
Raw,2616541,2303070000000,,,-1330742678359875842,0.8965058326721191,33.48788231960498,5.634756106327925,9.49975131257878,8,12,0.0,15,184981351270586,6,38.8,714.2234497070312,0.03660000115633011,0,0.0,0.0,,,,,0,,1,0.0,
Raw,2616541,2303070000000,,,-1330742678359875842,0.8965058326721191,33.48788231960498,5.634756106327925,9.49975131257878,8,15,0.0,15,184981347453292,69,18.0,-590.5098266601562,2.427000045776367,0,0.0,0.0,,,,,0,,1,0.0,
Raw,2616541,2303070000000,,,-1330742678359875842,0.8965058326721191,33.48788231960498,5.634756106327925,9.49975131257878,8,18,0.0,15,184981357001651,13,31.0,-363.82421875,0.050700001418590546,0,0.0,0.0,,,,,0,,1,0.0,
Raw,2616541,2303070000000,,,-1330742678359875842,0.8965058326721191,33.48788231960498,5.634756106327925,9.49975131257878,8,20,0.0,15,184981355807341,9,35.8,461.7299499511719,0.04410000145435333,0,0.0,0.0,,,,,0,,1,0.0,
Raw,2616541,2303070000000,,,-1330742678359875842,0.8965058326721191,33.48788231960498,5.634756106327925,9.49975131257878,8,23,0.0,15,184981347851546,6,38.8,-714.2243041992188,0.03060000203549862,0,0.0,0.0,,,,,0,,1,0.0,
Raw,2616541,2303070000000,,,-1330742678359875842,0.8965058326721191,33.48788231960498,5.634756106327925,9.49975131257878,8,25,0.0,15,184981359076978,5,40.8,463.4024353027344,0.0479000024497509,0,0.0,0.0,,,,,0,,1,0.0,
Raw,2616542,2303070000000,,,-1330742678359875842,0.8965058326721191,33.48788231960498,5.634756106327925,9.49975131257878,8,26,0.0,15,184981350535201,35,22.9,-501.8900146484375,0.6814999580383301,0,0.0,0.0,,,,,0,,1,0.0,
Raw,2616542,2303070000000,,,-1330742678359875842,0.8965058326721191,33.48788231960498,5.634756106327925,9.49975131257878,8,29,0.0,15,184981361040520,10,34.6,-154.54534912109375,0.023600000888109207,0,0.0,0.0,,,,,0,,1,0.0,
Raw,2616542,2303070000000,,,-1330742678359875842,0.8965058326721191,33.48788231960498,5.634756106327925,9.49975131257878,8,31,0.0,15,184981346460372,9,35.7,344.0539245605469,0.03060000203549862,0,0.0,0.0,,,,,0,,1,0.0,
NMEA,$GPGSV,3,1,12,02,21,059,35,05,58,075,37,12,23,164,39,15,09,144,18,1*6E
,1646709764004
NMEA,$GPGSV,3,2,12,18,41,262,31,20,35,050,36,23,10,201,39,25,52,199,41,1*67
,1646709764005
NMEA,$GPGSV,3,3,12,26,16,314,23,29,67,350,35,31,09,274,36,13,04,112,,1*62
,1646709764005
NMEA,$GLGSV,3,1,10,78,39,284,39,86,05,074,21,77,27,215,26,79,10,331,35,1*7E
,1646709764005
NMEA,$GLGSV,3,2,10,65,26,143,30,88,43,312,27,87,48,023,28,81,03,277,21,1*7B
,1646709764005
NMEA,$GLGSV,3,3,10,71,17,033,26,72,38,084,40,1*7B
,1646709764005
NMEA,$GAGSV,1,1,0,7*43
,1646709764005
NMEA,$PQGSV,1,1,0,0*43
,1646709764005
NMEA,$GBGSV,1,1,0,0*47
,1646709764005
NMEA,$GNGSA,A,3,02,05,12,15,18,20,23,25,26,29,31,,0.9,0.5,0.7,1*3A
,1646709764010
NMEA,$GNGSA,A,3,65,71,72,77,78,79,86,87,88,,,,0.9,0.5,0.7,2*39
,1646709764010
NMEA,$GNVTG,,T,,M,0.0,N,0.0,K,A*3D
,1646709764010
NMEA,$GNGGA,032244.00,3725.786457,N,12210.171700,W,1,12,0.5,17.0,M,-27.9,M,,*7E
,1646709764011
NMEA,$GNRMC,032244.00,A,3725.786457,N,12210.171700,W,0.0,,080322,15.0,E,A,V*5D
,1646709764011
NMEA,$AIDSTAT,0,0,0,2,,23,3*00
,1646709764927
Raw,2617531,2304070000000,,,-1330742678359875834,0.9282317161560059,35.30508911353536,8.24020707830143,9.499507957273275,8,14,0.0,207,22964359933056,6,39.8,65.67823791503906,0.21809999644756317,0,0.0,0.0,,,,,0,,3,0.0,
Raw,2617531,2304070000000,,,-1330742678359875834,0.9282317161560059,35.30508911353536,8.24020707830143,9.499507957273275,8,22,0.0,207,22964349214996,46,20.7,492.71575927734375,1.1299999952316284,0,0.0,0.0,,,,,0,,3,0.0,
Raw,2617531,2304070000000,,,-1330742678359875834,0.9282317161560059,35.30508911353536,8.24020707830143,9.499507957273275,8,13,0.0,207,22964356684769,21,26.6,716.4282836914062,0.3352000117301941,0,0.0,0.0,,,,,0,,3,0.0,
Raw,2617531,2304070000000,,,-1330742678359875834,0.9282317161560059,35.30508911353536,8.24020707830143,9.499507957273275,8,15,0.0,207,22964351590854,8,36.2,-546.8160400390625,0.23770001530647278,0,0.0,0.0,,,,,0,,3,0.0,
Raw,2617531,2304070000000,,,-1330742678359875834,0.9282317161560059,35.30508911353536,8.24020707830143,9.499507957273275,8,1,0.0,207,22964356550067,13,31.3,-707.73046875,0.2492000013589859,0,0.0,0.0,,,,,0,,3,0.0,
Raw,2617531,2304070000000,,,-1330742678359875834,0.9282317161560059,35.30508911353536,8.24020707830143,9.499507957273275,8,24,0.0,207,22964360894159,16,29.1,-238.61007690429688,0.22669999301433563,0,0.0,0.0,,,,,0,,3,0.0,
Raw,2617531,2304070000000,,,-1330742678359875834,0.9282317161560059,35.30508911353536,8.24020707830143,9.499507957273275,8,23,0.0,207,22964361898275,17,28.1,168.5145721435547,0.23480001091957092,0,0.0,0.0,,,,,0,,3,0.0,
Raw,2617531,2304070000000,,,-1330742678359875834,0.9282317161560059,35.30508911353536,8.24020707830143,9.499507957273275,8,17,0.0,207,22964349402309,40,21.2,-482.4336853027344,1.059999942779541,0,0.0,0.0,,,,,0,,3,0.0,
Raw,2617532,2304070000000,,,-1330742678359875834,0.9282317161560059,35.30508911353536,8.24020707830143,9.499507957273275,8,7,0.0,207,22964353586501,21,26.6,426.68621826171875,0.33070001006126404,0,0.0,0.0,,,,,0,,3,0.0,
Raw,2617532,2304070000000,,,-1330742678359875834,0.9282317161560059,35.30508911353536,8.24020707830143,9.499507957273275,8,8,0.0,207,22964359569652,5,40.6,-187.92674255371094,0.24790000915527344,0,0.0,0.0,,,,,0,,3,0.0,
Raw,2617532,2304070000000,,,-1330742678359875834,0.9282317161560059,35.30508911353536,8.24020707830143,9.499507957273275,8,2,0.0,15,184982348930256,9,35.5,462.2134704589844,0.03360000252723694,0,0.0,0.0,,,,,0,,1,0.0,
Raw,2617532,2304070000000,,,-1330742678359875834,0.9282317161560059,35.30508911353536,8.24020707830143,9.499507957273275,8,5,0.0,15,184982360557873,7,37.0,156.981689453125,0.020600000396370888,0,0.0,0.0,,,,,0,,1,0.0,
Raw,2617532,2304070000000,,,-1330742678359875834,0.9282317161560059,35.30508911353536,8.24020707830143,9.499507957273275,8,12,0.0,15,184982351268200,6,38.4,715.40673828125,0.03660000115633011,0,0.0,0.0,,,,,0,,1,0.0,
Raw,2617532,2304070000000,,,-1330742678359875834,0.9282317161560059,35.30508911353536,8.24020707830143,9.499507957273275,8,15,0.0,15,184982347454958,84,16.5,-587.4651489257812,1.8370000123977661,0,0.0,0.0,,,,,0,,1,0.0,
Raw,2617532,2304070000000,,,-1330742678359875834,0.9282317161560059,35.30508911353536,8.24020707830143,9.499507957273275,8,18,0.0,15,184982357002894,16,29.8,-362.68121337890625,0.05220000073313713,0,0.0,0.0,,,,,0,,1,0.0,
Raw,2617532,2304070000000,,,-1330742678359875834,0.9282317161560059,35.30508911353536,8.24020707830143,9.499507957273275,8,20,0.0,15,184982355805794,8,36.2,462.8573303222656,0.04370000213384628,0,0.0,0.0,,,,,0,,1,0.0,
Raw,2617532,2304070000000,,,-1330742678359875834,0.9282317161560059,35.30508911353536,8.24020707830143,9.499507957273275,8,23,0.0,15,184982347853918,6,39.7,-713.089111328125,0.030100001022219658,0,0.0,0.0,,,,,0,,1,0.0,
Raw,2617532,2304070000000,,,-1330742678359875834,0.9282317161560059,35.30508911353536,8.24020707830143,9.499507957273275,8,25,0.0,15,184982359075431,5,41.0,464.5912170410156,0.047600001096725464,0,0.0,0.0,,,,,0,,1,0.0,
Raw,2617532,2304070000000,,,-1330742678359875834,0.9282317161560059,35.30508911353536,8.24020707830143,9.499507957273275,8,26,0.0,15,184982350536911,35,22.1,-500.6150817871094,0.6814999580383301,0,0.0,0.0,,,,,0,,1,0.0,
Raw,2617532,2304070000000,,,-1330742678359875834,0.9282317161560059,35.30508911353536,8.24020707830143,9.499507957273275,8,29,0.0,15,184982361041052,10,34.9,-153.3065643310547,0.023600000888109207,0,0.0,0.0,,,,,0,,1,0.0,
Raw,2617532,2304070000000,,,-1330742678359875834,0.9282317161560059,35.30508911353536,8.24020707830143,9.499507957273275,8,31,0.0,15,184982346459213,8,36.3,345.2865295410156,0.03020000085234642,0,0.0,0.0,,,,,0,,1,0.0,
Fix,gps,37.429775,-122.169527,-10.951324,0.000000,3.216000,1646709765000
NMEA,$GPGSV,3,1,12,02,21,059,36,05,58,075,37,12,23,164,38,15,09,144,17,1*63
,1646709765006
NMEA,$GPGSV,3,2,12,18,41,262,30,20,35,050,36,23,10,201,40,25,52,199,41,1*68
,1646709765007
NMEA,$GPGSV,3,3,12,26,16,314,22,29,67,350,35,31,09,274,36,13,04,112,,1*63
,1646709765007
NMEA,$GLGSV,3,1,10,78,39,284,40,86,05,074,21,77,27,215,27,79,10,331,36,1*72
,1646709765007
NMEA,$GLGSV,3,2,10,65,26,143,31,88,43,312,29,87,48,023,28,81,03,277,21,1*74
,1646709765007
NMEA,$GLGSV,3,3,10,71,17,033,27,72,38,084,41,1*7B
,1646709765008
NMEA,$GAGSV,1,1,0,7*43
,1646709765010
NMEA,$PQGSV,1,1,0,0*43
,1646709765010
NMEA,$GBGSV,1,1,0,0*47
,1646709765011
NMEA,$GNGSA,A,3,02,05,12,15,18,20,23,25,26,29,31,,0.9,0.5,0.7,1*3A
,1646709765018
NMEA,$GNGSA,A,3,65,71,72,77,78,79,86,87,88,,,,0.9,0.5,0.7,2*39
,1646709765018
NMEA,$GNVTG,,T,,M,0.0,N,0.0,K,A*3D
,1646709765019
NMEA,$GNGGA,032245.00,3725.786489,N,12210.171643,W,1,12,0.5,17.0,M,-27.9,M,,*7A
,1646709765019
NMEA,$GNRMC,032245.00,A,3725.786489,N,12210.171643,W,0.0,,080322,15.0,E,A,V*59
,1646709765019
NMEA,$AIDSTAT,0,0,0,2,0,23,3*00
,1646709765928
Fix,gps,37.429775,-122.169527,-10.864441,0.000000,3.216000,1646709766000
Raw,2618543,2305070000000,,,-1330742678359875819,0.7697882652282715,34.89771916065365,11.982925786880678,10.476983510499409,8,14,0.0,207,22965359932832,5,40.0,65.21336364746094,0.21790000796318054,0,0.0,0.0,,,,,0,,3,0.0,
Raw,2618543,2305070000000,,,-1330742678359875819,0.7697882652282715,34.89771916065365,11.982925786880678,10.476983510499409,8,22,0.0,207,22965349213186,61,18.6,492.11627197265625,1.2899999618530273,0,0.0,0.0,,,,,0,,3,0.0,
Raw,2618543,2305070000000,,,-1330742678359875819,0.7697882652282715,34.89771916065365,11.982925786880678,10.476983510499409,8,13,0.0,207,22965356682390,24,25.9,715.8984985351562,0.6057999730110168,0,0.0,0.0,,,,,0,,3,0.0,
Raw,2618544,2305070000000,,,-1330742678359875819,0.7697882652282715,34.89771916065365,11.982925786880678,10.476983510499409,8,15,0.0,207,22965351592672,9,35.8,-547.34765625,0.23810000717639923,0,0.0,0.0,,,,,0,,3,0.0,
Raw,2618544,2305070000000,,,-1330742678359875819,0.7697882652282715,34.89771916065365,11.982925786880678,10.476983510499409,8,1,0.0,207,22965356552402,13,31.6,-708.2626342773438,0.2492000013589859,0,0.0,0.0,,,,,0,,3,0.0,
Raw,2618544,2305070000000,,,-1330742678359875819,0.7697882652282715,34.89771916065365,11.982925786880678,10.476983510499409,8,24,0.0,207,22965360894958,16,29.8,-239.2777862548828,0.22669999301433563,0,0.0,0.0,,,,,0,,3,0.0,
Raw,2618544,2305070000000,,,-1330742678359875819,0.7697882652282715,34.89771916065365,11.982925786880678,10.476983510499409,8,23,0.0,207,22965361897738,19,27.9,167.84097290039062,0.2428000122308731,0,0.0,0.0,,,,,0,,3,0.0,
Raw,2618544,2305070000000,,,-1330742678359875819,0.7697882652282715,34.89771916065365,11.982925786880678,10.476983510499409,8,17,0.0,207,22965349404044,61,18.7,-483.49884033203125,1.2899999618530273,0,0.0,0.0,,,,,0,,3,0.0,
Raw,2618544,2305070000000,,,-1330742678359875819,0.7697882652282715,34.89771916065365,11.982925786880678,10.476983510499409,8,7,0.0,207,22965353585041,21,26.3,426.205810546875,0.33070001006126404,0,0.0,0.0,,,,,0,,3,0.0,
Raw,2618544,2305070000000,,,-1330742678359875819,0.7697882652282715,34.89771916065365,11.982925786880678,10.476983510499409,8,8,0.0,207,22965359570287,5,40.3,-188.37429809570312,0.24790000915527344,0,0.0,0.0,,,,,0,,3,0.0,
Raw,2618544,2305070000000,,,-1330742678359875819,0.7697882652282715,34.89771916065365,11.982925786880678,10.476983510499409,8,2,0.0,15,184983348928713,9,35.3,461.5834045410156,0.03360000252723694,0,0.0,0.0,,,,,0,,1,0.0,
Raw,2618544,2305070000000,,,-1330742678359875819,0.7697882652282715,34.89771916065365,11.982925786880678,10.476983510499409,8,5,0.0,15,184983360557365,8,36.7,156.4748077392578,0.02120000123977661,0,0.0,0.0,,,,,0,,1,0.0,
Raw,2618544,2305070000000,,,-1330742678359875819,0.7697882652282715,34.89771916065365,11.982925786880678,10.476983510499409,8,12,0.0,15,184983351265815,6,38.4,714.7882080078125,0.03660000115633011,0,0.0,0.0,,,,,0,,1,0.0,
Raw,2618544,2305070000000,,,-1330742678359875819,0.7697882652282715,34.89771916065365,11.982925786880678,10.476983510499409,8,15,0.0,15,184983347456917,97,16.5,-587.4651489257812,3.3370001316070557,0,0.0,0.0,,,,,0,,1,0.0,
Raw,2618544,2305070000000,,,-1330742678359875819,0.7697882652282715,34.89771916065365,11.982925786880678,10.476983510499409,8,18,0.0,15,184983357004107,16,29.0,-363.2396545410156,0.05220000073313713,0,0.0,0.0,,,,,0,,1,0.0,
Raw,2618544,2305070000000,,,-1330742678359875819,0.7697882652282715,34.89771916065365,11.982925786880678,10.476983510499409,8,20,0.0,15,184983355804221,8,36.7,462.37335205078125,0.04370000213384628,0,0.0,0.0,,,,,0,,1,0.0,
Raw,2618544,2305070000000,,,-1330742678359875819,0.7697882652282715,34.89771916065365,11.982925786880678,10.476983510499409,8,23,0.0,15,184983347856289,6,39.7,-713.688720703125,0.030100001022219658,0,0.0,0.0,,,,,0,,1,0.0,
Raw,2618544,2305070000000,,,-1330742678359875819,0.7697882652282715,34.89771916065365,11.982925786880678,10.476983510499409,8,25,0.0,15,184983359073880,5,41.0,464.07537841796875,0.047600001096725464,0,0.0,0.0,,,,,0,,1,0.0,
Raw,2618544,2305070000000,,,-1330742678359875819,0.7697882652282715,34.89771916065365,11.982925786880678,10.476983510499409,8,26,0.0,15,184983350538583,40,21.1,-501.2715759277344,0.7414999604225159,0,0.0,0.0,,,,,0,,1,0.0,
Raw,2618544,2305070000000,,,-1330742678359875819,0.7697882652282715,34.89771916065365,11.982925786880678,10.476983510499409,8,29,0.0,15,184983361041568,10,34.7,-153.90847778320312,0.023600000888109207,0,0.0,0.0,,,,,0,,1,0.0,
Raw,2618544,2305070000000,,,-1330742678359875819,0.7697882652282715,34.89771916065365,11.982925786880678,10.476983510499409,8,31,0.0,15,184983346458058,8,36.1,344.67755126953125,0.03020000085234642,0,0.0,0.0,,,,,0,,1,0.0,
NMEA,$GPGSV,3,1,12,02,21,059,35,05,58,075,37,12,23,164,38,15,09,144,17,1*60
,1646709766011
NMEA,$GPGSV,3,2,12,18,41,262,29,20,35,050,37,23,10,201,40,25,52,199,41,1*61
,1646709766012
NMEA,$GPGSV,3,3,12,26,16,314,21,29,67,350,35,31,09,274,36,13,04,112,,1*60
,1646709766012
NMEA,$GLGSV,3,1,10,78,39,284,40,86,05,074,19,77,27,215,26,79,10,331,36,1*78
,1646709766012
NMEA,$GLGSV,3,2,10,65,26,143,32,88,43,312,30,87,48,023,28,81,03,277,19,1*74
,1646709766013
NMEA,$GLGSV,3,3,10,71,17,033,26,72,38,084,40,1*7B
,1646709766013
NMEA,$GAGSV,1,1,0,7*43
,1646709766014
NMEA,$PQGSV,1,1,0,0*43
,1646709766014
NMEA,$GBGSV,1,1,0,0*47
,1646709766014
NMEA,$GNGSA,A,3,02,05,12,18,20,23,25,26,29,31,,,0.9,0.6,0.7,1*3D
,1646709766020
NMEA,$GNGSA,A,3,65,71,72,77,78,79,86,87,88,,,,0.9,0.6,0.7,2*3A
,1646709766021
NMEA,$GNVTG,,T,,M,0.0,N,0.0,K,A*3D
,1646709766021
NMEA,$GNGGA,032246.00,3725.786498,N,12210.171607,W,1,12,0.6,17.1,M,-27.9,M,,*7B
,1646709766021
NMEA,$GNRMC,032246.00,A,3725.786498,N,12210.171607,W,0.0,,080322,15.0,E,A,V*5A
,1646709766021
NMEA,$AIDSTAT,0,0,0,2,-7,23,3*00
,1646709766927
NMEA,$GPGSV,3,1,12,02,21,059,35,05,58,075,36,12,23,164,38,15,09,144,17,1*61
,1646709767007
NMEA,$GPGSV,3,2,12,18,41,262,28,20,35,050,37,23,10,201,39,25,52,199,40,1*6F
,1646709767007
NMEA,$GPGSV,3,3,12,26,16,314,21,29,67,350,34,31,09,274,36,13,04,112,,1*61
,1646709767008
NMEA,$GLGSV,3,1,10,78,39,284,39,86,05,074,19,77,27,215,26,79,10,331,35,1*75
,1646709767008
NMEA,$GLGSV,3,2,10,65,26,143,31,88,43,312,30,87,48,023,26,81,03,277,19,1*79
,1646709767008
NMEA,$GLGSV,3,3,10,71,17,033,26,72,38,084,40,1*7B
,1646709767008
NMEA,$GAGSV,1,1,0,7*43
,1646709767009
NMEA,$PQGSV,1,1,0,0*43
,1646709767009
NMEA,$GBGSV,1,1,0,0*47
,1646709767009
Raw,2619569,2306070000000,,,-1330742678359875805,0.05417346954345703,33.522985177114606,9.902361988290794,10.4769771482692,8,14,0.0,207,22966359932567,6,39.4,65.57264709472656,0.21809999644756317,0,0.0,0.0,,,,,0,,3,0.0,
Raw,2619569,2306070000000,,,-1330742678359875805,0.05417346954345703,33.522985177114606,9.902361988290794,10.4769771482692,8,22,0.0,207,22966349211609,53,19.4,491.94769287109375,1.2100000381469727,0,0.0,0.0,,,,,0,,3,0.0,
Raw,2619569,2306070000000,,,-1330742678359875805,0.05417346954345703,33.522985177114606,9.902361988290794,10.4769771482692,8,13,0.0,207,22966356680016,24,25.5,716.0797729492188,0.6057999730110168,0,0.0,0.0,,,,,0,,3,0.0,
Raw,2619569,2306070000000,,,-1330742678359875805,0.05417346954345703,33.522985177114606,9.902361988290794,10.4769771482692,8,15,0.0,207,22966351594497,9,35.2,-547.0501098632812,0.23810000717639923,0,0.0,0.0,,,,,0,,3,0.0,
Raw,2619569,2306070000000,,,-1330742678359875805,0.05417346954345703,33.522985177114606,9.902361988290794,10.4769771482692,8,1,0.0,207,22966356554789,13,31.3,-707.9922485351562,0.2492000013589859,0,0.0,0.0,,,,,0,,3,0.0,
Raw,2619570,2306070000000,,,-1330742678359875805,0.05417346954345703,33.522985177114606,9.902361988290794,10.4769771482692,8,24,0.0,207,22966360895828,16,29.6,-239.0192413330078,0.22669999301433563,0,0.0,0.0,,,,,0,,3,0.0,
Raw,2619570,2306070000000,,,-1330742678359875805,0.05417346954345703,33.522985177114606,9.902361988290794,10.4769771482692,8,23,0.0,207,22966361897215,21,26.4,168.05104064941406,0.3127000033855438,0,0.0,0.0,,,,,0,,3,0.0,
Raw,2619570,2306070000000,,,-1330742678359875805,0.05417346954345703,33.522985177114606,9.902361988290794,10.4769771482692,8,17,0.0,207,22966349405657,70,18.7,-483.49884033203125,2.7899999618530273,0,0.0,0.0,,,,,0,,3,0.0,
Raw,2619570,2306070000000,,,-1330742678359875805,0.05417346954345703,33.522985177114606,9.902361988290794,10.4769771482692,8,7,0.0,207,22966353583772,24,25.7,426.6025390625,0.6013000011444092,0,0.0,0.0,,,,,0,,3,0.0,
Raw,2619570,2306070000000,,,-1330742678359875805,0.05417346954345703,33.522985177114606,9.902361988290794,10.4769771482692,8,8,0.0,207,22966359570923,5,40.0,-188.0189666748047,0.24790000915527344,0,0.0,0.0,,,,,0,,3,0.0,
Raw,2619570,2306070000000,,,-1330742678359875805,0.05417346954345703,33.522985177114606,9.902361988290794,10.4769771482692,8,2,0.0,15,184984348927181,10,34.8,461.7641296386719,0.0340999998152256,0,0.0,0.0,,,,,0,,1,0.0,
Raw,2619570,2306070000000,,,-1330742678359875805,0.05417346954345703,33.522985177114606,9.902361988290794,10.4769771482692,8,5,0.0,15,184984360556849,8,36.0,156.78152465820312,0.02120000123977661,0,0.0,0.0,,,,,0,,1,0.0,
Raw,2619570,2306070000000,,,-1330742678359875805,0.05417346954345703,33.522985177114606,9.902361988290794,10.4769771482692,8,12,0.0,15,184984351263437,6,38.1,715.0146484375,0.03660000115633011,0,0.0,0.0,,,,,0,,1,0.0,
Raw,2619570,2306070000000,,,-1330742678359875805,0.05417346954345703,33.522985177114606,9.902361988290794,10.4769771482692,8,15,0.0,15,184984347458877,121,16.5,-587.4651489257812,4.836999893188477,0,0.0,0.0,,,,,0,,1,0.0,
Raw,2619570,2306070000000,,,-1330742678359875805,0.05417346954345703,33.522985177114606,9.902361988290794,10.4769771482692,8,18,0.0,15,184984357005372,19,27.9,-362.9853515625,0.06680000573396683,0,0.0,0.0,,,,,0,,1,0.0,
Raw,2619570,2306070000000,,,-1330742678359875805,0.05417346954345703,33.522985177114606,9.902361988290794,10.4769771482692,8,20,0.0,15,184984355802657,8,36.7,462.6353759765625,0.04370000213384628,0,0.0,0.0,,,,,0,,1,0.0,
Raw,2619570,2306070000000,,,-1330742678359875805,0.05417346954345703,33.522985177114606,9.902361988290794,10.4769771482692,8,23,0.0,15,184984347858680,6,39.4,-713.5064086914062,0.030100001022219658,0,0.0,0.0,,,,,0,,1,0.0,
Raw,2619571,2306070000000,,,-1330742678359875805,0.05417346954345703,33.522985177114606,9.902361988290794,10.4769771482692,8,25,0.0,15,184984359072333,5,40.3,464.36279296875,0.0479000024497509,0,0.0,0.0,,,,,0,,1,0.0,
Raw,2619571,2306070000000,,,-1330742678359875805,0.05417346954345703,33.522985177114606,9.902361988290794,10.4769771482692,8,26,0.0,15,184984350540197,46,20.5,-500.396240234375,0.8014999628067017,0,0.0,0.0,,,,,0,,1,0.0,
Raw,2619571,2306070000000,,,-1330742678359875805,0.05417346954345703,33.522985177114606,9.902361988290794,10.4769771482692,8,29,0.0,15,184984361042063,10,34.3,-153.68141174316406,0.023600000888109207,0,0.0,0.0,,,,,0,,1,0.0,
Raw,2619571,2306070000000,,,-1330742678359875805,0.05417346954345703,33.522985177114606,9.902361988290794,10.4769771482692,8,31,0.0,15,184984346456894,8,36.0,344.95037841796875,0.03020000085234642,0,0.0,0.0,,,,,0,,1,0.0,
Fix,gps,37.429774,-122.169526,-10.897491,0.000000,3.216000,1646709767000
NMEA,$GNGSA,A,3,02,05,12,18,20,23,25,26,29,31,,,0.9,0.6,0.7,1*3D
,1646709767016
NMEA,$GNGSA,A,3,65,71,72,77,78,79,86,87,88,,,,0.9,0.6,0.7,2*3A
,1646709767016
NMEA,$GNVTG,,T,,M,0.0,N,0.0,K,A*3D
,1646709767017
NMEA,$GNGGA,032247.00,3725.786442,N,12210.171535,W,1,12,0.6,17.0,M,-27.9,M,,*7E
,1646709767017
NMEA,$GNRMC,032247.00,A,3725.786442,N,12210.171535,W,0.0,,080322,15.0,E,A,V*5E
,1646709767017
NMEA,$AIDSTAT,0,0,0,2,-12,23,3*00
,1646709767927
Raw,2620551,2307070000000,,,-1330742678359875795,0.544590950012207,36.14134402596392,10.556642609113917,11.453529382836205,8,14,0.0,207,22967359932368,6,39.4,66.1072006225586,0.21809999644756317,0,0.0,0.0,,,,,0,,3,0.0,
Raw,2620551,2307070000000,,,-1330742678359875795,0.544590950012207,36.14134402596392,10.556642609113917,11.453529382836205,8,22,0.0,207,22967349209845,53,19.4,493.3995056152344,1.2100000381469727,0,0.0,0.0,,,,,0,,3,0.0,
Raw,2620551,2307070000000,,,-1330742678359875795,0.544590950012207,36.14134402596392,10.556642609113917,11.453529382836205,8,13,0.0,207,22967356677708,21,26.4,716.6710205078125,0.3352000117301941,0,0.0,0.0,,,,,0,,3,0.0,
Raw,2620551,2307070000000,,,-1330742678359875795,0.544590950012207,36.14134402596392,10.556642609113917,11.453529382836205,8,15,0.0,207,22967351596345,10,34.6,-546.5426635742188,0.2386000156402588,0,0.0,0.0,,,,,0,,3,0.0,
Raw,2620552,2307070000000,,,-1330742678359875795,0.544590950012207,36.14134402596392,10.556642609113917,11.453529382836205,8,1,0.0,207,22967356557143,13,31.3,-707.5637817382812,0.2492000013589859,0,0.0,0.0,,,,,0,,3,0.0,
Raw,2620552,2307070000000,,,-1330742678359875795,0.544590950012207,36.14134402596392,10.556642609113917,11.453529382836205,8,24,0.0,207,22967360896546,17,28.2,-238.5828399658203,0.23330000042915344,0,0.0,0.0,,,,,0,,3,0.0,
Raw,2620552,2307070000000,,,-1330742678359875795,0.544590950012207,36.14134402596392,10.556642609113917,11.453529382836205,8,23,0.0,207,22967361896594,17,28.1,168.5916290283203,0.23480001091957092,0,0.0,0.0,,,,,0,,3,0.0,
Raw,2620552,2307070000000,,,-1330742678359875795,0.544590950012207,36.14134402596392,10.556642609113917,11.453529382836205,8,17,0.0,207,22967349407213,96,15.6,-482.91021728515625,2.320000171661377,0,0.0,0.0,,,,,0,,3,0.0,
Raw,2620552,2307070000000,,,-1330742678359875795,0.544590950012207,36.14134402596392,10.556642609113917,11.453529382836205,8,7,0.0,207,22967353582425,21,26.0,426.9090576171875,0.33070001006126404,0,0.0,0.0,,,,,0,,3,0.0,
Raw,2620552,2307070000000,,,-1330742678359875795,0.544590950012207,36.14134402596392,10.556642609113917,11.453529382836205,8,8,0.0,207,22967359571546,5,40.3,-187.47006225585938,0.24790000915527344,0,0.0,0.0,,,,,0,,3,0.0,
Raw,2620552,2307070000000,,,-1330742678359875795,0.544590950012207,36.14134402596392,10.556642609113917,11.453529382836205,8,2,0.0,15,184985348925643,9,35.5,462.1543273925781,0.03360000252723694,0,0.0,0.0,,,,,0,,1,0.0,
Raw,2620552,2307070000000,,,-1330742678359875795,0.544590950012207,36.14134402596392,10.556642609113917,11.453529382836205,8,5,0.0,15,184985360556335,8,36.4,157.2611083984375,0.02120000123977661,0,0.0,0.0,,,,,0,,1,0.0,
Raw,2620552,2307070000000,,,-1330742678359875795,0.544590950012207,36.14134402596392,10.556642609113917,11.453529382836205,8,12,0.0,15,184985351261058,6,38.7,715.4546508789062,0.03660000115633011,0,0.0,0.0,,,,,0,,1,0.0,
Raw,2620552,2307070000000,,,-1330742678359875795,0.544590950012207,36.14134402596392,10.556642609113917,11.453529382836205,8,15,0.0,15,184985347460836,155,16.5,-587.4651489257812,6.337000370025635,0,0.0,0.0,,,,,0,,1,0.0,
Raw,2620553,2307070000000,,,-1330742678359875795,0.544590950012207,36.14134402596392,10.556642609113917,11.453529382836205,8,18,0.0,15,184985357006594,17,28.1,-362.5269470214844,0.058800000697374344,0,0.0,0.0,,,,,0,,1,0.0,
Raw,2620553,2307070000000,,,-1330742678359875795,0.544590950012207,36.14134402596392,10.556642609113917,11.453529382836205,8,20,0.0,15,184985355801111,7,37.1,463.089111328125,0.04310000315308571,0,0.0,0.0,,,,,0,,1,0.0,
Raw,2620553,2307070000000,,,-1330742678359875795,0.544590950012207,36.14134402596392,10.556642609113917,11.453529382836205,8,23,0.0,15,184985347861060,6,39.0,-713.0657958984375,0.030100001022219658,0,0.0,0.0,,,,,0,,1,0.0,
Raw,2620553,2307070000000,,,-1330742678359875795,0.544590950012207,36.14134402596392,10.556642609113917,11.453529382836205,8,25,0.0,15,184985359070786,5,40.2,464.88275146484375,0.0479000024497509,0,0.0,0.0,,,,,0,,1,0.0,
Raw,2620553,2307070000000,,,-1330742678359875795,0.544590950012207,36.14134402596392,10.556642609113917,11.453529382836205,8,26,0.0,15,184985350541956,35,22.2,-500.4152526855469,0.6814999580383301,0,0.0,0.0,,,,,0,,1,0.0,
Raw,2620553,2307070000000,,,-1330742678359875795,0.544590950012207,36.14134402596392,10.556642609113917,11.453529382836205,8,29,0.0,15,184985361042602,10,34.4,-153.19940185546875,0.023600000888109207,0,0.0,0.0,,,,,0,,1,0.0,
Raw,2620553,2307070000000,,,-1330742678359875795,0.544590950012207,36.14134402596392,10.556642609113917,11.453529382836205,8,31,0.0,15,184985346455730,8,36.2,345.4281005859375,0.03020000085234642,0,0.0,0.0,,,,,0,,1,0.0,
Fix,gps,37.429773,-122.169524,-10.939331,0.000000,3.216000,1646709768000
NMEA,$GPGSV,3,1,12,02,21,059,36,05,58,075,36,12,23,164,39,15,09,144,17,1*63
,1646709768005
NMEA,$GPGSV,3,2,12,18,41,262,28,20,35,050,37,23,10,201,39,25,52,199,40,1*6F
,1646709768005
NMEA,$GPGSV,3,3,12,26,16,314,22,29,67,350,34,31,09,274,36,13,04,112,,1*62
,1646709768006
NMEA,$GLGSV,3,1,10,78,39,284,39,86,05,074,19,77,27,215,26,79,10,331,35,1*75
,1646709768006
NMEA,$GLGSV,3,2,10,65,26,143,31,88,43,312,28,87,48,023,28,81,03,277,16,1*71
,1646709768008
NMEA,$GLGSV,3,3,10,71,17,033,26,72,38,084,40,1*7B
,1646709768008
NMEA,$GAGSV,1,1,0,7*43
,1646709768009
NMEA,$PQGSV,1,1,0,0*43
,1646709768009
NMEA,$GBGSV,1,1,0,0*47
,1646709768010
NMEA,$GNGSA,A,3,02,05,12,18,20,23,25,26,29,31,,,0.9,0.6,0.7,1*3D
,1646709768015
NMEA,$GNGSA,A,3,65,71,72,77,78,79,86,87,88,,,,0.9,0.6,0.7,2*3A
,1646709768015
NMEA,$GNVTG,,T,,M,0.0,N,0.0,K,A*3D
,1646709768015
NMEA,$GNGGA,032248.00,3725.786392,N,12210.171455,W,1,12,0.6,17.0,M,-27.9,M,,*7C
,1646709768018
NMEA,$GNRMC,032248.00,A,3725.786392,N,12210.171455,W,0.0,,080322,15.0,E,A,V*5C
,1646709768018
NMEA,$AIDSTAT,0,0,0,2,-14,23,3*00
,1646709768925
Raw,2621522,2308070000000,,,-1330742678359875784,0.4298892021179199,33.63171708770096,11.906261708137203,10.476957266299795,8,14,0.0,207,22968359932123,5,40.3,65.71134185791016,0.21790000796318054,0,0.0,0.0,,,,,0,,3,0.0,
Raw,2621523,2308070000000,,,-1330742678359875784,0.4298892021179199,33.63171708770096,11.906261708137203,10.476957266299795,8,22,0.0,207,22968349208364,40,21.3,492.1537780761719,1.059999942779541,0,0.0,0.0,,,,,0,,3,0.0,
Raw,2621523,2308070000000,,,-1330742678359875784,0.4298892021179199,33.63171708770096,11.906261708137203,10.476957266299795,8,13,0.0,207,22968356675286,21,26.5,716.10107421875,0.3352000117301941,0,0.0,0.0,,,,,0,,3,0.0,
Raw,2621523,2308070000000,,,-1330742678359875784,0.4298892021179199,33.63171708770096,11.906261708137203,10.476957266299795,8,15,0.0,207,22968351598183,9,35.4,-547.011962890625,0.23810000717639923,0,0.0,0.0,,,,,0,,3,0.0,
Raw,2621523,2308070000000,,,-1330742678359875784,0.4298892021179199,33.63171708770096,11.906261708137203,10.476957266299795,8,1,0.0,207,22968356559548,13,31.9,-708.093017578125,0.2492000013589859,0,0.0,0.0,,,,,0,,3,0.0,
Raw,2621523,2308070000000,,,-1330742678359875784,0.4298892021179199,33.63171708770096,11.906261708137203,10.476957266299795,8,24,0.0,207,22968360897553,27,24.3,-239.39451599121094,0.8664999604225159,0,0.0,0.0,,,,,0,,3,0.0,
Raw,2621523,2308070000000,,,-1330742678359875784,0.4298892021179199,33.63171708770096,11.906261708137203,10.476957266299795,8,23,0.0,207,22968361896043,21,26.2,167.98388671875,0.3127000033855438,0,0.0,0.0,,,,,0,,3,0.0,
Raw,2621523,2308070000000,,,-1330742678359875784,0.4298892021179199,33.63171708770096,11.906261708137203,10.476957266299795,8,17,0.0,207,22968349408824,112,15.6,-482.91021728515625,3.820000171661377,0,0.0,0.0,,,,,0,,3,0.0,
Raw,2621523,2308070000000,,,-1330742678359875784,0.4298892021179199,33.63171708770096,11.906261708137203,10.476957266299795,8,7,0.0,207,22968353580934,35,22.9,426.6517639160156,1.0059999227523804,0,0.0,0.0,,,,,0,,3,0.0,
Raw,2621523,2308070000000,,,-1330742678359875784,0.4298892021179199,33.63171708770096,11.906261708137203,10.476957266299795,8,8,0.0,207,22968359572181,5,40.8,-187.89401245117188,0.24790000915527344,0,0.0,0.0,,,,,0,,3,0.0,
Raw,2621524,2308070000000,,,-1330742678359875784,0.4298892021179199,33.63171708770096,11.906261708137203,10.476957266299795,8,2,0.0,15,184986348924089,8,36.0,461.5563659667969,0.03319999948143959,0,0.0,0.0,,,,,0,,1,0.0,
Raw,2621524,2308070000000,,,-1330742678359875784,0.4298892021179199,33.63171708770096,11.906261708137203,10.476957266299795,8,5,0.0,15,184986360555821,8,36.6,156.83200073242188,0.02120000123977661,0,0.0,0.0,,,,,0,,1,0.0,
Raw,2621524,2308070000000,,,-1330742678359875784,0.4298892021179199,33.63171708770096,11.906261708137203,10.476957266299795,8,12,0.0,15,184986351258663,6,39.7,714.8515625,0.03610000014305115,0,0.0,0.0,,,,,0,,1,0.0,
Raw,2621524,2308070000000,,,-1330742678359875784,0.4298892021179199,33.63171708770096,11.906261708137203,10.476957266299795,8,15,0.0,15,184986347463117,124,14.8,-587.6078491210938,3.517000198364258,0,0.0,0.0,,,,,0,,1,0.0,
Raw,2621524,2308070000000,,,-1330742678359875784,0.4298892021179199,33.63171708770096,11.906261708137203,10.476957266299795,8,18,0.0,15,184986357007805,14,30.2,-363.0550842285156,0.05130000039935112,0,0.0,0.0,,,,,0,,1,0.0,
Raw,2621524,2308070000000,,,-1330742678359875784,0.4298892021179199,33.63171708770096,11.906261708137203,10.476957266299795,8,20,0.0,15,184986355799560,7,37.5,462.6208190917969,0.04310000315308571,0,0.0,0.0,,,,,0,,1,0.0,
Raw,2621524,2308070000000,,,-1330742678359875784,0.4298892021179199,33.63171708770096,11.906261708137203,10.476957266299795,8,23,0.0,15,184986347863438,6,39.6,-713.6474609375,0.030100001022219658,0,0.0,0.0,,,,,0,,1,0.0,
Raw,2621524,2308070000000,,,-1330742678359875784,0.4298892021179199,33.63171708770096,11.906261708137203,10.476957266299795,8,25,0.0,15,184986359069241,5,41.3,464.3473205566406,0.047600001096725464,0,0.0,0.0,,,,,0,,1,0.0,
Raw,2621524,2308070000000,,,-1330742678359875784,0.4298892021179199,33.63171708770096,11.906261708137203,10.476957266299795,8,26,0.0,15,184986350543650,31,23.2,-500.79583740234375,0.6315000057220459,0,0.0,0.0,,,,,0,,1,0.0,
Raw,2621524,2308070000000,,,-1330742678359875784,0.4298892021179199,33.63171708770096,11.906261708137203,10.476957266299795,8,29,0.0,15,184986361043107,9,35.4,-153.71742248535156,0.023100001737475395,0,0.0,0.0,,,,,0,,1,0.0,
Raw,2621524,2308070000000,,,-1330742678359875784,0.4298892021179199,33.63171708770096,11.906261708137203,10.476957266299795,8,31,0.0,15,184986346454575,7,37.0,344.8824768066406,0.029600001871585846,0,0.0,0.0,,,,,0,,1,0.0,
Fix,gps,37.429772,-122.169524,-10.951569,0.000000,3.216000,1646709769000
NMEA,$GPGSV,3,1,12,02,21,059,36,05,58,075,37,12,23,164,40,15,09,144,15,1*6E
,1646709769006
NMEA,$GPGSV,3,2,12,18,41,262,30,20,35,050,38,23,10,201,40,25,52,199,41,1*66
,1646709769009
NMEA,$GPGSV,3,3,12,26,16,314,23,29,67,350,35,31,09,274,37,13,04,112,,1*63
,1646709769015
NMEA,$GLGSV,3,1,10,78,39,284,40,86,05,074,21,77,27,215,27,79,10,331,35,1*71
,1646709769015
NMEA,$GLGSV,3,2,10,65,26,143,32,88,43,312,24,87,48,023,26,81,03,277,16,1*70
,1646709769015
NMEA,$GLGSV,3,3,10,71,17,033,23,72,38,084,41,1*7F
,1646709769016
NMEA,$GAGSV,1,1,0,7*43
,1646709769016
NMEA,$PQGSV,1,1,0,0*43
,1646709769016
NMEA,$GBGSV,1,1,0,0*47
,1646709769016
NMEA,$GNGSA,A,3,02,05,12,18,20,23,25,26,29,31,,,0.9,0.6,0.7,1*3D
,1646709769018
NMEA,$GNGSA,A,3,65,71,72,77,78,79,86,87,88,,,,0.9,0.6,0.7,2*3A
,1646709769019
NMEA,$GNVTG,,T,,M,0.0,N,0.0,K,A*3D
,1646709769019
NMEA,$GNGGA,032249.00,3725.786345,N,12210.171411,W,1,12,0.6,17.0,M,-27.9,M,,*77
,1646709769019
NMEA,$GNRMC,032249.00,A,3725.786345,N,12210.171411,W,0.0,,080322,15.0,E,A,V*57
,1646709769019
NMEA,$AIDSTAT,0,0,0,2,,23,3*00
,1646709769926
Fix,gps,37.429773,-122.169525,-10.906586,0.350000,3.216000,1646709770000
Raw,2622529,2309070000000,,,-1330742678359875778,0.1444845199584961,33.138283470179886,9.92954938853275,9.49943240578954,8,14,0.0,207,22969359931936,5,40.0,64.1385269165039,0.21790000796318054,0,0.0,0.0,,,,,0,,3,0.0,
Raw,2622529,2309070000000,,,-1330742678359875778,0.1444845199584961,33.138283470179886,9.92954938853275,9.49943240578954,8,22,0.0,207,22969349206503,46,20.6,491.0859375,1.1299999952316284,0,0.0,0.0,,,,,0,,3,0.0,
Raw,2622529,2309070000000,,,-1330742678359875778,0.1444845199584961,33.138283470179886,9.92954938853275,9.49943240578954,8,13,0.0,207,22969356672940,27,24.4,714.2302856445312,0.8904999494552612,0,0.0,0.0,,,,,0,,3,0.0,
Raw,2622529,2309070000000,,,-1330742678359875778,0.1444845199584961,33.138283470179886,9.92954938853275,9.49943240578954,8,15,0.0,207,22969351600012,8,36.3,-548.6578979492188,0.23770001530647278,0,0.0,0.0,,,,,0,,3,0.0,
Raw,2622530,2309070000000,,,-1330742678359875778,0.1444845199584961,33.138283470179886,9.92954938853275,9.49943240578954,8,1,0.0,207,22969356561866,10,34.8,-709.1345825195312,0.24610000848770142,0,0.0,0.0,,,,,0,,3,0.0,
Raw,2622530,2309070000000,,,-1330742678359875778,0.1444845199584961,33.138283470179886,9.92954938853275,9.49943240578954,8,24,0.0,207,22969360898188,10,34.8,-240.79205322265625,0.22210000455379486,0,0.0,0.0,,,,,0,,3,0.0,
Raw,2622530,2309070000000,,,-1330742678359875778,0.1444845199584961,33.138283470179886,9.92954938853275,9.49943240578954,8,23,0.0,207,22969361895417,21,26.0,166.78787231445312,0.3127000033855438,0,0.0,0.0,,,,,0,,3,0.0,
Raw,2622530,2309070000000,,,-1330742678359875778,0.1444845199584961,33.138283470179886,9.92954938853275,9.49943240578954,8,17,0.0,207,22969349410541,84,16.0,-485.5918273925781,2.2200000286102295,0,0.0,0.0,,,,,0,,3,0.0,
Raw,2622530,2309070000000,,,-1330742678359875778,0.1444845199584961,33.138283470179886,9.92954938853275,9.49943240578954,8,7,0.0,207,22969353579854,61,18.7,425.7083435058594,1.2960000038146973,0,0.0,0.0,,,,,0,,3,0.0,
Raw,2622530,2309070000000,,,-1330742678359875778,0.1444845199584961,33.138283470179886,9.92954938853275,9.49943240578954,8,8,0.0,207,22969359572787,7,37.8,-188.86807250976562,0.249099999666214,0,0.0,0.0,,,,,0,,3,0.0,
Raw,2622530,2309070000000,,,-1330742678359875778,0.1444845199584961,33.138283470179886,9.92954938853275,9.49943240578954,8,2,0.0,15,184987348922537,12,32.1,460.4432373046875,0.03590000048279762,0,0.0,0.0,,,,,0,,1,0.0,
Raw,2622530,2309070000000,,,-1330742678359875778,0.1444845199584961,33.138283470179886,9.92954938853275,9.49943240578954,8,5,0.0,15,184987360555295,10,34.5,155.6753692626953,0.022099999710917473,0,0.0,0.0,,,,,0,,1,0.0,
Raw,2622530,2309070000000,,,-1330742678359875778,0.1444845199584961,33.138283470179886,9.92954938853275,9.49943240578954,8,12,0.0,15,184987351256283,10,34.9,713.67626953125,0.038600001484155655,0,0.0,0.0,,,,,0,,1,0.0,
Raw,2622530,2309070000000,,,-1330742678359875778,0.1444845199584961,33.138283470179886,9.92954938853275,9.49943240578954,8,15,0.0,15,184987347465066,46,20.0,-590.4527587890625,0.796999990940094,0,0.0,0.0,,,,,0,,1,0.0,
Raw,2622530,2309070000000,,,-1330742678359875778,0.1444845199584961,33.138283470179886,9.92954938853275,9.49943240578954,8,18,0.0,15,184987357008976,6,38.0,-364.55584716796875,0.04560000076889992,0,0.0,0.0,,,,,0,,1,0.0,
Raw,2622530,2309070000000,,,-1330742678359875778,0.1444845199584961,33.138283470179886,9.92954938853275,9.49943240578954,8,20,0.0,15,184987355798027,11,33.1,461.4312438964844,0.04540000110864639,0,0.0,0.0,,,,,0,,1,0.0,
Raw,2622531,2309070000000,,,-1330742678359875778,0.1444845199584961,33.138283470179886,9.92954938853275,9.49943240578954,8,23,0.0,15,184987347865816,5,40.1,-714.9871215820312,0.029900001361966133,0,0.0,0.0,,,,,0,,1,0.0,
Raw,2622531,2309070000000,,,-1330742678359875778,0.1444845199584961,33.138283470179886,9.92954938853275,9.49943240578954,8,25,0.0,15,184987359067691,6,39.8,463.14385986328125,0.048100002110004425,0,0.0,0.0,,,,,0,,1,0.0,
Raw,2622531,2309070000000,,,-1330742678359875778,0.1444845199584961,33.138283470179886,9.92954938853275,9.49943240578954,8,26,0.0,15,184987350545261,21,26.9,-502.7104797363281,0.12620000541210175,0,0.0,0.0,,,,,0,,1,0.0,
Raw,2622531,2309070000000,,,-1330742678359875778,0.1444845199584961,33.138283470179886,9.92954938853275,9.49943240578954,8,29,0.0,15,184987361043605,12,32.2,-155.20059204101562,0.02540000155568123,0,0.0,0.0,,,,,0,,1,0.0,
Raw,2622531,2309070000000,,,-1330742678359875778,0.1444845199584961,33.138283470179886,9.92954938853275,9.49943240578954,8,31,0.0,15,184987346453480,6,38.8,343.23748779296875,0.029100000858306885,0,0.0,0.0,,,,,0,,1,0.0,
NMEA,$GPGSV,3,1,12,02,21,059,32,05,58,075,35,12,23,164,35,15,09,144,20,1*6C
,1646709769999
NMEA,$GPGSV,3,2,12,18,41,262,38,20,35,050,33,23,10,201,40,25,52,199,40,1*64
,1646709769999
NMEA,$GPGSV,3,3,12,26,16,314,27,29,67,350,32,31,09,274,39,13,04,112,,1*6E
,1646709769999
NMEA,$GLGSV,3,1,10,78,39,284,40,86,05,074,21,77,27,215,24,79,10,331,36,1*71
,1646709769999
NMEA,$GLGSV,3,2,10,65,26,143,35,88,43,312,35,87,48,023,26,81,03,277,16,1*77
,1646709769999
NMEA,$GLGSV,3,3,10,71,17,033,19,72,38,084,38,1*78
,1646709769999
NMEA,$GAGSV,1,1,0,7*43
,1646709770000
NMEA,$PQGSV,1,1,0,0*43
,1646709770001
NMEA,$GBGSV,1,1,0,0*47
,1646709770001
NMEA,$GNGSA,A,3,02,05,12,18,20,23,25,26,29,31,,,0.9,0.6,0.7,1*3D
,1646709770006
NMEA,$GNGSA,A,3,65,71,72,77,78,79,86,87,88,,,,0.9,0.6,0.7,2*3A
,1646709770007
NMEA,$GNVTG,123.3,T,123.3,M,0.7,N,1.3,K,A*38
,1646709770007
NMEA,$GNGGA,032250.00,3725.786376,N,12210.171514,W,1,12,0.6,17.0,M,-27.9,M,,*7B
,1646709770007
NMEA,$GNRMC,032250.00,A,3725.786376,N,12210.171514,W,0.7,123.3,080322,15.0,E,A,V*71
,1646709770007
NMEA,$AIDSTAT,0,0,0,2,-2,23,3*00
,1646709770927
Raw,2623520,2310070000000,,,-1330742678359875770,0.4071784019470215,30.47726204385981,5.446703293997922,9.499348106239266,8,14,0.0,207,22970359931739,4,42.4,64.55718231201172,0.21729999780654907,0,0.0,0.0,,,,,0,,3,0.0,
Raw,2623520,2310070000000,,,-1330742678359875770,0.4071784019470215,30.47726204385981,5.446703293997922,9.499348106239266,8,22,0.0,207,22970349204865,55,20.6,491.0859375,2.630000114440918,0,0.0,0.0,,,,,0,,3,0.0,
Raw,2623520,2310070000000,,,-1330742678359875770,0.4071784019470215,30.47726204385981,5.446703293997922,9.499348106239266,8,13,0.0,207,22970356670455,35,22.5,714.6141967773438,1.0104999542236328,0,0.0,0.0,,,,,0,,3,0.0,
Raw,2623521,2310070000000,,,-1330742678359875770,0.4071784019470215,30.47726204385981,5.446703293997922,9.499348106239266,8,15,0.0,207,22970351601795,8,36.6,-548.2818603515625,0.23770001530647278,0,0.0,0.0,,,,,0,,3,0.0,
Raw,2623521,2310070000000,,,-1330742678359875770,0.4071784019470215,30.47726204385981,5.446703293997922,9.499348106239266,8,1,0.0,207,22970356564228,8,36.6,-709.3858032226562,0.2452000081539154,0,0.0,0.0,,,,,0,,3,0.0,
Raw,2623521,2310070000000,,,-1330742678359875770,0.4071784019470215,30.47726204385981,5.446703293997922,9.499348106239266,8,24,0.0,207,22970360898969,8,36.0,-240.52528381347656,0.22120000422000885,0,0.0,0.0,,,,,0,,3,0.0,
Raw,2623521,2310070000000,,,-1330742678359875770,0.4071784019470215,30.47726204385981,5.446703293997922,9.499348106239266,8,23,0.0,207,22970361895027,21,26.3,166.57955932617188,0.3127000033855438,0,0.0,0.0,,,,,0,,3,0.0,
Raw,2623521,2310070000000,,,-1330742678359875770,0.4071784019470215,30.47726204385981,5.446703293997922,9.499348106239266,8,17,0.0,207,22970349412161,99,16.0,-485.5918273925781,3.7200002670288086,0,0.0,0.0,,,,,0,,3,0.0,
Raw,2623521,2310070000000,,,-1330742678359875770,0.4071784019470215,30.47726204385981,5.446703293997922,9.499348106239266,8,7,0.0,207,22970353578131,27,24.0,425.23199462890625,0.8859999775886536,0,0.0,0.0,,,,,0,,3,0.0,
Raw,2623521,2310070000000,,,-1330742678359875770,0.4071784019470215,30.47726204385981,5.446703293997922,9.499348106239266,8,8,0.0,207,22970359573379,12,32.1,-189.02944946289062,0.2524000108242035,0,0.0,0.0,,,,,0,,3,0.0,
Raw,2623521,2310070000000,,,-1330742678359875770,0.4071784019470215,30.47726204385981,5.446703293997922,9.499348106239266,8,2,0.0,15,184988348920974,21,26.9,460.13507080078125,0.12319999933242798,0,0.0,0.0,,,,,0,,1,0.0,
Raw,2623521,2310070000000,,,-1330742678359875770,0.4071784019470215,30.47726204385981,5.446703293997922,9.499348106239266,8,5,0.0,15,184988360554704,9,35.9,155.7042999267578,0.02160000056028366,0,0.0,0.0,,,,,0,,1,0.0,
Raw,2623521,2310070000000,,,-1330742678359875770,0.4071784019470215,30.47726204385981,5.446703293997922,9.499348106239266,8,12,0.0,15,184988351253889,10,34.2,713.5408935546875,0.038600001484155655,0,0.0,0.0,,,,,0,,1,0.0,
Raw,2623521,2310070000000,,,-1330742678359875770,0.4071784019470215,30.47726204385981,5.446703293997922,9.499348106239266,8,15,0.0,15,184988347467107,61,18.9,-590.4622802734375,0.9269999861717224,0,0.0,0.0,,,,,0,,1,0.0,
Raw,2623521,2310070000000,,,-1330742678359875770,0.4071784019470215,30.47726204385981,5.446703293997922,9.499348106239266,8,18,0.0,15,184988357010207,8,36.7,-364.4290466308594,0.04670000076293945,0,0.0,0.0,,,,,0,,1,0.0,
Raw,2623521,2310070000000,,,-1330742678359875770,0.4071784019470215,30.47726204385981,5.446703293997922,9.499348106239266,8,20,0.0,15,184988355796503,21,26.8,461.25286865234375,0.5189999938011169,0,0.0,0.0,,,,,0,,1,0.0,
Raw,2623521,2310070000000,,,-1330742678359875770,0.4071784019470215,30.47726204385981,5.446703293997922,9.499348106239266,8,23,0.0,15,184988347868200,9,35.6,-715.1177368164062,0.03210000321269035,0,0.0,0.0,,,,,0,,1,0.0,
Raw,2623521,2310070000000,,,-1330742678359875770,0.4071784019470215,30.47726204385981,5.446703293997922,9.499348106239266,8,25,0.0,15,184988359066133,5,41.6,463.07159423828125,0.047600001096725464,0,0.0,0.0,,,,,0,,1,0.0,
Raw,2623521,2310070000000,,,-1330742678359875770,0.4071784019470215,30.47726204385981,5.446703293997922,9.499348106239266,8,26,0.0,15,184988350546871,21,26.2,-502.3023376464844,0.12620000541210175,0,0.0,0.0,,,,,0,,1,0.0,
Raw,2623521,2310070000000,,,-1330742678359875770,0.4071784019470215,30.47726204385981,5.446703293997922,9.499348106239266,8,29,0.0,15,184988361044173,14,30.1,-154.9995574951172,0.027300000190734863,0,0.0,0.0,,,,,0,,1,0.0,
Raw,2623522,2310070000000,,,-1330742678359875770,0.4071784019470215,30.47726204385981,5.446703293997922,9.499348106239266,8,31,0.0,15,184988346452339,6,39.5,343.5074157714844,0.028600001707673073,0,0.0,0.0,,,,,0,,1,0.0,
NMEA,$GPGSV,3,1,12,02,21,059,27,05,58,075,36,12,23,164,34,15,09,144,19,1*60
,1646709771006
NMEA,$GPGSV,3,2,12,18,41,262,37,20,35,050,27,23,10,201,36,25,52,199,42,1*6D
,1646709771007
NMEA,$GPGSV,3,3,12,26,16,314,26,29,67,350,30,31,09,274,40,13,04,112,,1*63
,1646709771007
NMEA,$GLGSV,3,1,10,78,39,284,42,86,05,074,21,77,27,215,23,79,10,331,37,1*75
,1646709771015
NMEA,$GLGSV,3,2,10,65,26,143,37,88,43,312,36,87,48,023,26,81,03,277,16,1*76
,1646709771016
NMEA,$GLGSV,3,3,10,71,17,033,24,72,38,084,32,1*7C
,1646709771016
NMEA,$GAGSV,1,1,0,7*43
,1646709771016
NMEA,$PQGSV,1,1,0,0*43
,1646709771017
NMEA,$GBGSV,1,1,0,0*47
,1646709771017
Fix,gps,37.429773,-122.169527,-10.734833,0.000000,3.216000,1646709771000
NMEA,$GNGSA,A,3,02,05,12,18,20,23,25,26,29,31,,,0.9,0.6,0.7,1*3D
,1646709771024
NMEA,$GNGSA,A,3,65,71,72,77,78,79,86,87,88,,,,0.9,0.6,0.7,2*3A
,1646709771024
NMEA,$GNVTG,,T,,M,0.0,N,0.0,K,A*3D
,1646709771024
NMEA,$GNGGA,032251.00,3725.786396,N,12210.171593,W,1,12,0.6,17.2,M,-27.9,M,,*79
,1646709771025
NMEA,$GNRMC,032251.00,A,3725.786396,N,12210.171593,W,0.0,,080322,15.0,E,A,V*5B
,1646709771025
NMEA,$AIDSTAT,0,0,0,2,4,23,3*00
,1646709771928
Raw,2624540,2311070000000,,,-1330742678359875763,0.8205060958862305,33.631138649070635,5.208496623288498,10.705461535940012,8,14,0.0,207,22971359931504,4,42.5,65.22469329833984,0.21729999780654907,0,0.0,0.0,,,,,0,,3,0.0,
Raw,2624540,2311070000000,,,-1330742678359875763,0.8205060958862305,33.631138649070635,5.208496623288498,10.705461535940012,8,22,0.0,207,22971349203227,74,20.6,491.0859375,4.130000114440918,0,0.0,0.0,,,,,0,,3,0.0,
Raw,2624540,2311070000000,,,-1330742678359875763,0.8205060958862305,33.631138649070635,5.208496623288498,10.705461535940012,8,13,0.0,207,22971356668164,35,22.9,715.016845703125,1.0104999542236328,0,0.0,0.0,,,,,0,,3,0.0,
Raw,2624541,2311070000000,,,-1330742678359875763,0.8205060958862305,33.631138649070635,5.208496623288498,10.705461535940012,8,15,0.0,207,22971351603590,8,36.8,-547.6557006835938,0.23770001530647278,0,0.0,0.0,,,,,0,,3,0.0,
Raw,2624541,2311070000000,,,-1330742678359875763,0.8205060958862305,33.631138649070635,5.208496623288498,10.705461535940012,8,1,0.0,207,22971356566603,8,36.5,-708.9131469726562,0.2452000081539154,0,0.0,0.0,,,,,0,,3,0.0,
