# 
# Header Description:
# 
# Version: v2.0.0.1 Platform: 9 Manufacturer: samsung Model: SM-G960U
# 
# Raw,ElapsedRealtimeMillis,TimeNanos,LeapSecond,TimeUncertaintyNanos,FullBiasNanos,BiasNanos,BiasUncertaintyNanos,DriftNanosPerSecond,DriftUncertaintyNanosPerSecond,HardwareClockDiscontinuityCount,Svid,TimeOffsetNanos,State,ReceivedSvTimeNanos,ReceivedSvTimeUncertaintyNanos,Cn0DbHz,PseudorangeRateMetersPerSecond,PseudorangeRateUncertaintyMetersPerSecond,AccumulatedDeltaRangeState,AccumulatedDeltaRangeMeters,AccumulatedDeltaRangeUncertaintyMeters,CarrierFrequencyHz,CarrierCycles,CarrierPhase,CarrierPhaseUncertainty,MultipathIndicator,SnrInDb,ConstellationType,AgcDb,CarrierFrequencyHz
# 
# Fix,Provider,Latitude,Longitude,Altitude,Speed,Accuracy,(UTC)TimeInMs
# 
# Nav,Svid,Type,Status,MessageId,Sub-messageId,Data(Bytes)
# 
NMEA,$AIDSTAT,0,0,0,2,,23,3*00
,1646709677925
Raw,2530524,2217070000000,,,-1330742678359876464,0.4302992820739746,39.08378857886419,2.5822274399716445,13.472882959861042,8,14,0.0,207,22877359949603,6,39.3,47.56593704223633,0.21809999644756317,0,0.0,0.0,,,,,0,,3,0.0,
Raw,2530524,2217070000000,,,-1330742678359876464,0.4302992820739746,39.08378857886419,2.5822274399716445,13.472882959861042,8,22,0.0,207,22877349357520,74,17.9,489.8401794433594,2.130000114440918,0,0.0,0.0,,,,,0,,3,0.0,
Raw,2530524,2217070000000,,,-1330742678359876464,0.4302992820739746,39.08378857886419,2.5822274399716445,13.472882959861042,8,13,0.0,207,22877356891562,27,24.3,706.6927490234375,0.8904999494552612,0,0.0,0.0,,,,,0,,3,0.0,
Raw,2530524,2217070000000,,,-1330742678359876464,0.4302992820739746,39.08378857886419,2.5822274399716445,13.472882959861042,8,15,0.0,207,22877351430384,13,31.8,-559.9815063476562,0.24170000851154327,0,0.0,0.0,,,,,0,,3,0.0,
Raw,2530524,2217070000000,,,-1330742678359876464,0.4302992820739746,39.08378857886419,2.5822274399716445,13.472882959861042,8,1,0.0,207,22877356343581,16,29.0,-716.6028442382812,0.2506999969482422,0,0.0,0.0,,,,,0,,3,0.0,
Raw,2530524,2217070000000,,,-1330742678359876464,0.4302992820739746,39.08378857886419,2.5822274399716445,13.472882959861042,8,24,0.0,207,22877360824105,12,32.6,-245.4073028564453,0.22390000522136688,0,0.0,0.0,,,,,0,,3,0.0,
Raw,2530524,2217070000000,,,-1330742678359876464,0.4302992820739746,39.08378857886419,2.5822274399716445,13.472882959861042,8,23,0.0,207,22877361946230,21,26.2,161.7729034423828,0.3127000033855438,0,0.0,0.0,,,,,0,,3,0.0,
Raw,2530524,2217070000000,,,-1330742678359876464,0.4302992820739746,39.08378857886419,2.5822274399716445,13.472882959861042,8,17,0.0,207,22870096249658,5610,16.0,-481.2937316894531,50.59050369262695,0,0.0,0.0,,,,,0,,3,0.0,
Raw,2530524,2217070000000,,,-1330742678359876464,0.4302992820739746,39.08378857886419,2.5822274399716445,13.472882959861042,8,7,0.0,207,22877353708496,17,28.4,411.44769287109375,0.25280001759529114,0,0.0,0.0,,,,,0,,3,0.0,
Raw,2530524,2217070000000,,,-1330742678359876464,0.4302992820739746,39.08378857886419,2.5822274399716445,13.472882959861042,8,8,0.0,207,22877359512794,8,36.1,-205.09552001953125,0.24970000982284546,0,0.0,0.0,,,,,0,,3,0.0,
Raw,2530524,2217070000000,,,-1330742678359876464,0.4302992820739746,39.08378857886419,2.5822274399716445,13.472882959861042,8,2,0.0,15,184895349064068,13,31.6,458.9605407714844,0.038700003176927567,0,0.0,0.0,,,,,0,,1,0.0,
Raw,2530524,2217070000000,,,-1330742678359876464,0.4302992820739746,39.08378857886419,2.5822274399716445,13.472882959861042,8,5,0.0,15,184895360601443,9,35.2,142.15908813476562,0.02160000056028366,0,0.0,0.0,,,,,0,,1,0.0,
Raw,2530524,2217070000000,,,-1330742678359876464,0.4302992820739746,39.08378857886419,2.5822274399716445,13.472882959861042,8,12,0.0,15,184895351475048,7,37.9,709.0857543945312,0.03710000216960907,0,0.0,0.0,,,,,0,,1,0.0,
Raw,2530524,2217070000000,,,-1330742678359876464,0.4302992820739746,39.08378857886419,2.5822274399716445,13.472882959861042,8,15,0.0,15,184895347284603,35,22.1,-590.6239624023438,0.6769999861717224,0,0.0,0.0,,,,,0,,1,0.0,
Raw,2530525,2217070000000,,,-1330742678359876464,0.4302992820739746,39.08378857886419,2.5822274399716445,13.472882959861042,8,18,0.0,15,184895356896643,12,32.5,-370.98858642578125,0.0479000024497509,0,0.0,0.0,,,,,0,,1,0.0,
Raw,2530525,2217070000000,,,-1330742678359876464,0.4302992820739746,39.08378857886419,2.5822274399716445,13.472882959861042,8,20,0.0,15,184895355938719,10,34.6,452.446044921875,0.044600002467632294,0,0.0,0.0,,,,,0,,1,0.0,
Raw,2530525,2217070000000,,,-1330742678359876464,0.4302992820739746,39.08378857886419,2.5822274399716445,13.472882959861042,8,23,0.0,15,184895347646442,4,42.3,-717.7277221679688,0.02930000051856041,0,0.0,0.0,,,,,0,,1,0.0,
Raw,2530525,2217070000000,,,-1330742678359876464,0.4302992820739746,39.08378857886419,2.5822274399716445,13.472882959861042,8,25,0.0,15,184895359208690,7,37.9,452.8211975097656,0.04910000041127205,0,0.0,0.0,,,,,0,,1,0.0,
Raw,2530525,2217070000000,,,-1330742678359876464,0.4302992820739746,39.08378857886419,2.5822274399716445,13.472882959861042,8,26,0.0,15,184895350390238,19,27.6,-510.7514953613281,0.056300003081560135,0,0.0,0.0,,,,,0,,1,0.0,
Raw,2530525,2217070000000,,,-1330742678359876464,0.4302992820739746,39.08378857886419,2.5822274399716445,13.472882959861042,8,29,0.0,15,184895360995366,14,30.5,-162.30508422851562,0.025800000876188278,0,0.0,0.0,,,,,0,,1,0.0,
Raw,2530525,2217070000000,,,-1330742678359876464,0.4302992820739746,39.08378857886419,2.5822274399716445,13.472882959861042,8,31,0.0,15,184895346558249,6,38.1,336.2316589355469,0.029100000858306885,0,0.0,0.0,,,,,0,,1,0.0,
Fix,gps,37.429780,-122.169525,-10.429962,0.000000,3.216000,1646709678000
NMEA,$GPGSV,3,1,12,02,21,059,32,05,59,077,35,12,24,164,38,15,08,146,22,1*64
,1646709678004
NMEA,$GPGSV,3,2,12,18,40,261,33,20,36,050,35,23,09,201,42,25,53,199,38,1*6C
,1646709678004
NMEA,$GPGSV,3,3,12,26,16,316,28,29,67,348,31,31,09,274,38,13,03,113,,1*6E
,1646709678004
NMEA,$GLGSV,3,1,10,78,39,285,39,86,05,074,18,77,28,215,24,79,09,333,32,1*75
,1646709678004
NMEA,$GLGSV,3,2,10,65,25,143,29,88,42,310,33,87,49,022,26,81,02,277,16,1*7D
,1646709678005
NMEA,$GLGSV,3,3,10,71,18,035,28,72,37,085,36,1*73
,1646709678005
NMEA,$GAGSV,1,1,0,7*43
,1646709678005
NMEA,$PQGSV,1,1,0,0*43
,1646709678005
NMEA,$GBGSV,1,1,0,0*47
,1646709678005
NMEA,$GNGSA,A,3,02,05,12,15,18,20,25,26,29,31,,,0.9,0.6,0.7,1*38
,1646709678015
NMEA,$GNGSA,A,3,65,71,72,77,78,79,86,87,88,,,,0.9,0.6,0.7,2*3A
,1646709678015
NMEA,$GNVTG,,T,,M,0.0,N,0.0,K,A*3D
,1646709678015
NMEA,$GNGGA,032118.00,3725.786806,N,12210.171501,W,1,12,0.6,17.5,M,-27.9,M,,*79
,1646709678016
NMEA,$GNRMC,032118.00,A,3725.786806,N,12210.171501,W,0.0,,080322,15.0,E,A,V*5C
,1646709678016
NMEA,$AIDSTAT,0,0,0,2,-25,23,3*00
,1646709678927
NMEA,$GPGSV,3,1,12,02,21,059,30,05,59,077,38,12,24,164,37,15,08,146,22,1*64
,1646709679005
Raw,2531537,2218070000000,,,-1330742678359876469,0.7587852478027344,37.11496538016945,-0.1561180824173483,12.470381574106566,8,14,0.0,207,22878359949475,6,38.6,46.98466873168945,0.21860000491142273,0,0.0,0.0,,,,,0,,3,0.0,
Raw,2531537,2218070000000,,,-1330742678359876469,0.7587852478027344,37.11496538016945,-0.1561180824173483,12.470381574106566,8,22,0.0,207,22878349355871,46,20.7,489.0814514160156,1.1299999952316284,0,0.0,0.0,,,,,0,,3,0.0,
Raw,2531538,2218070000000,,,-1330742678359876469,0.7587852478027344,37.11496538016945,-0.1561180824173483,12.470381574106566,8,13,0.0,207,22878356889133,31,23.5,706.4306030273438,0.950499951839447,0,0.0,0.0,,,,,0,,3,0.0,
Raw,2531538,2218070000000,,,-1330742678359876469,0.7587852478027344,37.11496538016945,-0.1561180824173483,12.470381574106566,8,15,0.0,207,22878351432215,17,28.4,-560.69580078125,0.24980001151561737,0,0.0,0.0,,,,,0,,3,0.0,
Raw,2531538,2218070000000,,,-1330742678359876469,0.7587852478027344,37.11496538016945,-0.1561180824173483,12.470381574106566,8,1,0.0,207,22878356345933,11,33.1,-717.2813110351562,0.24690000712871552,0,0.0,0.0,,,,,0,,3,0.0,
Raw,2531538,2218070000000,,,-1330742678359876469,0.7587852478027344,37.11496538016945,-0.1561180824173483,12.470381574106566,8,24,0.0,207,22878360824950,14,30.2,-246.13746643066406,0.22579999268054962,0,0.0,0.0,,,,,0,,3,0.0,
Raw,2531538,2218070000000,,,-1330742678359876469,0.7587852478027344,37.11496538016945,-0.1561180824173483,12.470381574106566,8,23,0.0,207,22878361945734,21,26.1,160.88458251953125,0.3127000033855438,0,0.0,0.0,,,,,0,,3,0.0,
Raw,2531539,2218070000000,,,-1330742678359876469,0.7587852478027344,37.11496538016945,-0.1561180824173483,12.470381574106566,8,17,0.0,207,22870096249658,5610,16.0,-481.2937316894531,50.59050369262695,0,0.0,0.0,,,,,0,,3,0.0,
Raw,2531539,2218070000000,,,-1330742678359876469,0.7587852478027344,37.11496538016945,-0.1561180824173483,12.470381574106566,8,7,0.0,207,22878353707155,17,28.8,410.72222900390625,0.25280001759529114,0,0.0,0.0,,,,,0,,3,0.0,
Raw,2531539,2218070000000,,,-1330742678359876469,0.7587852478027344,37.11496538016945,-0.1561180824173483,12.470381574106566,8,8,0.0,207,22878359513465,6,38.3,-205.7481231689453,0.24860000610351562,0,0.0,0.0,,,,,0,,3,0.0,
Raw,2531540,2218070000000,,,-1330742678359876469,0.7587852478027344,37.11496538016945,-0.1561180824173483,12.470381574106566,8,2,0.0,15,184896349062531,14,30.3,458.1561279296875,0.03930000215768814,0,0.0,0.0,,,,,0,,1,0.0,
Raw,2531540,2218070000000,,,-1330742678359876469,0.7587852478027344,37.11496538016945,-0.1561180824173483,12.470381574106566,8,5,0.0,15,184896360600965,7,37.5,141.55345153808594,0.020600000396370888,0,0.0,0.0,,,,,0,,1,0.0,
Raw,2531540,2218070000000,,,-1330742678359876469,0.7587852478027344,37.11496538016945,-0.1561180824173483,12.470381574106566,8,12,0.0,15,184896351472682,7,37.0,708.3700561523438,0.03710000216960907,0,0.0,0.0,,,,,0,,1,0.0,
Raw,2531540,2218070000000,,,-1330742678359876469,0.7587852478027344,37.11496538016945,-0.1561180824173483,12.470381574106566,8,15,0.0,15,184896347286586,40,21.5,-591.7467651367188,0.7369999885559082,0,0.0,0.0,,,,,0,,1,0.0,
Raw,2531540,2218070000000,,,-1330742678359876469,0.7587852478027344,37.11496538016945,-0.1561180824173483,12.470381574106566,8,18,0.0,15,184896356897884,11,33.8,-371.7847595214844,0.04690000042319298,0,0.0,0.0,,,,,0,,1,0.0,
Raw,2531541,2218070000000,,,-1330742678359876469,0.7587852478027344,37.11496538016945,-0.1561180824173483,12.470381574106566,8,20,0.0,15,184896355937219,10,34.5,451.6966857910156,0.044600002467632294,0,0.0,0.0,,,,,0,,1,0.0,
Raw,2531541,2218070000000,,,-1330742678359876469,0.7587852478027344,37.11496538016945,-0.1561180824173483,12.470381574106566,8,23,0.0,15,184896347648842,4,43.7,-718.47509765625,0.029100000858306885,0,0.0,0.0,,,,,0,,1,0.0,
Raw,2531541,2218070000000,,,-1330742678359876469,0.7587852478027344,37.11496538016945,-0.1561180824173483,12.470381574106566,8,25,0.0,15,184896359207171,6,38.8,452.1178283691406,0.048600003123283386,0,0.0,0.0,,,,,0,,1,0.0,
Raw,2531541,2218070000000,,,-1330742678359876469,0.7587852478027344,37.11496538016945,-0.1561180824173483,12.470381574106566,8,26,0.0,15,184896350391972,17,28.1,-511.39788818359375,0.04830000177025795,0,0.0,0.0,,,,,0,,1,0.0,
Raw,2531541,2218070000000,,,-1330742678359876469,0.7587852478027344,37.11496538016945,-0.1561180824173483,12.470381574106566,8,29,0.0,15,184896360995932,11,33.2,-162.97634887695312,0.02290000021457672,0,0.0,0.0,,,,,0,,1,0.0,
Raw,2531542,2218070000000,,,-1330742678359876469,0.7587852478027344,37.11496538016945,-0.1561180824173483,12.470381574106566,8,31,0.0,15,184896346557125,10,34.8,335.5126037597656,0.03110000118613243,0,0.0,0.0,,,,,0,,1,0.0,
NMEA,$GPGSV,3,2,12,18,40,261,34,20,36,050,35,23,09,201,44,25,53,199,39,1*6C
,1646709679006
NMEA,$GPGSV,3,3,12,26,16,316,28,29,67,348,33,31,09,274,35,13,03,113,,1*61
,1646709679007
NMEA,$GLGSV,3,1,10,78,39,285,39,86,05,074,21,77,28,215,24,79,09,333,28,1*74
,1646709679007
NMEA,$GLGSV,3,2,10,65,25,143,33,88,42,310,30,87,49,022,26,81,02,277,16,1*75
,1646709679011
NMEA,$GLGSV,3,3,10,71,18,035,29,72,37,085,38,1*7C
,1646709679011
NMEA,$GAGSV,1,1,0,7*43
,1646709679012
NMEA,$PQGSV,1,1,0,0*43
,1646709679013
NMEA,$GBGSV,1,1,0,0*47
,1646709679013
Fix,gps,37.429779,-122.169523,-10.637726,0.000000,3.216000,1646709679000
NMEA,$GNGSA,A,3,02,05,12,15,18,20,25,26,29,31,,,0.9,0.6,0.7,1*38
,1646709679019
NMEA,$GNGSA,A,3,65,71,72,77,78,79,86,87,88,,,,0.9,0.6,0.7,2*3A
,1646709679020
NMEA,$GNVTG,,T,,M,0.0,N,0.0,K,A*3D
,1646709679020
NMEA,$GNGGA,032119.00,3725.786729,N,12210.171376,W,1,12,0.6,17.3,M,-27.9,M,,*7A
,1646709679022
NMEA,$GNRMC,032119.00,A,3725.786729,N,12210.171376,W,0.0,,080322,15.0,E,A,V*59
,1646709679022
NMEA,$AIDSTAT,0,0,0,2,-10,23,3*00
,1646709679928
Raw,2532507,2219070000000,,,-1330742678359876478,0.5647687911987305,36.70794467325322,-2.8386925184636387,12.472222644473387,8,14,0.0,207,22879359949348,7,37.9,48.1282844543457,0.2190999984741211,0,0.0,0.0,,,,,0,,3,0.0,
Raw,2532507,2219070000000,,,-1330742678359876478,0.5647687911987305,36.70794467325322,-2.8386925184636387,12.472222644473387,8,22,0.0,207,22879349354195,53,19.9,490.54266357421875,1.2100000381469727,0,0.0,0.0,,,,,0,,3,0.0,
Raw,2532507,2219070000000,,,-1330742678359876478,0.5647687911987305,36.70794467325322,-2.8386925184636387,12.472222644473387,8,13,0.0,207,22879356886779,35,22.5,707.4699096679688,1.0104999542236328,0,0.0,0.0,,,,,0,,3,0.0,
Raw,2532507,2219070000000,,,-1330742678359876478,0.5647687911987305,36.70794467325322,-2.8386925184636387,12.472222644473387,8,15,0.0,207,22879351434156,19,27.0,-559.6300048828125,0.25780001282691956,0,0.0,0.0,,,,,0,,3,0.0,
Raw,2532507,2219070000000,,,-1330742678359876478,0.5647687911987305,36.70794467325322,-2.8386925184636387,12.472222644473387,8,1,0.0,207,22879356348292,9,35.8,-716.245361328125,0.24560000002384186,0,0.0,0.0,,,,,0,,3,0.0,
Raw,2532507,2219070000000,,,-1330742678359876478,0.5647687911987305,36.70794467325322,-2.8386925184636387,12.472222644473387,8,24,0.0,207,22879360825731,14,30.8,-245.0436248779297,0.22579999268054962,0,0.0,0.0,,,,,0,,3,0.0,
Raw,2532507,2219070000000,,,-1330742678359876478,0.5647687911987305,36.70794467325322,-2.8386925184636387,12.472222644473387,8,23,0.0,207,22879361945246,19,27.9,162.0126190185547,0.2428000122308731,0,0.0,0.0,,,,,0,,3,0.0,
Raw,2532507,2219070000000,,,-1330742678359876478,0.5647687911987305,36.70794467325322,-2.8386925184636387,12.472222644473387,8,17,0.0,207,22870096249658,5610,16.0,-481.2937316894531,50.59050369262695,0,0.0,0.0,,,,,0,,3,0.0,
Raw,2532507,2219070000000,,,-1330742678359876478,0.5647687911987305,36.70794467325322,-2.8386925184636387,12.472222644473387,8,7,0.0,207,22879353705779,16,29.6,411.8640441894531,0.24619999527931213,0,0.0,0.0,,,,,0,,3,0.0,
Raw,2532507,2219070000000,,,-1330742678359876478,0.5647687911987305,36.70794467325322,-2.8386925184636387,12.472222644473387,8,8,0.0,207,22879359514156,6,38.1,-204.62889099121094,0.24860000610351562,0,0.0,0.0,,,,,0,,3,0.0,
Raw,2532507,2219070000000,,,-1330742678359876478,0.5647687911987305,36.70794467325322,-2.8386925184636387,12.472222644473387,8,2,0.0,15,184897349061021,14,30.5,459.1297607421875,0.03930000215768814,0,0.0,0.0,,,,,0,,1,0.0,
Raw,2532507,2219070000000,,,-1330742678359876478,0.5647687911987305,36.70794467325322,-2.8386925184636387,12.472222644473387,8,5,0.0,15,184897360600501,7,37.5,142.62234497070312,0.020600000396370888,0,0.0,0.0,,,,,0,,1,0.0,
Raw,2532508,2219070000000,,,-1330742678359876478,0.5647687911987305,36.70794467325322,-2.8386925184636387,12.472222644473387,8,12,0.0,15,184897351470315,10,34.5,709.3395385742188,0.038600001484155655,0,0.0,0.0,,,,,0,,1,0.0,
Raw,2532508,2219070000000,,,-1330742678359876478,0.5647687911987305,36.70794467325322,-2.8386925184636387,12.472222644473387,8,15,0.0,15,184897347288597,53,19.0,-589.7962036132812,0.8569999933242798,0,0.0,0.0,,,,,0,,1,0.0,
Raw,2532508,2219070000000,,,-1330742678359876478,0.5647687911987305,36.70794467325322,-2.8386925184636387,12.472222644473387,8,18,0.0,15,184897356899106,9,35.9,-370.75048828125,0.04560000076889992,0,0.0,0.0,,,,,0,,1,0.0,
Raw,2532508,2219070000000,,,-1330742678359876478,0.5647687911987305,36.70794467325322,-2.8386925184636387,12.472222644473387,8,20,0.0,15,184897355935677,10,34.2,452.7613220214844,0.044600002467632294,0,0.0,0.0,,,,,0,,1,0.0,
Raw,2532508,2219070000000,,,-1330742678359876478,0.5647687911987305,36.70794467325322,-2.8386925184636387,12.472222644473387,8,23,0.0,15,184897347651228,4,43.8,-717.4713745117188,0.029100000858306885,0,0.0,0.0,,,,,0,,1,0.0,
Raw,2532508,2219070000000,,,-1330742678359876478,0.5647687911987305,36.70794467325322,-2.8386925184636387,12.472222644473387,8,25,0.0,15,184897359205648,6,39.3,453.1803894042969,0.048100002110004425,0,0.0,0.0,,,,,0,,1,0.0,
Raw,2532509,2219070000000,,,-1330742678359876478,0.5647687911987305,36.70794467325322,-2.8386925184636387,12.472222644473387,8,26,0.0,15,184897350393670,17,28.3,-510.3949279785156,0.04830000177025795,0,0.0,0.0,,,,,0,,1,0.0,
Raw,2532509,2219070000000,,,-1330742678359876478,0.5647687911987305,36.70794467325322,-2.8386925184636387,12.472222644473387,8,29,0.0,15,184897360996475,10,34.0,-161.94772338867188,0.022099999710917473,0,0.0,0.0,,,,,0,,1,0.0,
Raw,2532509,2219070000000,,,-1330742678359876478,0.5647687911987305,36.70794467325322,-2.8386925184636387,12.472222644473387,8,31,0.0,15,184897346555997,9,35.1,336.57757568359375,0.03060000203549862,0,0.0,0.0,,,,,0,,1,0.0,
NMEA,$GPGSV,3,1,12,02,21,059,31,05,59,077,38,12,24,164,35,15,08,146,19,1*6F
,1646709680001
NMEA,$GPGSV,3,2,12,18,40,261,36,20,36,050,34,23,09,201,44,25,53,199,39,1*6F
,1646709680001
NMEA,$GPGSV,3,3,12,26,16,316,28,29,67,348,34,31,09,274,35,13,03,113,,1*66
,1646709680001
NMEA,$GLGSV,3,1,10,78,39,285,38,86,05,074,20,77,28,215,23,79,09,333,27,1*7C
,1646709680002
NMEA,$GLGSV,3,2,10,65,25,143,36,88,42,310,31,87,49,022,28,81,02,277,16,1*7F
,1646709680002
NMEA,$GLGSV,3,3,10,71,18,035,30,72,37,085,38,1*74
,1646709680003
NMEA,$GAGSV,1,1,0,7*43
,1646709680004
NMEA,$PQGSV,1,1,0,0*43
,1646709680004
NMEA,$GBGSV,1,1,0,0*47
,1646709680004
Fix,gps,37.429779,-122.169524,-10.653076,0.000000,3.216000,1646709680000
NMEA,$GNGSA,A,3,02,05,12,15,18,20,25,26,29,31,,,0.9,0.6,0.7,1*38
,1646709680009
NMEA,$GNGSA,A,3,65,71,72,77,78,79,86,87,88,,,,0.9,0.6,0.7,2*3A
,1646709680009
NMEA,$GNVTG,,T,,M,0.0,N,0.0,K,A*3D
,1646709680010
NMEA,$GNGGA,032120.00,3725.786746,N,12210.171424,W,1,12,0.6,17.3,M,-27.9,M,,*79
,1646709680010
NMEA,$GNRMC,032120.00,A,3725.786746,N,12210.171424,W,0.0,,080322,15.0,E,A,V*5A
,1646709680010
NMEA,$AIDSTAT,0,0,0,2,-8,23,3*00
,1646709680927
Raw,2533542,2220070000000,,,-1330742678359876478,0.005975246429443359,36.900106351822615,0.4562074450282197,11.495617921507154,8,14,0.0,207,22880359949140,5,40.2,49.376529693603516,0.21790000796318054,0,0.0,0.0,,,,,0,,3,0.0,
Raw,2533542,2220070000000,,,-1330742678359876478,0.005975246429443359,36.900106351822615,0.4562074450282197,11.495617921507154,8,22,0.0,207,22880349352557,53,19.4,490.2616882324219,1.2100000381469727,0,0.0,0.0,,,,,0,,3,0.0,
Raw,2533543,2220070000000,,,-1330742678359876478,0.005975246429443359,36.900106351822615,0.4562074450282197,11.495617921507154,8,13,0.0,207,22880356884476,61,18.4,709.04296875,1.3005000352859497,0,0.0,0.0,,,,,0,,3,0.0,
Raw,2533543,2220070000000,,,-1330742678359876478,0.005975246429443359,36.900106351822615,0.4562074450282197,11.495617921507154,8,15,0.0,207,22880351435935,16,29.9,-558.4442138671875,0.24320000410079956,0,0.0,0.0,,,,,0,,3,0.0,
Raw,2533543,2220070000000,,,-1330742678359876478,0.005975246429443359,36.900106351822615,0.4562074450282197,11.495617921507154,8,1,0.0,207,22880356350682,8,36.3,-715.1078491210938,0.2452000081539154,0,0.0,0.0,,,,,0,,3,0.0,
Raw,2533543,2220070000000,,,-1330742678359876478,0.005975246429443359,36.900106351822615,0.4562074450282197,11.495617921507154,8,24,0.0,207,22880360826624,16,29.3,-243.98548889160156,0.22669999301433563,0,0.0,0.0,,,,,0,,3,0.0,
Raw,2533543,2220070000000,,,-1330742678359876478,0.005975246429443359,36.900106351822615,0.4562074450282197,11.495617921507154,8,23,0.0,207,22880361944757,24,25.3,163.05885314941406,0.583299994468689,0,0.0,0.0,,,,,0,,3,0.0,
Raw,2533543,2220070000000,,,-1330742678359876478,0.005975246429443359,36.900106351822615,0.4562074450282197,11.495617921507154,8,17,0.0,207,22870096249658,5610,16.0,-481.2937316894531,50.59050369262695,0,0.0,0.0,,,,,0,,3,0.0,
Raw,2533544,2220070000000,,,-1330742678359876478,0.005975246429443359,36.900106351822615,0.4562074450282197,11.495617921507154,8,7,0.0,207,22880353704405,23,29.6,411.6883850097656,2.1760001182556152,0,0.0,0.0,,,,,0,,3,0.0,
Raw,2533544,2220070000000,,,-1330742678359876478,0.005975246429443359,36.900106351822615,0.4562074450282197,11.495617921507154,8,8,0.0,207,22880359514781,6,38.3,-203.41993713378906,0.24860000610351562,0,0.0,0.0,,,,,0,,3,0.0,
Raw,2533544,2220070000000,,,-1330742678359876478,0.005975246429443359,36.900106351822615,0.4562074450282197,11.495617921507154,8,2,0.0,15,184898349059447,13,31.9,460.1558837890625,0.038700003176927567,0,0.0,0.0,,,,,0,,1,0.0,
Raw,2533544,2220070000000,,,-1330742678359876478,0.005975246429443359,36.900106351822615,0.4562074450282197,11.495617921507154,8,5,0.0,15,184898360599995,7,37.7,143.83322143554688,0.020600000396370888,0,0.0,0.0,,,,,0,,1,0.0,
Raw,2533544,2220070000000,,,-1330742678359876478,0.005975246429443359,36.900106351822615,0.4562074450282197,11.495617921507154,8,12,0.0,15,184898351467955,11,33.9,710.47216796875,0.039400000125169754,0,0.0,0.0,,,,,0,,1,0.0,
Raw,2533544,2220070000000,,,-1330742678359876478,0.005975246429443359,36.900106351822615,0.4562074450282197,11.495617921507154,8,15,0.0,15,184898347290599,93,15.4,-589.853271484375,1.1769999265670776,0,0.0,0.0,,,,,0,,1,0.0,
Raw,2533544,2220070000000,,,-1330742678359876478,0.005975246429443359,36.900106351822615,0.4562074450282197,11.495617921507154,8,18,0.0,15,184898356900309,10,34.1,-369.6361999511719,0.04610000178217888,0,0.0,0.0,,,,,0,,1,0.0,
Raw,2533545,2220070000000,,,-1330742678359876478,0.005975246429443359,36.900106351822615,0.4562074450282197,11.495617921507154,8,20,0.0,15,184898355934161,11,33.5,453.8934631347656,0.04540000110864639,0,0.0,0.0,,,,,0,,1,0.0,
Raw,2533545,2220070000000,,,-1330742678359876478,0.005975246429443359,36.900106351822615,0.4562074450282197,11.495617921507154,8,23,0.0,15,184898347653628,4,43.2,-716.3966674804688,0.029100000858306885,0,0.0,0.0,,,,,0,,1,0.0,
Raw,2533545,2220070000000,,,-1330742678359876478,0.005975246429443359,36.900106351822615,0.4562074450282197,11.495617921507154,8,25,0.0,15,184898359204144,5,40.6,454.3356628417969,0.0479000024497509,0,0.0,0.0,,,,,0,,1,0.0,
Raw,2533545,2220070000000,,,-1330742678359876478,0.005975246429443359,36.900106351822615,0.4562074450282197,11.495617921507154,8,26,0.0,15,184898350395497,46,20.1,-508.7120666503906,0.8014999628067017,0,0.0,0.0,,,,,0,,1,0.0,
Raw,2533545,2220070000000,,,-1330742678359876478,0.005975246429443359,36.900106351822615,0.4562074450282197,11.495617921507154,8,29,0.0,15,184898360996997,9,35.4,-160.84381103515625,0.02160000056028366,0,0.0,0.0,,,,,0,,1,0.0,
Raw,2533545,2220070000000,,,-1330742678359876478,0.005975246429443359,36.900106351822615,0.4562074450282197,11.495617921507154,8,31,0.0,15,184898346554901,11,33.4,337.66119384765625,0.03189999982714653,0,0.0,0.0,,,,,0,,1,0.0,
Fix,gps,37.429779,-122.169524,-10.767761,0.000000,3.216000,1646709681000
NMEA,$GPGSV,3,1,12,02,21,059,32,05,59,077,38,12,24,164,34,15,08,146,15,1*61
,1646709681006
NMEA,$GPGSV,3,2,12,18,40,261,34,20,36,050,34,23,09,201,43,25,53,199,41,1*65
,1646709681006
NMEA,$GPGSV,3,3,12,26,16,316,20,29,67,348,35,31,09,274,33,13,03,113,,1*69
,1646709681006
NMEA,$GLGSV,3,1,10,78,39,285,40,86,05,074,19,77,28,215,18,79,09,333,30,1*77
,1646709681006
NMEA,$GLGSV,3,2,10,65,25,143,36,88,42,310,29,87,49,022,25,81,02,277,16,1*7B
,1646709681006
NMEA,$GLGSV,3,3,10,71,18,035,30,72,37,085,38,1*74
,1646709681006
NMEA,$GAGSV,1,1,0,7*43
,1646709681007
NMEA,$PQGSV,1,1,0,0*43
,1646709681007
NMEA,$GBGSV,1,1,0,0*47
,1646709681007
NMEA,$GNGSA,A,3,02,05,12,15,18,20,25,26,29,31,,,0.9,0.6,0.7,1*38
,1646709681009
NMEA,$GNGSA,A,3,65,71,72,77,78,79,86,87,88,,,,0.9,0.6,0.7,2*3A
,1646709681009
NMEA,$GNVTG,,T,,M,0.0,N,0.0,K,A*3D
,1646709681009
NMEA,$GNGGA,032121.00,3725.786716,N,12210.171457,W,1,12,0.6,17.2,M,-27.9,M,,*78
,1646709681009
NMEA,$GNRMC,032121.00,A,3725.786716,N,12210.171457,W,0.0,,080322,15.0,E,A,V*5A
,1646709681009
NMEA,$AIDSTAT,0,0,0,2,-5,23,3*00
,1646709681927
Raw,2534539,2221070000000,,,-1330742678359876465,0.2382063865661621,35.58790558599867,3.920399892749903,10.519433105734736,8,14,0.0,207,22881359949001,5,40.0,50.061927795410156,0.21790000796318054,0,0.0,0.0,,,,,0,,3,0.0,
Raw,2534539,2221070000000,,,-1330742678359876465,0.2382063865661621,35.58790558599867,3.920399892749903,10.519433105734736,8,22,0.0,207,22881349350814,61,18.0,491.3200988769531,1.2899999618530273,0,0.0,0.0,,,,,0,,3,0.0,
Raw,2534540,2221070000000,,,-1330742678359876465,0.2382063865661621,35.58790558599867,3.920399892749903,10.519433105734736,8,13,0.0,207,22881356882014,35,22.2,709.0617065429688,1.0104999542236328,0,0.0,0.0,,,,,0,,3,0.0,
Raw,2534540,2221070000000,,,-1330742678359876465,0.2382063865661621,35.58790558599867,3.920399892749903,10.519433105734736,8,15,0.0,207,22881351437844,13,31.0,-557.7887573242188,0.24170000851154327,0,0.0,0.0,,,,,0,,3,0.0,
Raw,2534540,2221070000000,,,-1330742678359876465,0.2382063865661621,35.58790558599867,3.920399892749903,10.519433105734736,8,1,0.0,207,22881356353094,8,36.3,-714.599365234375,0.2452000081539154,0,0.0,0.0,,,,,0,,3,0.0,
Raw,2534541,2221070000000,,,-1330742678359876465,0.2382063865661621,35.58790558599867,3.920399892749903,10.519433105734736,8,24,0.0,207,22881360827447,13,31.9,-243.39279174804688,0.22519999742507935,0,0.0,0.0,,,,,0,,3,0.0,
Raw,2534541,2221070000000,,,-1330742678359876465,0.2382063865661621,35.58790558599867,3.920399892749903,10.519433105734736,8,23,0.0,207,22881361944172,19,27.1,163.57318115234375,0.2428000122308731,0,0.0,0.0,,,,,0,,3,0.0,
Raw,2534541,2221070000000,,,-1330742678359876465,0.2382063865661621,35.58790558599867,3.920399892749903,10.519433105734736,8,17,0.0,207,22870096249658,5610,16.0,-481.2937316894531,50.59050369262695,0,0.0,0.0,,,,,0,,3,0.0,
Raw,2534541,2221070000000,,,-1330742678359876465,0.2382063865661621,35.58790558599867,3.920399892749903,10.519433105734736,8,7,0.0,207,22881353702831,97,15.3,413.080078125,2.326000213623047,0,0.0,0.0,,,,,0,,3,0.0,
Raw,2534541,2221070000000,,,-1330742678359876465,0.2382063865661621,35.58790558599867,3.920399892749903,10.519433105734736,8,8,0.0,207,22881359515459,6,38.9,-202.7929229736328,0.24860000610351562,0,0.0,0.0,,,,,0,,3,0.0,
Raw,2534541,2221070000000,,,-1330742678359876465,0.2382063865661621,35.58790558599867,3.920399892749903,10.519433105734736,8,2,0.0,15,184899349057882,12,32.6,460.634765625,0.03739999979734421,0,0.0,0.0,,,,,0,,1,0.0,
Raw,2534541,2221070000000,,,-1330742678359876465,0.2382063865661621,35.58790558599867,3.920399892749903,10.519433105734736,8,5,0.0,15,184899360599520,7,37.1,144.4471435546875,0.020600000396370888,0,0.0,0.0,,,,,0,,1,0.0,
Raw,2534541,2221070000000,,,-1330742678359876465,0.2382063865661621,35.58790558599867,3.920399892749903,10.519433105734736,8,12,0.0,15,184899351465585,9,35.6,710.9129638671875,0.038100000470876694,0,0.0,0.0,,,,,0,,1,0.0,
Raw,2534541,2221070000000,,,-1330742678359876465,0.2382063865661621,35.58790558599867,3.920399892749903,10.519433105734736,8,15,0.0,15,184899347292500,40,21.3,-589.0064697265625,0.7369999885559082,0,0.0,0.0,,,,,0,,1,0.0,
Raw,2534542,2221070000000,,,-1330742678359876465,0.2382063865661621,35.58790558599867,3.920399892749903,10.519433105734736,8,18,0.0,15,184899356901521,10,34.9,-369.0370178222656,0.04610000178217888,0,0.0,0.0,,,,,0,,1,0.0,
Raw,2534542,2221070000000,,,-1330742678359876465,0.2382063865661621,35.58790558599867,3.920399892749903,10.519433105734736,8,20,0.0,15,184899355932657,12,32.4,454.45733642578125,0.046400003135204315,0,0.0,0.0,,,,,0,,1,0.0,
Raw,2534542,2221070000000,,,-1330742678359876465,0.2382063865661621,35.58790558599867,3.920399892749903,10.519433105734736,8,23,0.0,15,184899347656019,4,43.8,-715.9295043945312,0.029100000858306885,0,0.0,0.0,,,,,0,,1,0.0,
Raw,2534542,2221070000000,,,-1330742678359876465,0.2382063865661621,35.58790558599867,3.920399892749903,10.519433105734736,8,25,0.0,15,184899359202627,5,41.3,454.9104919433594,0.047600001096725464,0,0.0,0.0,,,,,0,,1,0.0,
Raw,2534542,2221070000000,,,-1330742678359876465,0.2382063865661621,35.58790558599867,3.920399892749903,10.519433105734736,8,26,0.0,15,184899350397216,40,21.9,-508.7120666503906,0.7414999604225159,0,0.0,0.0,,,,,0,,1,0.0,
Raw,2534542,2221070000000,,,-1330742678359876465,0.2382063865661621,35.58790558599867,3.920399892749903,10.519433105734736,8,29,0.0,15,184899360997539,9,35.5,-160.26853942871094,0.02160000056028366,0,0.0,0.0,,,,,0,,1,0.0,
Raw,2534542,2221070000000,,,-1330742678359876465,0.2382063865661621,35.58790558599867,3.920399892749903,10.519433105734736,8,31,0.0,15,184899346553790,8,36.7,338.3011474609375,0.03020000085234642,0,0.0,0.0,,,,,0,,1,0.0,
Fix,gps,37.429778,-122.169527,-10.959656,0.000000,3.216000,1646709682000
NMEA,$GPGSV,3,1,12,02,21,059,33,05,59,077,37,12,24,164,36,15,08,146,21,1*6A
,1646709682002
NMEA,$GPGSV,3,2,12,18,40,261,35,20,36,050,32,23,09,201,44,25,53,199,41,1*65
,1646709682003
NMEA,$GPGSV,3,3,12,26,16,316,22,29,67,348,36,31,09,274,37,13,03,113,,1*6C
,1646709682003
NMEA,$GLGSV,3,1,10,78,39,285,40,86,05,074,18,77,28,215,22,79,09,333,31,1*7E
,1646709682004
NMEA,$GLGSV,3,2,10,65,25,143,36,88,42,310,32,87,49,022,27,81,02,277,16,1*73
,1646709682004
NMEA,$GLGSV,3,3,10,71,18,035,15,72,37,085,39,1*72
,1646709682004
NMEA,$GAGSV,1,1,0,7*43
,1646709682005
NMEA,$PQGSV,1,1,0,0*43
,1646709682007
NMEA,$GBGSV,1,1,0,0*47
,1646709682007
NMEA,$GNGSA,A,3,02,05,12,15,18,20,25,26,29,31,,,0.9,0.6,0.7,1*38
,1646709682016
NMEA,$GNGSA,A,3,65,71,72,77,78,79,86,87,88,,,,0.9,0.6,0.7,2*3A
,1646709682016
NMEA,$GNVTG,,T,,M,0.0,N,0.0,K,A*3D
,1646709682016
NMEA,$GNGGA,032122.00,3725.786681,N,12210.171598,W,1,12,0.6,17.0,M,-27.9,M,,*74
,1646709682017
NMEA,$GNRMC,032122.00,A,3725.786681,N,12210.171598,W,0.0,,080322,15.0,E,A,V*54
,1646709682017
NMEA,$AIDSTAT,0,0,0,2,,23,3*00
,1646709682927
NMEA,$GPGSV,3,1,12,02,21,059,33,05,59,077,37,12,24,164,36,13,03,113,18,1*6D
,1646709683009
Raw,2535535,2222070000000,,,-1330742678359876464,0.7730259895324707,35.03229527268559,5.590575586836274,10.51628698289623,8,14,0.0,207,22882359948867,6,39.0,50.384761810302734,0.21809999644756317,0,0.0,0.0,,,,,0,,3,0.0,
Raw,2535536,2222070000000,,,-1330742678359876464,0.7730259895324707,35.03229527268559,5.590575586836274,10.51628698289623,8,22,0.0,207,22882349349490,70,17.0,492.97802734375,1.3799999952316284,0,0.0,0.0,,,,,0,,3,0.0,
Raw,2535536,2222070000000,,,-1330742678359876464,0.7730259895324707,35.03229527268559,5.590575586836274,10.51628698289623,8,13,0.0,207,22882356879658,31,23.3,709.6328735351562,0.950499951839447,0,0.0,0.0,,,,,0,,3,0.0,
Raw,2535537,2222070000000,,,-1330742678359876464,0.7730259895324707,35.03229527268559,5.590575586836274,10.51628698289623,8,15,0.0,207,22882351439794,17,28.6,-557.47705078125,0.24980001151561737,0,0.0,0.0,,,,,0,,3,0.0,
Raw,2535537,2222070000000,,,-1330742678359876464,0.7730259895324707,35.03229527268559,5.590575586836274,10.51628698289623,8,1,0.0,207,22882356355458,10,34.8,-714.4067993164062,0.24610000848770142,0,0.0,0.0,,,,,0,,3,0.0,
Raw,2535537,2222070000000,,,-1330742678359876464,0.7730259895324707,35.03229527268559,5.590575586836274,10.51628698289623,8,24,0.0,207,22882360828118,12,32.7,-243.19898986816406,0.22390000522136688,0,0.0,0.0,,,,,0,,3,0.0,
Raw,2535537,2222070000000,,,-1330742678359876464,0.7730259895324707,35.03229527268559,5.590575586836274,10.51628698289623,8,23,0.0,207,22882361943503,21,26.2,163.75674438476562,0.3127000033855438,0,0.0,0.0,,,,,0,,3,0.0,
Raw,2535537,2222070000000,,,-1330742678359876464,0.7730259895324707,35.03229527268559,5.590575586836274,10.51628698289623,8,17,0.0,207,22870096249658,5610,16.0,-481.2937316894531,50.59050369262695,0,0.0,0.0,,,,,0,,3,0.0,
Raw,2535537,2222070000000,,,-1330742678359876464,0.7730259895324707,35.03229527268559,5.590575586836274,10.51628698289623,8,7,0.0,207,22882353701626,40,21.6,413.7712707519531,1.065999984741211,0,0.0,0.0,,,,,0,,3,0.0,
Raw,2535537,2222070000000,,,-1330742678359876464,0.7730259895324707,35.03229527268559,5.590575586836274,10.51628698289623,8,8,0.0,207,22882359516165,7,37.5,-202.46990966796875,0.249099999666214,0,0.0,0.0,,,,,0,,3,0.0,
Raw,2535537,2222070000000,,,-1330742678359876464,0.7730259895324707,35.03229527268559,5.590575586836274,10.51628698289623,8,2,0.0,15,184900349056365,11,33.4,460.7650451660156,0.036400001496076584,0,0.0,0.0,,,,,0,,1,0.0,
Raw,2535537,2222070000000,,,-1330742678359876464,0.7730259895324707,35.03229527268559,5.590575586836274,10.51628698289623,8,5,0.0,15,184900360599033,7,37.4,144.76980590820312,0.020600000396370888,0,0.0,0.0,,,,,0,,1,0.0,
Raw,2535538,2222070000000,,,-1330742678359876464,0.7730259895324707,35.03229527268559,5.590575586836274,10.51628698289623,8,12,0.0,15,184900351463195,8,36.4,711.1583862304688,0.037700001150369644,0,0.0,0.0,,,,,0,,1,0.0,
Raw,2535538,2222070000000,,,-1330742678359876464,0.7730259895324707,35.03229527268559,5.590575586836274,10.51628698289623,8,13,0.0,15,184900345997033,657,17.8,-485.32501220703125,2.6690001487731934,0,0.0,0.0,,,,,0,,1,0.0,
Raw,2535538,2222070000000,,,-1330742678359876464,0.7730259895324707,35.03229527268559,5.590575586836274,10.51628698289623,8,15,0.0,15,184900347294526,53,19.8,-588.5878295898438,0.8569999933242798,0,0.0,0.0,,,,,0,,1,0.0,
Raw,2535539,2222070000000,,,-1330742678359876464,0.7730259895324707,35.03229527268559,5.590575586836274,10.51628698289623,8,18,0.0,15,184900356902775,9,35.8,-368.8519287109375,0.04560000076889992,0,0.0,0.0,,,,,0,,1,0.0,
Raw,2535539,2222070000000,,,-1330742678359876464,0.7730259895324707,35.03229527268559,5.590575586836274,10.51628698289623,8,20,0.0,15,184900355931121,9,35.5,454.68634033203125,0.04410000145435333,0,0.0,0.0,,,,,0,,1,0.0,
Raw,2535539,2222070000000,,,-1330742678359876464,0.7730259895324707,35.03229527268559,5.590575586836274,10.51628698289623,8,23,0.0,15,184900347658399,4,43.3,-715.744873046875,0.029100000858306885,0,0.0,0.0,,,,,0,,1,0.0,
Raw,2535539,2222070000000,,,-1330742678359876464,0.7730259895324707,35.03229527268559,5.590575586836274,10.51628698289623,8,25,0.0,15,184900359201114,5,41.1,455.1730651855469,0.047600001096725464,0,0.0,0.0,,,,,0,,1,0.0,
Raw,2535539,2222070000000,,,-1330742678359876464,0.7730259895324707,35.03229527268559,5.590575586836274,10.51628698289623,8,26,0.0,15,184900350398723,21,26.2,-508.3915100097656,0.12620000541210175,0,0.0,0.0,,,,,0,,1,0.0,
Raw,2535539,2222070000000,,,-1330742678359876464,0.7730259895324707,35.03229527268559,5.590575586836274,10.51628698289623,8,29,0.0,15,184900360998107,11,33.6,-160.06597900390625,0.02290000021457672,0,0.0,0.0,,,,,0,,1,0.0,
Raw,2535539,2222070000000,,,-1330742678359876464,0.7730259895324707,35.03229527268559,5.590575586836274,10.51628698289623,8,31,0.0,15,184900346552607,10,34.6,338.5003662109375,0.03110000118613243,0,0.0,0.0,,,,,0,,1,0.0,
Fix,gps,37.429778,-122.169530,-11.000458,0.000000,3.216000,1646709683000
NMEA,$GPGSV,3,2,12,15,08,146,20,18,40,261,36,20,36,050,36,23,09,201,43,1*6D
,1646709683010
NMEA,$GPGSV,3,3,12,25,53,199,41,26,16,316,26,29,67,348,34,31,09,274,35,1*6F
,1646709683010
NMEA,$GLGSV,3,1,10,78,39,285,39,86,05,074,17,77,28,215,23,79,09,333,29,1*77
,1646709683010
NMEA,$GLGSV,3,2,10,65,25,143,35,88,42,310,33,87,49,022,26,81,02,277,16,1*70
,1646709683011
NMEA,$GLGSV,3,3,10,71,18,035,22,72,37,085,38,1*77
,1646709683011
NMEA,$GAGSV,1,1,0,7*43
,1646709683011
NMEA,$PQGSV,1,1,0,0*43
,1646709683012
NMEA,$GBGSV,1,1,0,0*47
,1646709683012
NMEA,$GNGSA,A,3,02,05,12,15,18,20,25,26,29,31,,,0.9,0.6,0.7,1*38
,1646709683017
NMEA,$GNGSA,A,3,65,71,72,77,78,79,86,87,88,,,,0.9,0.6,0.7,2*3A
,1646709683017
NMEA,$GNVTG,,T,,M,0.0,N,0.0,K,A*3D
,1646709683018
NMEA,$GNGGA,032123.00,3725.786684,N,12210.171829,W,1,12,0.6,16.9,M,-27.9,M,,*7F
,1646709683018
NMEA,$GNRMC,032123.00,A,3725.786684,N,12210.171829,W,0.0,,080322,15.0,E,A,V*57
,1646709683018
NMEA,$AIDSTAT,0,0,0,2,-16,23,3*00
,1646709683927
Raw,2536532,2223070000000,,,-1330742678359876455,0.5200076103210449,38.19275661953725,6.097830236834166,11.49587797766696,8,14,0.0,207,22883359948651,5,40.0,50.713199615478516,0.21790000796318054,0,0.0,0.0,,,,,0,,3,0.0,
Raw,2536532,2223070000000,,,-1330742678359876455,0.5200076103210449,38.19275661953725,6.097830236834166,11.49587797766696,8,22,0.0,207,22883349347590,80,16.8,491.85400390625,1.4700000286102295,0,0.0,0.0,,,,,0,,3,0.0,
Raw,2536533,2223070000000,,,-1330742678359876455,0.5200076103210449,38.19275661953725,6.097830236834166,11.49587797766696,8,13,0.0,207,22883356877338,27,24.4,709.8201904296875,0.8904999494552612,0,0.0,0.0,,,,,0,,3,0.0,
Raw,2536533,2223070000000,,,-1330742678359876455,0.5200076103210449,38.19275661953725,6.097830236834166,11.49587797766696,8,15,0.0,207,22883351441659,16,29.7,-557.2357788085938,0.24320000410079956,0,0.0,0.0,,,,,0,,3,0.0,
Raw,2536533,2223070000000,,,-1330742678359876455,0.5200076103210449,38.19275661953725,6.097830236834166,11.49587797766696,8,1,0.0,207,22883356357816,10,34.4,-714.1324462890625,0.24610000848770142,0,0.0,0.0,,,,,0,,3,0.0,
Raw,2536533,2223070000000,,,-1330742678359876455,0.5200076103210449,38.19275661953725,6.097830236834166,11.49587797766696,8,24,0.0,207,22883360828932,11,33.7,-243.00621032714844,0.22290000319480896,0,0.0,0.0,,,,,0,,3,0.0,
Raw,2536533,2223070000000,,,-1330742678359876455,0.5200076103210449,38.19275661953725,6.097830236834166,11.49587797766696,8,23,0.0,207,22883361942903,21,26.2,164.10818481445312,0.3127000033855438,0,0.0,0.0,,,,,0,,3,0.0,
Raw,2536533,2223070000000,,,-1330742678359876455,0.5200076103210449,38.19275661953725,6.097830236834166,11.49587797766696,8,17,0.0,207,22870096249658,5610,16.0,-481.2937316894531,50.59050369262695,0,0.0,0.0,,,,,0,,3,0.0,
Raw,2536533,2223070000000,,,-1330742678359876455,0.5200076103210449,38.19275661953725,6.097830236834166,11.49587797766696,8,7,0.0,207,22883353700245,49,21.6,413.7712707519531,2.565999984741211,0,0.0,0.0,,,,,0,,3,0.0,
Raw,2536533,2223070000000,,,-1330742678359876455,0.5200076103210449,38.19275661953725,6.097830236834166,11.49587797766696,8,8,0.0,207,22883359516828,6,38.3,-202.09373474121094,0.24860000610351562,0,0.0,0.0,,,,,0,,3,0.0,
Raw,2536533,2223070000000,,,-1330742678359876455,0.5200076103210449,38.19275661953725,6.097830236834166,11.49587797766696,8,2,0.0,15,184901349054844,12,32.3,461.075439453125,0.03739999979734421,0,0.0,0.0,,,,,0,,1,0.0,
Raw,2536533,2223070000000,,,-1330742678359876455,0.5200076103210449,38.19275661953725,6.097830236834166,11.49587797766696,8,5,0.0,15,184901360598549,6,38.0,145.08547973632812,0.020100001245737076,0,0.0,0.0,,,,,0,,1,0.0,
Raw,2536533,2223070000000,,,-1330742678359876455,0.5200076103210449,38.19275661953725,6.097830236834166,11.49587797766696,8,12,0.0,15,184901351460840,9,35.8,711.367431640625,0.038100000470876694,0,0.0,0.0,,,,,0,,1,0.0,
Raw,2536533,2223070000000,,,-1330742678359876455,0.5200076103210449,38.19275661953725,6.097830236834166,11.49587797766696,8,13,0.0,15,184901345998673,760,16.6,-485.5914001464844,3.124000072479248,0,0.0,0.0,,,,,0,,1,0.0,
Raw,2536533,2223070000000,,,-1330742678359876455,0.5200076103210449,38.19275661953725,6.097830236834166,11.49587797766696,8,15,0.0,15,184901347296477,53,19.9,-587.9218139648438,0.8569999933242798,0,0.0,0.0,,,,,0,,1,0.0,
Raw,2536533,2223070000000,,,-1330742678359876455,0.5200076103210449,38.19275661953725,6.097830236834166,11.49587797766696,8,18,0.0,15,184901356903999,8,36.4,-368.5916748046875,0.04520000144839287,0,0.0,0.0,,,,,0,,1,0.0,
Raw,2536534,2223070000000,,,-1330742678359876455,0.5200076103210449,38.19275661953725,6.097830236834166,11.49587797766696,8,20,0.0,15,184901355929604,9,35.1,454.9883117675781,0.04410000145435333,0,0.0,0.0,,,,,0,,1,0.0,
Raw,2536534,2223070000000,,,-1330742678359876455,0.5200076103210449,38.19275661953725,6.097830236834166,11.49587797766696,8,23,0.0,15,184901347660784,4,43.4,-715.5597534179688,0.029100000858306885,0,0.0,0.0,,,,,0,,1,0.0,
Raw,2536534,2223070000000,,,-1330742678359876455,0.5200076103210449,38.19275661953725,6.097830236834166,11.49587797766696,8,25,0.0,15,184901359199591,5,41.6,455.456787109375,0.047600001096725464,0,0.0,0.0,,,,,0,,1,0.0,
Raw,2536534,2223070000000,,,-1330742678359876455,0.5200076103210449,38.19275661953725,6.097830236834166,11.49587797766696,8,26,0.0,15,184901350400494,21,26.5,-508.1551208496094,0.12620000541210175,0,0.0,0.0,,,,,0,,1,0.0,
Raw,2536534,2223070000000,,,-1330742678359876455,0.5200076103210449,38.19275661953725,6.097830236834166,11.49587797766696,8,29,0.0,15,184901360998675,11,33.0,-159.79258728027344,0.02290000021457672,0,0.0,0.0,,,,,0,,1,0.0,
Raw,2536534,2223070000000,,,-1330742678359876455,0.5200076103210449,38.19275661953725,6.097830236834166,11.49587797766696,8,31,0.0,15,184901346551457,9,35.5,338.70172119140625,0.03060000203549862,0,0.0,0.0,,,,,0,,1,0.0,
Fix,gps,37.429779,-122.169533,-10.865051,0.000000,3.216000,1646709684000
NMEA,$GPGSV,3,1,12,02,21,059,32,05,59,077,38,12,24,164,36,13,03,113,17,1*6C
,1646709684000
NMEA,$GPGSV,3,2,12,15,08,146,20,18,40,261,36,20,36,050,35,23,09,201,43,1*6E
,1646709684001
NMEA,$GPGSV,3,3,12,25,53,199,42,26,16,316,27,29,67,348,33,31,09,274,36,1*69
,1646709684001
NMEA,$GLGSV,3,1,10,78,39,285,40,86,05,074,17,77,28,215,24,79,09,333,30,1*76
,1646709684001
NMEA,$GLGSV,3,2,10,65,25,143,34,88,42,310,34,87,49,022,26,81,02,277,16,1*76
,1646709684001
NMEA,$GLGSV,3,3,10,71,18,035,22,72,37,085,38,1*77
,1646709684001
NMEA,$GAGSV,1,1,0,7*43
,1646709684001
NMEA,$PQGSV,1,1,0,0*43
,1646709684001
NMEA,$GBGSV,1,1,0,0*47
,1646709684002
NMEA,$GNGSA,A,3,02,05,12,15,18,20,25,26,29,31,,,0.9,0.6,0.7,1*38
,1646709684007
NMEA,$GNGSA,A,3,65,71,72,77,78,79,86,87,88,,,,0.9,0.6,0.7,2*3A
,1646709684007
NMEA,$GNVTG,,T,,M,0.0,N,0.0,K,A*3D
,1646709684007
NMEA,$GNGGA,032124.00,3725.786712,N,12210.171985,W,1,12,0.6,17.1,M,-27.9,M,,*78
,1646709684007
NMEA,$GNRMC,032124.00,A,3725.786712,N,12210.171985,W,0.0,,080322,15.0,E,A,V*59
,1646709684007
NMEA,$AIDSTAT,0,0,0,2,-6,23,3*00
,1646709684926
NMEA,$GPGSV,3,1,12,02,21,059,31,05,58,075,39,12,23,164,36,13,03,113,16,1*6B
,1646709685011
NMEA,$GPGSV,3,2,12,15,09,144,21,18,41,262,36,20,35,050,35,23,10,201,44,1*62
,1646709685012
Raw,2537542,2224070000000,,,-1330742678359876446,0.6395182609558105,38.20092751993798,6.815272693339042,9.542693185376555,8,14,0.0,207,22884359948446,5,41.1,51.126888275146484,0.2176000028848648,0,0.0,0.0,,,,,0,,3,0.0,
Raw,2537542,2224070000000,,,-1330742678359876446,0.6395182609558105,38.20092751993798,6.815272693339042,9.542693185376555,8,22,0.0,207,22884349345882,61,18.7,492.50030517578125,1.2899999618530273,0,0.0,0.0,,,,,0,,3,0.0,
Raw,2537542,2224070000000,,,-1330742678359876446,0.6395182609558105,38.20092751993798,6.815272693339042,9.542693185376555,8,13,0.0,207,22884356874957,27,24.1,709.6796875,0.8904999494552612,0,0.0,0.0,,,,,0,,3,0.0,
Raw,2537542,2224070000000,,,-1330742678359876446,0.6395182609558105,38.20092751993798,6.815272693339042,9.542693185376555,8,15,0.0,207,22884351443428,13,31.6,-556.8723754882812,0.24170000851154327,0,0.0,0.0,,,,,0,,3,0.0,
Raw,2537542,2224070000000,,,-1330742678359876446,0.6395182609558105,38.20092751993798,6.815272693339042,9.542693185376555,8,1,0.0,207,22884356360232,10,34.5,-713.8252563476562,0.24610000848770142,0,0.0,0.0,,,,,0,,3,0.0,
Raw,2537542,2224070000000,,,-1330742678359876446,0.6395182609558105,38.20092751993798,6.815272693339042,9.542693185376555,8,24,0.0,207,22884360829748,10,34.7,-242.7671356201172,0.22210000455379486,0,0.0,0.0,,,,,0,,3,0.0,
Raw,2537542,2224070000000,,,-1330742678359876446,0.6395182609558105,38.20092751993798,6.815272693339042,9.542693185376555,8,23,0.0,207,22884361942550,19,27.0,164.33999633789062,0.2428000122308731,0,0.0,0.0,,,,,0,,3,0.0,
Raw,2537542,2224070000000,,,-1330742678359876446,0.6395182609558105,38.20092751993798,6.815272693339042,9.542693185376555,8,17,0.0,207,22870096249658,5610,16.0,-481.2937316894531,50.59050369262695,0,0.0,0.0,,,,,0,,3,0.0,
Raw,2537543,2224070000000,,,-1330742678359876446,0.6395182609558105,38.20092751993798,6.815272693339042,9.542693185376555,8,7,0.0,207,22884353698556,30,24.6,414.7707214355469,1.6360000371932983,0,0.0,0.0,,,,,0,,3,0.0,
Raw,2537543,2224070000000,,,-1330742678359876446,0.6395182609558105,38.20092751993798,6.815272693339042,9.542693185376555,8,8,0.0,207,22884359517504,6,39.4,-201.7131805419922,0.24809999763965607,0,0.0,0.0,,,,,0,,3,0.0,
Raw,2537543,2224070000000,,,-1330742678359876446,0.6395182609558105,38.20092751993798,6.815272693339042,9.542693185376555,8,2,0.0,15,184902349053331,13,31.3,461.2420654296875,0.038700003176927567,0,0.0,0.0,,,,,0,,1,0.0,
Raw,2537543,2224070000000,,,-1330742678359876446,0.6395182609558105,38.20092751993798,6.815272693339042,9.542693185376555,8,5,0.0,15,184902360598070,6,38.7,145.44996643066406,0.020100001245737076,0,0.0,0.0,,,,,0,,1,0.0,
Raw,2537543,2224070000000,,,-1330742678359876446,0.6395182609558105,38.20092751993798,6.815272693339042,9.542693185376555,8,12,0.0,15,184902351458482,8,36.1,711.6190795898438,0.037700001150369644,0,0.0,0.0,,,,,0,,1,0.0,
Raw,2537543,2224070000000,,,-1330742678359876446,0.6395182609558105,38.20092751993798,6.815272693339042,9.542693185376555,8,13,0.0,15,184902346000304,770,16.1,-485.6009216308594,3.874000072479248,0,0.0,0.0,,,,,0,,1,0.0,
Raw,2537543,2224070000000,,,-1330742678359876446,0.6395182609558105,38.20092751993798,6.815272693339042,9.542693185376555,8,15,0.0,15,184902347298289,46,20.6,-588.9208374023438,0.796999990940094,0,0.0,0.0,,,,,0,,1,0.0,
Raw,2537543,2224070000000,,,-1330742678359876446,0.6395182609558105,38.20092751993798,6.815272693339042,9.542693185376555,8,18,0.0,15,184902356905221,9,35.8,-368.33740234375,0.04560000076889992,0,0.0,0.0,,,,,0,,1,0.0,
Raw,2537543,2224070000000,,,-1330742678359876446,0.6395182609558105,38.20092751993798,6.815272693339042,9.542693185376555,8,20,0.0,15,184902355928100,9,35.0,455.28076171875,0.04410000145435333,0,0.0,0.0,,,,,0,,1,0.0,
Raw,2537543,2224070000000,,,-1330742678359876446,0.6395182609558105,38.20092751993798,6.815272693339042,9.542693185376555,8,23,0.0,15,184902347663172,4,43.5,-715.2860107421875,0.029100000858306885,0,0.0,0.0,,,,,0,,1,0.0,
Raw,2537543,2224070000000,,,-1330742678359876446,0.6395182609558105,38.20092751993798,6.815272693339042,9.542693185376555,8,25,0.0,15,184902359198071,4,42.1,455.8111877441406,0.047300003468990326,0,0.0,0.0,,,,,0,,1,0.0,
Raw,2537543,2224070000000,,,-1330742678359876446,0.6395182609558105,38.20092751993798,6.815272693339042,9.542693185376555,8,26,0.0,15,184902350402197,19,27.9,-507.8796691894531,0.056300003081560135,0,0.0,0.0,,,,,0,,1,0.0,
Raw,2537543,2224070000000,,,-1330742678359876446,0.6395182609558105,38.20092751993798,6.815272693339042,9.542693185376555,8,29,0.0,15,184902360999203,11,33.5,-159.5010528564453,0.02290000021457672,0,0.0,0.0,,,,,0,,1,0.0,
Raw,2537543,2224070000000,,,-1330742678359876446,0.6395182609558105,38.20092751993798,6.815272693339042,9.542693185376555,8,31,0.0,15,184902346550329,9,35.6,339.0111999511719,0.03060000203549862,0,0.0,0.0,,,,,0,,1,0.0,
Fix,gps,37.429778,-122.169533,-10.959442,0.000000,3.216000,1646709685000
NMEA,$GPGSV,3,3,12,25,52,199,42,26,16,314,28,29,67,350,34,31,09,274,36,1*6B
,1646709685012
NMEA,$GLGSV,3,1,10,78,39,285,41,86,05,074,19,77,28,215,24,79,09,333,32,1*7B
,1646709685012
NMEA,$GLGSV,3,2,10,65,25,143,35,88,42,310,35,87,49,022,27,81,02,277,16,1*77
,1646709685012
NMEA,$GLGSV,3,3,10,71,18,035,25,72,37,085,39,1*71
,1646709685012
NMEA,$GAGSV,1,1,0,7*43
,1646709685013
NMEA,$PQGSV,1,1,0,0*43
,1646709685013
NMEA,$GBGSV,1,1,0,0*47
,1646709685013
NMEA,$GNGSA,A,3,02,05,12,15,18,20,23,25,26,29,31,,0.9,0.6,0.7,1*39
,1646709685021
NMEA,$GNGSA,A,3,65,71,72,77,78,79,87,88,,,,,0.9,0.6,0.7,2*34
,1646709685021
NMEA,$GNVTG,,T,,M,0.0,N,0.0,K,A*3D
,1646709685021
NMEA,$GNGGA,032125.00,3725.786666,N,12210.171965,W,1,12,0.6,17.0,M,-27.9,M,,*74
,1646709685022
NMEA,$GNRMC,032125.00,A,3725.786666,N,12210.171965,W,0.0,,080322,15.0,E,A,V*54
,1646709685022
NMEA,$AIDSTAT,0,0,0,2,-13,23,3*00
,1646709685927
Raw,2538524,2225070000000,,,-1330742678359876439,0.5685582160949707,36.67842975119129,7.519606569776402,9.500601465590501,8,14,0.0,207,22885359948276,5,41.0,51.30305862426758,0.2176000028848648,0,0.0,0.0,,,,,0,,3,0.0,
Raw,2538524,2225070000000,,,-1330742678359876439,0.5685582160949707,36.67842975119129,7.519606569776402,9.500601465590501,8,22,0.0,207,22885349344552,80,16.7,492.6876525878906,1.4700000286102295,0,0.0,0.0,,,,,0,,3,0.0,
Raw,2538524,2225070000000,,,-1330742678359876439,0.5685582160949707,36.67842975119129,7.519606569776402,9.500601465590501,8,13,0.0,207,22885356872583,27,24.2,710.1104125976562,0.8904999494552612,0,0.0,0.0,,,,,0,,3,0.0,
Raw,2538524,2225070000000,,,-1330742678359876439,0.5685582160949707,36.67842975119129,7.519606569776402,9.500601465590501,8,15,0.0,207,22885351445301,13,31.6,-556.7847900390625,0.24170000851154327,0,0.0,0.0,,,,,0,,3,0.0,
Raw,2538524,2225070000000,,,-1330742678359876439,0.5685582160949707,36.67842975119129,7.519606569776402,9.500601465590501,8,1,0.0,207,22885356362571,11,33.8,-713.7352294921875,0.24690000712871552,0,0.0,0.0,,,,,0,,3,0.0,
Raw,2538525,2225070000000,,,-1330742678359876439,0.5685582160949707,36.67842975119129,7.519606569776402,9.500601465590501,8,24,0.0,207,22885360830593,11,33.6,-242.6947479248047,0.22290000319480896,0,0.0,0.0,,,,,0,,3,0.0,
Raw,2538525,2225070000000,,,-1330742678359876439,0.5685582160949707,36.67842975119129,7.519606569776402,9.500601465590501,8,23,0.0,207,22885361941778,21,26.9,164.42251586914062,0.3127000033855438,0,0.0,0.0,,,,,0,,3,0.0,
Raw,2538525,2225070000000,,,-1330742678359876439,0.5685582160949707,36.67842975119129,7.519606569776402,9.500601465590501,8,17,0.0,207,22870096249658,5610,16.0,-481.2937316894531,50.59050369262695,0,0.0,0.0,,,,,0,,3,0.0,
Raw,2538525,2225070000000,,,-1330742678359876439,0.5685582160949707,36.67842975119129,7.519606569776402,9.500601465590501,8,7,0.0,207,22885353697108,35,22.4,414.5745544433594,1.0059999227523804,0,0.0,0.0,,,,,0,,3,0.0,
Raw,2538525,2225070000000,,,-1330742678359876439,0.5685582160949707,36.67842975119129,7.519606569776402,9.500601465590501,8,8,0.0,207,22885359518163,6,38.8,-201.55702209472656,0.24860000610351562,0,0.0,0.0,,,,,0,,3,0.0,
Raw,2538525,2225070000000,,,-1330742678359876439,0.5685582160949707,36.67842975119129,7.519606569776402,9.500601465590501,8,2,0.0,15,184903349051776,13,31.5,461.25848388671875,0.038700003176927567,0,0.0,0.0,,,,,0,,1,0.0,
Raw,2538525,2225070000000,,,-1330742678359876439,0.5685582160949707,36.67842975119129,7.519606569776402,9.500601465590501,8,5,0.0,15,184903360597591,6,38.4,145.57046508789062,0.020100001245737076,0,0.0,0.0,,,,,0,,1,0.0,
Raw,2538525,2225070000000,,,-1330742678359876439,0.5685582160949707,36.67842975119129,7.519606569776402,9.500601465590501,8,12,0.0,15,184903351456077,8,36.4,711.6995239257812,0.037700001150369644,0,0.0,0.0,,,,,0,,1,0.0,
Raw,2538525,2225070000000,,,-1330742678359876439,0.5685582160949707,36.67842975119129,7.519606569776402,9.500601465590501,8,13,0.0,15,184903346001942,897,15.9,-485.31549072265625,4.714000225067139,0,0.0,0.0,,,,,0,,1,0.0,
Raw,2538525,2225070000000,,,-1330742678359876439,0.5685582160949707,36.67842975119129,7.519606569776402,9.500601465590501,8,15,0.0,15,184903347300235,46,20.1,-588.502197265625,0.796999990940094,0,0.0,0.0,,,,,0,,1,0.0,
Raw,2538525,2225070000000,,,-1330742678359876439,0.5685582160949707,36.67842975119129,7.519606569776402,9.500601465590501,8,18,0.0,15,184903356906447,9,35.7,-368.2522888183594,0.04560000076889992,0,0.0,0.0,,,,,0,,1,0.0,
Raw,2538525,2225070000000,,,-1330742678359876439,0.5685582160949707,36.67842975119129,7.519606569776402,9.500601465590501,8,20,0.0,15,184903355926578,9,35.3,455.3584899902344,0.04410000145435333,0,0.0,0.0,,,,,0,,1,0.0,
Raw,2538525,2225070000000,,,-1330742678359876439,0.5685582160949707,36.67842975119129,7.519606569776402,9.500601465590501,8,23,0.0,15,184903347665562,4,44.2,-715.2537231445312,0.028800001367926598,0,0.0,0.0,,,,,0,,1,0.0,
Raw,2538526,2225070000000,,,-1330742678359876439,0.5685582160949707,36.67842975119129,7.519606569776402,9.500601465590501,8,25,0.0,15,184903359196552,5,41.5,455.9179992675781,0.047600001096725464,0,0.0,0.0,,,,,0,,1,0.0,
Raw,2538526,2225070000000,,,-1330742678359876439,0.5685582160949707,36.67842975119129,7.519606569776402,9.500601465590501,8,26,0.0,15,184903350403916,21,26.3,-507.8316345214844,0.12620000541210175,0,0.0,0.0,,,,,0,,1,0.0,
Raw,2538526,2225070000000,,,-1330742678359876439,0.5685582160949707,36.67842975119129,7.519606569776402,9.500601465590501,8,29,0.0,15,184903360999728,11,33.3,-159.44320678710938,0.02290000021457672,0,0.0,0.0,,,,,0,,1,0.0,
Raw,2538526,2225070000000,,,-1330742678359876439,0.5685582160949707,36.67842975119129,7.519606569776402,9.500601465590501,8,31,0.0,15,184903346549213,9,35.0,339.103515625,0.03060000203549862,0,0.0,0.0,,,,,0,,1,0.0,
NMEA,$GPGSV,3,1,12,02,21,059,32,05,58,075,38,12,23,164,36,13,03,113,16,1*69
,1646709686007
NMEA,$GPGSV,3,2,12,15,09,144,20,18,41,262,36,20,35,050,35,23,10,201,44,1*63
,1646709686007
NMEA,$GPGSV,3,3,12,25,52,199,42,26,16,314,26,29,67,350,33,31,09,274,35,1*61
,1646709686007
NMEA,$GLGSV,3,1,10,78,39,285,41,86,05,074,17,77,28,215,24,79,09,333,32,1*75
,1646709686008
NMEA,$GLGSV,3,2,10,65,25,143,34,88,42,310,34,87,49,022,27,81,02,277,16,1*77
,1646709686008
NMEA,$GLGSV,3,3,10,71,18,035,22,72,37,085,39,1*76
,1646709686008
NMEA,$GAGSV,1,1,0,7*43
,1646709686009
NMEA,$PQGSV,1,1,0,0*43
,1646709686010
NMEA,$GBGSV,1,1,0,0*47
,1646709686012
Fix,gps,37.429777,-122.169532,-10.969879,0.000000,3.216000,1646709686000
NMEA,$GNGSA,A,3,02,05,12,15,18,20,23,25,26,29,31,,0.9,0.6,0.7,1*39
,1646709686022
NMEA,$GNGSA,A,3,65,71,72,77,78,79,87,88,,,,,0.9,0.6,0.7,2*34
,1646709686022
NMEA,$GNVTG,,T,,M,0.0,N,0.0,K,A*3D
,1646709686022
NMEA,$GNGGA,032126.00,3725.786633,N,12210.171944,W,1,12,0.6,17.0,M,-27.9,M,,*74
,1646709686022
NMEA,$GNRMC,032126.00,A,3725.786633,N,12210.171944,W,0.0,,080322,15.0,E,A,V*54
,1646709686023
NMEA,$AIDSTAT,0,0,0,2,,23,3*00
,1646709686927
Fix,gps,37.429777,-122.169532,-10.879852,0.000000,3.216000,1646709687000
Raw,2539540,2226070000000,,,-1330742678359876427,0.20636510848999023,35.68896863725968,7.628634518315887,9.50091241959198,8,14,0.0,207,22886359948112,5,41.6,51.693031311035156,0.2176000028848648,0,0.0,0.0,,,,,0,,3,0.0,
Raw,2539541,2226070000000,,,-1330742678359876427,0.20636510848999023,35.68896863725968,7.628634518315887,9.50091241959198,8,22,0.0,207,22886349342924,70,17.9,492.3223571777344,1.3799999952316284,0,0.0,0.0,,,,,0,,3,0.0,
Raw,2539541,2226070000000,,,-1330742678359876427,0.20636510848999023,35.68896863725968,7.628634518315887,9.50091241959198,8,13,0.0,207,22886356870255,24,25.1,710.3820190429688,0.6057999730110168,0,0.0,0.0,,,,,0,,3,0.0,
Raw,2539541,2226070000000,,,-1330742678359876427,0.20636510848999023,35.68896863725968,7.628634518315887,9.50091241959198,8,15,0.0,207,22886351447155,12,32.2,-556.4641723632812,0.2404000163078308,0,0.0,0.0,,,,,0,,3,0.0,
Raw,2539541,2226070000000,,,-1330742678359876427,0.20636510848999023,35.68896863725968,7.628634518315887,9.50091241959198,8,1,0.0,207,22886356364975,10,34.3,-713.3966674804688,0.24610000848770142,0,0.0,0.0,,,,,0,,3,0.0,
Raw,2539541,2226070000000,,,-1330742678359876427,0.20636510848999023,35.68896863725968,7.628634518315887,9.50091241959198,8,24,0.0,207,22886360831373,11,33.5,-242.42318725585938,0.22290000319480896,0,0.0,0.0,,,,,0,,3,0.0,
Raw,2539541,2226070000000,,,-1330742678359876427,0.20636510848999023,35.68896863725968,7.628634518315887,9.50091241959198,8,23,0.0,207,22886361941382,19,27.3,164.6671905517578,0.2428000122308731,0,0.0,0.0,,,,,0,,3,0.0,
Raw,2539541,2226070000000,,,-1330742678359876427,0.20636510848999023,35.68896863725968,7.628634518315887,9.50091241959198,8,17,0.0,207,22870096249658,5610,16.0,-481.2937316894531,50.59050369262695,0,0.0,0.0,,,,,0,,3,0.0,
Raw,2539541,2226070000000,,,-1330742678359876427,0.20636510848999023,35.68896863725968,7.628634518315887,9.50091241959198,8,7,0.0,207,22886353695487,24,25.0,415.2449951171875,0.6013000011444092,0,0.0,0.0,,,,,0,,3,0.0,
Raw,2539541,2226070000000,,,-1330742678359876427,0.20636510848999023,35.68896863725968,7.628634518315887,9.50091241959198,8,8,0.0,207,22886359518871,6,39.7,-201.1349639892578,0.24809999763965607,0,0.0,0.0,,,,,0,,3,0.0,
Raw,2539541,2226070000000,,,-1330742678359876427,0.20636510848999023,35.68896863725968,7.628634518315887,9.50091241959198,8,2,0.0,15,184904349050213,11,33.7,461.4533996582031,0.036400001496076584,0,0.0,0.0,,,,,0,,1,0.0,
Raw,2539541,2226070000000,,,-1330742678359876427,0.20636510848999023,35.68896863725968,7.628634518315887,9.50091241959198,8,5,0.0,15,184904360597116,6,38.8,145.93553161621094,0.020100001245737076,0,0.0,0.0,,,,,0,,1,0.0,
Raw,2539541,2226070000000,,,-1330742678359876427,0.20636510848999023,35.68896863725968,7.628634518315887,9.50091241959198,8,12,0.0,15,184904351453695,7,37.2,711.9773559570312,0.03710000216960907,0,0.0,0.0,,,,,0,,1,0.0,
Raw,2539541,2226070000000,,,-1330742678359876427,0.20636510848999023,35.68896863725968,7.628634518315887,9.50091241959198,8,13,0.0,15,184904346003566,912,15.5,-485.0871276855469,5.464000225067139,0,0.0,0.0,,,,,0,,1,0.0,
Raw,2539541,2226070000000,,,-1330742678359876427,0.20636510848999023,35.68896863725968,7.628634518315887,9.50091241959198,8,15,0.0,15,184904347302336,61,18.6,-585.8095092773438,0.9269999861717224,0,0.0,0.0,,,,,0,,1,0.0,
Raw,2539542,2226070000000,,,-1330742678359876427,0.20636510848999023,35.68896863725968,7.628634518315887,9.50091241959198,8,18,0.0,15,184904356907669,8,36.1,-367.949951171875,0.04520000144839287,0,0.0,0.0,,,,,0,,1,0.0,
Raw,2539542,2226070000000,,,-1330742678359876427,0.20636510848999023,35.68896863725968,7.628634518315887,9.50091241959198,8,20,0.0,15,184904355925073,9,35.7,455.6968994140625,0.04410000145435333,0,0.0,0.0,,,,,0,,1,0.0,
Raw,2539542,2226070000000,,,-1330742678359876427,0.20636510848999023,35.68896863725968,7.628634518315887,9.50091241959198,8,23,0.0,15,184904347667942,4,43.8,-715.0005493164062,0.029100000858306885,0,0.0,0.0,,,,,0,,1,0.0,
Raw,2539542,2226070000000,,,-1330742678359876427,0.20636510848999023,35.68896863725968,7.628634518315887,9.50091241959198,8,25,0.0,15,184904359195032,4,42.5,456.26580810546875,0.047300003468990326,0,0.0,0.0,,,,,0,,1,0.0,
Raw,2539542,2226070000000,,,-1330742678359876427,0.20636510848999023,35.68896863725968,7.628634518315887,9.50091241959198,8,26,0.0,15,184904350405655,35,22.7,-507.579833984375,0.6814999580383301,0,0.0,0.0,,,,,0,,1,0.0,
Raw,2539542,2226070000000,,,-1330742678359876427,0.20636510848999023,35.68896863725968,7.628634518315887,9.50091241959198,8,29,0.0,15,184904361000271,10,34.4,-159.15370178222656,0.023600000888109207,0,0.0,0.0,,,,,0,,1,0.0,
Raw,2539542,2226070000000,,,-1330742678359876427,0.20636510848999023,35.68896863725968,7.628634518315887,9.50091241959198,8,31,0.0,15,184904346548095,9,35.8,339.4205017089844,0.03060000203549862,0,0.0,0.0,,,,,0,,1,0.0,
NMEA,$GPGSV,3,1,12,02,21,059,34,05,58,075,39,12,23,164,37,13,03,113,16,1*6F
,1646709687000
NMEA,$GPGSV,3,2,12,15,09,144,19,18,41,262,36,20,35,050,36,23,10,201,44,1*6A
,1646709687001
NMEA,$GPGSV,3,3,12,25,52,199,43,26,16,314,23,29,67,350,34,31,09,274,36,1*61
,1646709687001
NMEA,$GLGSV,3,1,10,78,39,285,42,86,05,074,18,77,28,215,25,79,09,333,32,1*78
,1646709687001
NMEA,$GLGSV,3,2,10,65,25,143,34,88,42,310,34,87,49,022,27,81,02,277,16,1*77
,1646709687001
NMEA,$GLGSV,3,3,10,71,18,035,25,72,37,085,40,1*7F
,1646709687001
NMEA,$GAGSV,1,1,0,7*43
,1646709687001
NMEA,$PQGSV,1,1,0,0*43
,1646709687001
NMEA,$GBGSV,1,1,0,0*47
,1646709687001
NMEA,$GNGSA,A,3,02,05,12,15,18,20,23,25,26,29,31,,0.9,0.6,0.7,1*39
,1646709687008
NMEA,$GNGSA,A,3,65,71,72,77,78,79,87,88,,,,,0.9,0.6,0.7,2*34
,1646709687008
NMEA,$GNVTG,,T,,M,0.0,N,0.0,K,A*3D
,1646709687008
NMEA,$GNGGA,032127.00,3725.786606,N,12210.171906,W,1,12,0.6,17.0,M,-27.9,M,,*75
,1646709687008
