# 
# Header Description:
# 
# Version: v2.0.0.1 Platform: 9 Manufacturer: samsung Model: SM-G960U
# 
# Raw,ElapsedRealtimeMillis,TimeNanos,LeapSecond,TimeUncertaintyNanos,FullBiasNanos,BiasNanos,BiasUncertaintyNanos,DriftNanosPerSecond,DriftUncertaintyNanosPerSecond,HardwareClockDiscontinuityCount,Svid,TimeOffsetNanos,State,ReceivedSvTimeNanos,ReceivedSvTimeUncertaintyNanos,Cn0DbHz,PseudorangeRateMetersPerSecond,PseudorangeRateUncertaintyMetersPerSecond,AccumulatedDeltaRangeState,AccumulatedDeltaRangeMeters,AccumulatedDeltaRangeUncertaintyMeters,CarrierFrequencyHz,CarrierCycles,CarrierPhase,CarrierPhaseUncertainty,MultipathIndicator,SnrInDb,ConstellationType,AgcDb,CarrierFrequencyHz
# 
# Fix,Provider,Latitude,Longitude,Altitude,Speed,Accuracy,(UTC)TimeInMs
# 
# Nav,Svid,Type,Status,MessageId,Sub-messageId,Data(Bytes)
# 
NMEA,$AIDSTAT,0,0,0,2,3,23,3*00
,1645493939931
Raw,2744244,2723642000000,,,-1329526433789545903,0.6881980895996094,35.69089312804863,-3.009776467546621,11.361706495340261,86,14,0.0,207,16739367562220,21,26.9,73.25358581542969,0.32170000672340393,0,0.0,0.0,,,,,0,,3,0.0,
Raw,2744244,2723642000000,,,-1329526433789545903,0.6881980895996094,35.69089312804863,-3.009776467546621,11.361706495340261,86,15,0.0,207,16739360361116,9,35.5,-629.5524291992188,0.2215999960899353,0,0.0,0.0,,,,,0,,3,0.0,
Raw,2744244,2723642000000,,,-1329526433789545903,0.6881980895996094,35.69089312804863,-3.009776467546621,11.361706495340261,86,24,0.0,207,16739366024603,12,32.4,268.63348388671875,0.232900008559227,0,0.0,0.0,,,,,0,,3,0.0,
Raw,2744244,2723642000000,,,-1329526433789545903,0.6881980895996094,35.69089312804863,-3.009776467546621,11.361706495340261,86,23,0.0,207,16739357370949,6,38.4,640.1326293945312,0.24560000002384186,0,0.0,0.0,,,,,0,,3,0.0,
Raw,2744244,2723642000000,,,-1329526433789545903,0.6881980895996094,35.69089312804863,-3.009776467546621,11.361706495340261,86,17,0.0,207,16739362963869,27,24.5,-362.8717346191406,0.8694999814033508,0,0.0,0.0,,,,,0,,3,0.0,
Raw,2744244,2723642000000,,,-1329526433789545903,0.6881980895996094,35.69089312804863,-3.009776467546621,11.361706495340261,86,2,0.0,15,178757362280768,24,25.2,96.65157318115234,0.384799987077713,0,0.0,0.0,,,,,0,,1,0.0,
Raw,2744244,2723642000000,,,-1329526433789545903,0.6881980895996094,35.69089312804863,-3.009776467546621,11.361706495340261,86,6,0.0,15,178757357109304,13,31.7,540.5908813476562,0.050700001418590546,0,0.0,0.0,,,,,0,,1,0.0,
Raw,2744244,2723642000000,,,-1329526433789545903,0.6881980895996094,35.69089312804863,-3.009776467546621,11.361706495340261,86,12,0.0,15,178757364087509,14,30.5,-137.72438049316406,0.03180000185966492,0,0.0,0.0,,,,,0,,1,0.0,
Raw,2744244,2723642000000,,,-1329526433789545903,0.6881980895996094,35.69089312804863,-3.009776467546621,11.361706495340261,86,19,0.0,15,178757351527357,208,25.0,540.1866455078125,0.8130000233650208,0,0.0,0.0,,,,,0,,1,0.0,
Raw,2744244,2723642000000,,,-1329526433789545903,0.6881980895996094,35.69089312804863,-3.009776467546621,11.361706495340261,86,20,0.0,15,178757356030986,54,20.4,-508.6835632324219,2.310500144958496,0,0.0,0.0,,,,,0,,1,0.0,
Raw,2744244,2723642000000,,,-1329526433789545903,0.6881980895996094,35.69089312804863,-3.009776467546621,11.361706495340261,86,24,0.0,15,178757355415292,17,28.4,561.5731201171875,0.055800002068281174,0,0.0,0.0,,,,,0,,1,0.0,
Raw,2744245,2723642000000,,,-1329526433789545903,0.6881980895996094,35.69089312804863,-3.009776467546621,11.361706495340261,86,25,0.0,15,178757358433073,16,29.7,-520.7628173828125,0.053700003772974014,0,0.0,0.0,,,,,0,,1,0.0,
Fix,gps,37.426645,-122.169189,-4.068298,0.000000,3.216000,1645493940000
NMEA,$GPGSV,3,1,10,02,83,095,25,06,36,043,32,11,00,000,31,12,74,337,31,1*67
,1645493940003
NMEA,$GPGSV,3,2,10,19,14,066,25,20,30,139,20,24,32,213,28,25,35,312,30,1*69
,1645493940003
NMEA,$GPGSV,3,3,10,05,11,161,,29,18,270,,1*61
,1645493940004
NMEA,$GLGSV,2,1,07,78,80,233,27,79,33,324,36,88,63,358,32,87,24,035,38,1*7C
,1645493940004
NMEA,$GLGSV,2,2,07,81,42,253,25,77,28,158,,71,00,000,,1*43
,1645493940004
NMEA,$GAGSV,1,1,0,7*43
,1645493940004
NMEA,$PQGSV,1,1,0,0*43
,1645493940004
NMEA,$GBGSV,1,1,0,0*47
,1645493940004
NMEA,$GNGSA,A,3,02,06,12,19,20,24,25,,,,,,1.2,0.9,0.8,1*3F
,1645493940010
NMEA,$GNGSA,A,3,78,79,81,87,88,,,,,,,,1.2,0.9,0.8,2*37
,1645493940011
NMEA,$GNVTG,,T,,M,0.0,N,0.0,K,A*3D
,1645493940011
NMEA,$GNGGA,013900.00,3725.598695,N,12210.151321,W,1,12,0.9,23.9,M,-27.9,M,,*70
,1645493940011
NMEA,$GNRMC,013900.00,A,3725.598695,N,12210.151321,W,0.0,,220222,15.0,E,A,V*58
,1645493940012
NMEA,$AIDSTAT,0,0,0,2,-12,23,3*00
,1645493940932
NMEA,$GPGSV,3,1,10,02,83,088,30,06,35,043,33,11,00,000,33,12,75,337,34,1*6B
,1645493941003
Raw,2745240,2724642000000,,,-1329526433789545901,0.5955467224121094,40.908729715738446,-1.3377872396210537,15.05825847568439,86,14,0.0,207,16740367561994,12,32.6,73.06320190429688,0.23440000414848328,0,0.0,0.0,,,,,0,,3,0.0,
Raw,2745240,2724642000000,,,-1329526433789545901,0.5955467224121094,40.908729715738446,-1.3377872396210537,15.05825847568439,86,15,0.0,207,16740360363218,8,36.0,-629.7630615234375,0.22120000422000885,0,0.0,0.0,,,,,0,,3,0.0,
Raw,2745240,2724642000000,,,-1329526433789545901,0.5955467224121094,40.908729715738446,-1.3377872396210537,15.05825847568439,86,24,0.0,207,16740366023693,12,32.8,268.42327880859375,0.232900008559227,0,0.0,0.0,,,,,0,,3,0.0,
Raw,2745240,2724642000000,,,-1329526433789545901,0.5955467224121094,40.908729715738446,-1.3377872396210537,15.05825847568439,86,23,0.0,207,16740357368799,7,37.1,639.8549194335938,0.24609999358654022,0,0.0,0.0,,,,,0,,3,0.0,
Raw,2745241,2724642000000,,,-1329526433789545901,0.5955467224121094,40.908729715738446,-1.3377872396210537,15.05825847568439,86,17,0.0,207,16740362965056,17,28.4,-362.80938720703125,0.2363000065088272,0,0.0,0.0,,,,,0,,3,0.0,
Raw,2745241,2724642000000,,,-1329526433789545901,0.5955467224121094,40.908729715738446,-1.3377872396210537,15.05825847568439,86,2,0.0,15,178758362280447,16,29.8,96.57617950439453,0.02970000170171261,0,0.0,0.0,,,,,0,,1,0.0,
Raw,2745241,2724642000000,,,-1329526433789545901,0.5955467224121094,40.908729715738446,-1.3377872396210537,15.05825847568439,86,6,0.0,15,178758357107486,11,33.1,540.3577270507812,0.04840000346302986,0,0.0,0.0,,,,,0,,1,0.0,
Raw,2745242,2724642000000,,,-1329526433789545901,0.5955467224121094,40.908729715738446,-1.3377872396210537,15.05825847568439,86,12,0.0,15,178758364087967,10,34.1,-137.91009521484375,0.02810000069439411,0,0.0,0.0,,,,,0,,1,0.0,
Raw,2745242,2724642000000,,,-1329526433789545901,0.5955467224121094,40.908729715738446,-1.3377872396210537,15.05825847568439,86,19,0.0,15,178758351525633,46,20.7,540.2722778320312,0.8119999766349792,0,0.0,0.0,,,,,0,,1,0.0,
Raw,2745242,2724642000000,,,-1329526433789545901,0.5955467224121094,40.908729715738446,-1.3377872396210537,15.05825847568439,86,20,0.0,15,178758356032682,72,20.4,-508.6835632324219,3.810500144958496,0,0.0,0.0,,,,,0,,1,0.0,
Raw,2745242,2724642000000,,,-1329526433789545901,0.5955467224121094,40.908729715738446,-1.3377872396210537,15.05825847568439,86,24,0.0,15,178758355413397,35,22.3,561.24267578125,0.6889999508857727,0,0.0,0.0,,,,,0,,1,0.0,
Raw,2745242,2724642000000,,,-1329526433789545901,0.5955467224121094,40.908729715738446,-1.3377872396210537,15.05825847568439,86,25,0.0,15,178758358434772,12,32.3,-521.0189819335938,0.05090000107884407,0,0.0,0.0,,,,,0,,1,0.0,
NMEA,$GPGSV,3,2,10,19,14,067,21,20,30,139,20,24,31,212,22,25,35,312,32,1*66
,1645493941003
NMEA,$GPGSV,3,3,10,05,12,161,,29,18,270,,1*62
,1645493941004
NMEA,$GLGSV,2,1,07,78,80,233,33,79,33,324,36,88,63,358,33,87,24,035,37,1*77
,1645493941004
NMEA,$GLGSV,2,2,07,81,42,253,28,77,28,158,,71,00,000,,1*4E
,1645493941004
NMEA,$GAGSV,1,1,0,7*43
,1645493941004
NMEA,$PQGSV,1,1,0,0*43
,1645493941005
NMEA,$GBGSV,1,1,0,0*47
,1645493941005
Fix,gps,37.426644,-122.169188,-3.603027,0.000000,3.216000,1645493941000
NMEA,$GNGSA,A,3,02,06,12,19,20,24,25,,,,,,1.2,0.9,0.8,1*3F
,1645493941010
NMEA,$GNGSA,A,3,78,79,81,87,88,,,,,,,,1.2,0.9,0.8,2*37
,1645493941011
NMEA,$GNVTG,,T,,M,0.0,N,0.0,K,A*3D
,1645493941012
NMEA,$GNGGA,013901.00,3725.598610,N,12210.151297,W,1,12,0.9,24.3,M,-27.9,M,,*7D
,1645493941012
NMEA,$GNRMC,013901.00,A,3725.598610,N,12210.151297,W,0.0,,220222,15.0,E,A,V*58
,1645493941015
NMEA,$AIDSTAT,0,0,0,2,2,23,3*00
,1645493941931
NMEA,$GPGSV,3,1,10,02,83,088,32,06,35,043,27,11,00,000,34,12,75,337,33,1*6C
,1645493942005
NMEA,$GPGSV,3,2,10,19,14,067,17,20,30,139,16,24,31,212,19,25,35,312,37,1*6B
,1645493942008
NMEA,$GPGSV,3,3,10,05,12,161,,29,18,270,,1*62
,1645493942009
NMEA,$GLGSV,2,1,07,78,80,233,30,79,33,324,36,88,63,358,31,87,24,035,35,1*74
,1645493942009
Raw,2746280,2725642000000,,,-1329526433789545898,0.5757789611816406,42.695115553215146,-2.1585876052209048,18.66236009357818,86,14,0.0,207,16741367561759,14,30.0,72.61759185791016,0.23629999160766602,0,0.0,0.0,,,,,0,,3,0.0,
Raw,2746280,2725642000000,,,-1329526433789545898,0.5757789611816406,42.695115553215146,-2.1585876052209048,18.66236009357818,86,15,0.0,207,16741360365366,8,36.2,-630.3461303710938,0.22120000422000885,0,0.0,0.0,,,,,0,,3,0.0,
Raw,2746281,2725642000000,,,-1329526433789545898,0.5757789611816406,42.695115553215146,-2.1585876052209048,18.66236009357818,86,24,0.0,207,16741366022805,13,31.2,267.8704833984375,0.23420000076293945,0,0.0,0.0,,,,,0,,3,0.0,
Raw,2746281,2725642000000,,,-1329526433789545898,0.5757789611816406,42.695115553215146,-2.1585876052209048,18.66236009357818,86,23,0.0,207,16741357366667,10,34.8,639.2305297851562,0.2476000040769577,0,0.0,0.0,,,,,0,,3,0.0,
Raw,2746281,2725642000000,,,-1329526433789545898,0.5757789611816406,42.695115553215146,-2.1585876052209048,18.66236009357818,86,17,0.0,207,16741362966329,16,29.5,-363.4061279296875,0.2296999990940094,0,0.0,0.0,,,,,0,,3,0.0,
Raw,2746281,2725642000000,,,-1329526433789545898,0.5757789611816406,42.695115553215146,-2.1585876052209048,18.66236009357818,86,2,0.0,15,178759362280105,12,32.3,95.9398422241211,0.026900000870227814,0,0.0,0.0,,,,,0,,1,0.0,
Raw,2746281,2725642000000,,,-1329526433789545898,0.5757789611816406,42.695115553215146,-2.1585876052209048,18.66236009357818,86,6,0.0,15,178759357105715,19,27.2,539.7069091796875,0.06680000573396683,0,0.0,0.0,,,,,0,,1,0.0,
Raw,2746281,2725642000000,,,-1329526433789545898,0.5757789611816406,42.695115553215146,-2.1585876052209048,18.66236009357818,86,12,0.0,15,178759364088432,12,32.8,-138.47325134277344,0.029900001361966133,0,0.0,0.0,,,,,0,,1,0.0,
Raw,2746281,2725642000000,,,-1329526433789545898,0.5757789611816406,42.695115553215146,-2.1585876052209048,18.66236009357818,86,19,0.0,15,178759351523812,70,17.2,538.8545532226562,1.0130000114440918,0,0.0,0.0,,,,,0,,1,0.0,
Raw,2746281,2725642000000,,,-1329526433789545898,0.5757789611816406,42.695115553215146,-2.1585876052209048,18.66236009357818,86,20,0.0,15,178759356034477,89,16.1,-507.6369323730469,2.6005001068115234,0,0.0,0.0,,,,,0,,1,0.0,
Raw,2746281,2725642000000,,,-1329526433789545898,0.5757789611816406,42.695115553215146,-2.1585876052209048,18.66236009357818,86,24,0.0,15,178759355411621,61,18.9,562.1275024414062,0.9389999508857727,0,0.0,0.0,,,,,0,,1,0.0,
Raw,2746281,2725642000000,,,-1329526433789545898,0.5757789611816406,42.695115553215146,-2.1585876052209048,18.66236009357818,86,25,0.0,15,178759358436519,7,37.4,-521.5838012695312,0.047600001096725464,0,0.0,0.0,,,,,0,,1,0.0,
NMEA,$GLGSV,2,2,07,81,42,253,30,77,28,158,,71,00,000,,1*47
,1645493942009
NMEA,$GAGSV,1,1,0,7*43
,1645493942011
NMEA,$PQGSV,1,1,0,0*43
,1645493942011
NMEA,$GBGSV,1,1,0,0*47
,1645493942011
Fix,gps,37.426643,-122.169190,-3.357971,0.000000,3.216000,1645493942000
NMEA,$GNGSA,A,3,02,06,12,19,20,24,25,,,,,,1.2,0.9,0.8,1*3F
,1645493942015
NMEA,$GNGSA,A,3,78,79,81,87,88,,,,,,,,1.2,0.9,0.8,2*37
,1645493942015
NMEA,$GNVTG,,T,,M,0.0,N,0.0,K,A*3D
,1645493942015
NMEA,$GNGGA,013902.00,3725.598566,N,12210.151405,W,1,12,0.9,24.6,M,-27.9,M,,*74
,1645493942018
NMEA,$GNRMC,013902.00,A,3725.598566,N,12210.151405,W,0.0,,220222,15.0,E,A,V*54
,1645493942018
NMEA,$AIDSTAT,0,0,0,2,,23,3*00
,1645493942931
NMEA,$GPGSV,3,1,10,02,83,088,36,06,35,043,27,11,00,000,36,12,75,337,32,1*6B
,1645493943012
NMEA,$GPGSV,3,2,10,19,14,067,16,20,30,139,21,24,31,212,19,25,35,312,39,1*60
,1645493943012
Raw,2747251,2726642000000,,,-1329526433789545909,0.04228019714355469,44.351534597808495,-4.3546423841444675,20.86443771749333,86,14,0.0,207,16742367561555,17,28.9,69.64811706542969,0.24379999935626984,0,0.0,0.0,,,,,0,,3,0.0,
Raw,2747251,2726642000000,,,-1329526433789545909,0.04228019714355469,44.351534597808495,-4.3546423841444675,20.86443771749333,86,15,0.0,207,16742360367441,7,37.3,-633.4258422851562,0.22059999406337738,0,0.0,0.0,,,,,0,,3,0.0,
Raw,2747251,2726642000000,,,-1329526433789545909,0.04228019714355469,44.351534597808495,-4.3546423841444675,20.86443771749333,86,24,0.0,207,16742366021912,11,33.5,264.8258972167969,0.23190000653266907,0,0.0,0.0,,,,,0,,3,0.0,
Raw,2747251,2726642000000,,,-1329526433789545909,0.04228019714355469,44.351534597808495,-4.3546423841444675,20.86443771749333,86,23,0.0,207,16742357364563,11,33.8,636.1287231445312,0.2484000027179718,0,0.0,0.0,,,,,0,,3,0.0,
Raw,2747251,2726642000000,,,-1329526433789545909,0.04228019714355469,44.351534597808495,-4.3546423841444675,20.86443771749333,86,17,0.0,207,16742362967561,17,28.0,-366.4876403808594,0.2363000065088272,0,0.0,0.0,,,,,0,,3,0.0,
Raw,2747251,2726642000000,,,-1329526433789545909,0.04228019714355469,44.351534597808495,-4.3546423841444675,20.86443771749333,86,2,0.0,15,178760362279773,9,35.5,92.87174987792969,0.02460000105202198,0,0.0,0.0,,,,,0,,1,0.0,
Raw,2747252,2726642000000,,,-1329526433789545909,0.04228019714355469,44.351534597808495,-4.3546423841444675,20.86443771749333,86,6,0.0,15,178760357103881,19,27.1,536.81982421875,0.06680000573396683,0,0.0,0.0,,,,,0,,1,0.0,
Raw,2747252,2726642000000,,,-1329526433789545909,0.04228019714355469,44.351534597808495,-4.3546423841444675,20.86443771749333,86,12,0.0,15,178760364088881,12,32.1,-141.62266540527344,0.029900001361966133,0,0.0,0.0,,,,,0,,1,0.0,
Raw,2747252,2726642000000,,,-1329526433789545909,0.04228019714355469,44.351534597808495,-4.3546423841444675,20.86443771749333,86,19,0.0,15,178760351522006,80,16.2,535.24853515625,1.0929999351501465,0,0.0,0.0,,,,,0,,1,0.0,
Raw,2747252,2726642000000,,,-1329526433789545909,0.04228019714355469,44.351534597808495,-4.3546423841444675,20.86443771749333,86,20,0.0,15,178760356036178,46,20.5,-512.66064453125,0.8104999661445618,0,0.0,0.0,,,,,0,,1,0.0,
Raw,2747252,2726642000000,,,-1329526433789545909,0.04228019714355469,44.351534597808495,-4.3546423841444675,20.86443771749333,86,24,0.0,15,178760355409746,69,18.9,562.1275024414062,2.439000129699707,0,0.0,0.0,,,,,0,,1,0.0,
Raw,2747252,2726642000000,,,-1329526433789545909,0.04228019714355469,44.351534597808495,-4.3546423841444675,20.86443771749333,86,25,0.0,15,178760358438260,6,38.5,-524.649658203125,0.0471000038087368,0,0.0,0.0,,,,,0,,1,0.0,
NMEA,$GPGSV,3,3,10,05,12,161,,29,18,270,,1*62
,1645493943012
NMEA,$GLGSV,2,1,07,78,80,233,29,79,34,324,37,88,63,358,34,87,24,035,34,1*7E
,1645493943012
NMEA,$GLGSV,2,2,07,81,42,253,28,77,28,158,,71,00,000,,1*4E
,1645493943013
NMEA,$GAGSV,1,1,0,7*43
,1645493943013
NMEA,$PQGSV,1,1,0,0*43
,1645493943013
NMEA,$GBGSV,1,1,0,0*47
,1645493943013
Fix,gps,37.426642,-122.169190,-3.666107,0.000000,3.216000,1645493943000
NMEA,$GNGSA,A,3,02,06,12,19,20,24,25,,,,,,1.2,0.9,0.8,1*3F
,1645493943015
NMEA,$GNGSA,A,3,78,79,81,87,88,,,,,,,,1.2,0.9,0.8,2*37
,1645493943015
NMEA,$GNVTG,,T,,M,0.0,N,0.0,K,A*3D
,1645493943015
NMEA,$GNGGA,013903.00,3725.598544,N,12210.151422,W,1,12,0.9,24.3,M,-27.9,M,,*75
,1645493943015
NMEA,$GNRMC,013903.00,A,3725.598544,N,12210.151422,W,0.0,,220222,15.0,E,A,V*50
,1645493943015
