# 
# Header Description:
# 
# Version: v2.0.0.1 Platform: 9 Manufacturer: samsung Model: SM-G960U
# 
# Raw,ElapsedRealtimeMillis,TimeNanos,LeapSecond,TimeUncertaintyNanos,FullBiasNanos,BiasNanos,BiasUncertaintyNanos,DriftNanosPerSecond,DriftUncertaintyNanosPerSecond,HardwareClockDiscontinuityCount,Svid,TimeOffsetNanos,State,ReceivedSvTimeNanos,ReceivedSvTimeUncertaintyNanos,Cn0DbHz,PseudorangeRateMetersPerSecond,PseudorangeRateUncertaintyMetersPerSecond,AccumulatedDeltaRangeState,AccumulatedDeltaRangeMeters,AccumulatedDeltaRangeUncertaintyMeters,CarrierFrequencyHz,CarrierCycles,CarrierPhase,CarrierPhaseUncertainty,MultipathIndicator,SnrInDb,ConstellationType,AgcDb,CarrierFrequencyHz
# 
# Fix,Provider,Latitude,Longitude,Altitude,Speed,Accuracy,(UTC)TimeInMs
# 
# Nav,Svid,Type,Status,MessageId,Sub-messageId,Data(Bytes)
# 
NMEA,$AIDSTAT,0,0,0,2,1,23,13*00
,1645494055931
Raw,2860237,2839642000000,,,-1329526433789545593,0.4833393096923828,147.1073628636077,-0.9758771422958897,17.387599790476475,87,14,0.0,207,16855367529962,46,20.6,92.31671142578125,1.1269999742507935,0,0.0,0.0,,,,,0,,3,0.0,
Raw,2860238,2839642000000,,,-1329526433789545593,0.4833393096923828,147.1073628636077,-0.9758771422958897,17.387599790476475,87,15,0.0,207,16855360602279,27,24.3,-619.8143920898438,0.8664999604225159,0,0.0,0.0,,,,,0,,3,0.0,
Raw,2860238,2839642000000,,,-1329526433789545593,0.4833393096923828,147.1073628636077,-0.9758771422958897,17.387599790476475,87,24,0.0,207,16855365918351,21,26.0,278.1969909667969,0.31869998574256897,0,0.0,0.0,,,,,0,,3,0.0,
Raw,2860238,2839642000000,,,-1329526433789545593,0.4833393096923828,147.1073628636077,-0.9758771422958897,17.387599790476475,87,23,0.0,207,16855357122435,117,14.5,641.3612060546875,3.202000141143799,0,0.0,0.0,,,,,0,,3,0.0,
Raw,2860238,2839642000000,,,-1329526433789545593,0.4833393096923828,147.1073628636077,-0.9758771422958897,17.387599790476475,87,17,0.0,207,16855363101666,46,20.7,-352.90203857421875,1.121000051498413,0,0.0,0.0,,,,,0,,3,0.0,
Raw,2860238,2839642000000,,,-1329526433789545593,0.4833393096923828,147.1073628636077,-0.9758771422958897,17.387599790476475,87,2,0.0,15,178873362240709,24,25.7,107.65536499023438,0.384799987077713,0,0.0,0.0,,,,,0,,1,0.0,
Raw,2860238,2839642000000,,,-1329526433789545593,0.4833393096923828,147.1073628636077,-0.9758771422958897,17.387599790476475,87,6,0.0,15,178873356898045,225,16.2,549.8916015625,8.600500106811523,0,0.0,0.0,,,,,0,,1,0.0,
Raw,2860239,2839642000000,,,-1329526433789545593,0.4833393096923828,147.1073628636077,-0.9758771422958897,17.387599790476475,87,12,0.0,15,178873364138228,13,31.0,-126.95243072509766,0.031200001016259193,0,0.0,0.0,,,,,0,,1,0.0,
Raw,2860239,2839642000000,,,-1329526433789545593,0.4833393096923828,147.1073628636077,-0.9758771422958897,17.387599790476475,87,24,0.0,15,178873355196468,185,20.1,569.05419921875,8.309000015258789,0,0.0,0.0,,,,,0,,1,0.0,
Raw,2860239,2839642000000,,,-1329526433789545593,0.4833393096923828,147.1073628636077,-0.9758771422958897,17.387599790476475,87,25,0.0,15,178873358632894,13,31.1,-514.799072265625,0.05220000073313713,0,0.0,0.0,,,,,0,,1,0.0,
Fix,gps,37.426420,-122.169248,-1.854279,0.000000,13.936001,1645494056000
NMEA,$GPGSV,3,1,10,02,82,081,26,06,35,043,16,11,00,000,20,12,75,338,31,1*6B
,1645494056002
NMEA,$GPGSV,3,2,10,24,30,212,20,25,36,312,31,05,12,161,,19,14,067,,1*6E
,1645494056002
NMEA,$GPGSV,3,3,10,20,31,139,,29,18,270,,1*69
,1645494056003
NMEA,$GLGSV,3,1,09,78,79,227,21,79,34,324,24,88,00,000,26,87,23,035,15,1*74
,1645494056003
NMEA,$GLGSV,3,2,09,81,43,254,21,82,00,000,,77,27,158,,65,00,000,,1*7E
,1645494056003
NMEA,$GLGSV,3,3,09,71,00,000,,1*47
,1645494056003
NMEA,$GAGSV,1,1,0,7*43
,1645494056003
NMEA,$PQGSV,1,1,0,0*43
,1645494056003
NMEA,$GBGSV,1,1,0,0*47
,1645494056004
NMEA,$GNGSA,A,3,02,06,12,24,25,,,,,,,,1.5,1.2,0.8,1*38
,1645494056008
NMEA,$GNGSA,A,3,78,79,81,87,88,,,,,,,,1.5,1.2,0.8,2*3A
,1645494056008
NMEA,$GNVTG,,T,,M,0.0,N,0.0,K,A*3D
,1645494056008
NMEA,$GNGGA,014056.00,3725.585209,N,12210.154883,W,1,10,1.2,26.1,M,-27.9,M,,*73
,1645494056009
NMEA,$GNRMC,014056.00,A,3725.585209,N,12210.154883,W,0.0,,220222,15.0,E,A,V*5E
,1645494056009
NMEA,$AIDSTAT,0,0,0,2,-2,23,13*00
,1645494056934
NMEA,$GPGSV,3,1,09,02,82,081,28,06,35,043,16,12,75,338,31,24,30,212,20,1*69
,1645494057010
Raw,2861245,2840642000000,,,-1329526433789545590,0.4933738708496094,153.01763778552413,-1.004372577304943,18.094879379500746,87,14,0.0,207,16856367529497,40,21.7,93.18903350830078,1.056999921798706,0,0.0,0.0,,,,,0,,3,0.0,
Raw,2861245,2840642000000,,,-1329526433789545590,0.4933738708496094,153.01763778552413,-1.004372577304943,18.094879379500746,87,15,0.0,207,16856360604304,70,17.7,-618.3640747070312,1.3665000200271606,0,0.0,0.0,,,,,0,,3,0.0,
Raw,2861245,2840642000000,,,-1329526433789545590,0.4933738708496094,153.01763778552413,-1.004372577304943,18.094879379500746,87,24,0.0,207,16856365917321,17,28.5,279.0899963378906,0.24080000817775726,0,0.0,0.0,,,,,0,,3,0.0,
Raw,2861246,2840642000000,,,-1329526433789545590,0.4933738708496094,153.01763778552413,-1.004372577304943,18.094879379500746,87,23,0.0,207,16856357120296,138,14.5,641.3612060546875,4.702000141143799,0,0.0,0.0,,,,,0,,3,0.0,
Raw,2861246,2840642000000,,,-1329526433789545590,0.4933738708496094,153.01763778552413,-1.004372577304943,18.094879379500746,87,17,0.0,207,16856363102700,53,19.4,-351.5191650390625,1.2010000944137573,0,0.0,0.0,,,,,0,,3,0.0,
Raw,2861246,2840642000000,,,-1329526433789545590,0.4933738708496094,153.01763778552413,-1.004372577304943,18.094879379500746,87,2,0.0,15,178874362240369,19,27.8,108.5697021484375,0.04430000111460686,0,0.0,0.0,,,,,0,,1,0.0,
Raw,2861246,2840642000000,,,-1329526433789545590,0.4933738708496094,153.01763778552413,-1.004372577304943,18.094879379500746,87,6,0.0,15,178874356896211,283,16.2,549.8916015625,10.100500106811523,0,0.0,0.0,,,,,0,,1,0.0,
Raw,2861246,2840642000000,,,-1329526433789545590,0.4933738708496094,153.01763778552413,-1.004372577304943,18.094879379500746,87,12,0.0,15,178874364138667,13,31.0,-126.0599594116211,0.031200001016259193,0,0.0,0.0,,,,,0,,1,0.0,
Raw,2861246,2840642000000,,,-1329526433789545590,0.4933738708496094,153.01763778552413,-1.004372577304943,18.094879379500746,87,24,0.0,15,178874355194570,243,20.1,569.05419921875,9.809000015258789,0,0.0,0.0,,,,,0,,1,0.0,
Raw,2861247,2840642000000,,,-1329526433789545590,0.4933738708496094,153.01763778552413,-1.004372577304943,18.094879379500746,87,25,0.0,15,178874358634620,14,30.6,-513.9741821289062,0.052800003439188004,0,0.0,0.0,,,,,0,,1,0.0,
Fix,gps,37.426421,-122.169249,-1.803009,0.000000,15.008000,1645494057000
NMEA,$GPGSV,3,2,09,25,36,312,31,05,12,161,,19,14,067,,20,31,139,,1*6B
,1645494057010
NMEA,$GPGSV,3,3,09,29,18,270,,1*5A
,1645494057010
NMEA,$GLGSV,3,1,09,78,79,227,22,79,34,324,18,88,00,000,29,87,23,035,15,1*77
,1645494057011
NMEA,$GLGSV,3,2,09,81,43,254,19,82,00,000,,77,27,158,,65,00,000,,1*75
,1645494057011
NMEA,$GLGSV,3,3,09,71,00,000,,1*47
,1645494057011
NMEA,$GAGSV,1,1,0,7*43
,1645494057011
NMEA,$PQGSV,1,1,0,0*43
,1645494057011
NMEA,$GBGSV,1,1,0,0*47
,1645494057011
NMEA,$GNGSA,A,2,02,12,25,,,,,,,,,,1.8,1.5,0.9,1*32
,1645494057013
NMEA,$GNGSA,A,3,78,79,81,87,88,,,,,,,,1.8,1.5,0.9,2*31
,1645494057013
NMEA,$GNVTG,,T,,M,0.0,N,0.0,K,A*3D
,1645494057013
NMEA,$GNGGA,014057.00,3725.585285,N,12210.154959,W,1,08,1.5,26.1,M,-27.9,M,,*7E
,1645494057013
NMEA,$GNRMC,014057.00,A,3725.585285,N,12210.154959,W,0.0,,220222,15.0,E,A,V*5D
,1645494057013
NMEA,$AIDSTAT,0,0,0,2,,23,14*00
,1645494057932
Fix,gps,37.426423,-122.169251,-1.350250,0.000000,15.008000,1645494058000
Raw,2862249,2841642000000,,,-1329526433789545585,0.6491756439208984,158.4125857334584,1.3945876403722688,15.871236976291122,87,14,0.0,207,16857367529241,35,22.8,94.49283599853516,0.996999979019165,0,0.0,0.0,,,,,0,,3,0.0,
Raw,2862249,2841642000000,,,-1329526433789545585,0.6491756439208984,158.4125857334584,1.3945876403722688,15.871236976291122,87,15,0.0,207,16857360606380,31,23.0,-616.9231567382812,0.9264999628067017,0,0.0,0.0,,,,,0,,3,0.0,
Raw,2862249,2841642000000,,,-1329526433789545585,0.6491756439208984,158.4125857334584,1.3945876403722688,15.871236976291122,87,24,0.0,207,16857365916482,19,27.9,280.414306640625,0.24880000948905945,0,0.0,0.0,,,,,0,,3,0.0,
Raw,2862250,2841642000000,,,-1329526433789545585,0.6491756439208984,158.4125857334584,1.3945876403722688,15.871236976291122,87,23,0.0,207,16857357118157,169,14.5,641.3612060546875,6.202000141143799,0,0.0,0.0,,,,,0,,3,0.0,
Raw,2862250,2841642000000,,,-1329526433789545585,0.6491756439208984,158.4125857334584,1.3945876403722688,15.871236976291122,87,17,0.0,207,16857363104162,61,18.3,-349.6877746582031,1.281000018119812,0,0.0,0.0,,,,,0,,3,0.0,
Raw,2862250,2841642000000,,,-1329526433789545585,0.6491756439208984,158.4125857334584,1.3945876403722688,15.871236976291122,87,2,0.0,15,178875362239981,17,28.9,109.85616302490234,0.03629999980330467,0,0.0,0.0,,,,,0,,1,0.0,
Raw,2862251,2841642000000,,,-1329526433789545585,0.6491756439208984,158.4125857334584,1.3945876403722688,15.871236976291122,87,6,0.0,15,178875356894377,352,16.2,549.8916015625,11.600500106811523,0,0.0,0.0,,,,,0,,1,0.0,
Raw,2862251,2841642000000,,,-1329526433789545585,0.6491756439208984,158.4125857334584,1.3945876403722688,15.871236976291122,87,12,0.0,15,178875364139094,13,31.2,-124.70013427734375,0.031200001016259193,0,0.0,0.0,,,,,0,,1,0.0,
Raw,2862251,2841642000000,,,-1329526433789545585,0.6491756439208984,158.4125857334584,1.3945876403722688,15.871236976291122,87,24,0.0,15,178875355192672,311,20.1,569.05419921875,11.309000015258789,0,0.0,0.0,,,,,0,,1,0.0,
Raw,2862251,2841642000000,,,-1329526433789545585,0.6491756439208984,158.4125857334584,1.3945876403722688,15.871236976291122,87,25,0.0,15,178875358636322,16,29.7,-512.6429443359375,0.053700003772974014,0,0.0,0.0,,,,,0,,1,0.0,
NMEA,$GPGSV,3,1,09,02,82,081,29,06,35,043,16,12,75,338,31,24,30,212,20,1*68
,1645494058004
NMEA,$GPGSV,3,2,09,25,36,312,30,05,12,161,,19,14,067,,20,31,139,,1*6A
,1645494058004
NMEA,$GPGSV,3,3,09,29,18,270,,1*5A
,1645494058005
NMEA,$GLGSV,3,1,09,78,79,227,23,79,34,324,23,88,00,000,28,87,23,035,15,1*7F
,1645494058005
NMEA,$GLGSV,3,2,09,81,43,254,18,82,00,000,,77,27,158,,65,00,000,,1*74
,1645494058005
NMEA,$GLGSV,3,3,09,71,00,000,,1*47
,1645494058005
NMEA,$GAGSV,1,1,0,7*43
,1645494058006
NMEA,$PQGSV,1,1,0,0*43
,1645494058007
NMEA,$GBGSV,1,1,0,0*47
,1645494058007
NMEA,$GNGSA,A,2,02,12,25,,,,,,,,,,1.8,1.5,0.9,1*32
,1645494058012
NMEA,$GNGSA,A,3,78,79,81,87,88,,,,,,,,1.8,1.5,0.9,2*31
,1645494058012
NMEA,$GNVTG,,T,,M,0.0,N,0.0,K,A*3D
,1645494058012
NMEA,$GNGGA,014058.00,3725.585360,N,12210.155037,W,1,08,1.5,26.6,M,-27.9,M,,*7C
,1645494058013
NMEA,$GNRMC,014058.00,A,3725.585360,N,12210.155037,W,0.0,,220222,15.0,E,A,V*58
,1645494058013
NMEA,$AIDSTAT,0,0,0,2,-18,23,14*00
,1645494058931
NMEA,$GPGSV,3,1,09,02,82,081,29,06,35,043,16,12,75,338,33,24,30,212,11,1*68
,1645494059005
NMEA,$GPGSV,3,2,09,25,36,312,31,05,12,161,,19,14,067,,20,31,139,,1*6B
,1645494059005
NMEA,$GPGSV,3,3,09,29,18,270,,1*5A
,1645494059006
Raw,2863265,2842642000000,,,-1329526433789545577,0.6361980438232422,154.0711527923122,5.131063907607862,16.848485079787274,87,14,0.0,207,16858367528834,27,24.1,94.35214233398438,0.8769999742507935,0,0.0,0.0,,,,,0,,3,0.0,
Raw,2863265,2842642000000,,,-1329526433789545577,0.6361980438232422,154.0711527923122,5.131063907607862,16.848485079787274,87,15,0.0,207,16858360608346,27,24.3,-617.091552734375,0.8664999604225159,0,0.0,0.0,,,,,0,,3,0.0,
Raw,2863265,2842642000000,,,-1329526433789545577,0.6361980438232422,154.0711527923122,5.131063907607862,16.848485079787274,87,24,0.0,207,16858365915541,16,29.2,280.93157958984375,0.23420000076293945,0,0.0,0.0,,,,,0,,3,0.0,
Raw,2863265,2842642000000,,,-1329526433789545577,0.6361980438232422,154.0711527923122,5.131063907607862,16.848485079787274,87,23,0.0,207,16858357116017,210,14.5,641.3612060546875,7.702000141143799,0,0.0,0.0,,,,,0,,3,0.0,
Raw,2863266,2842642000000,,,-1329526433789545577,0.6361980438232422,154.0711527923122,5.131063907607862,16.848485079787274,87,17,0.0,207,16858363105211,35,22.2,-349.4448547363281,0.9909999966621399,0,0.0,0.0,,,,,0,,3,0.0,
Raw,2863266,2842642000000,,,-1329526433789545577,0.6361980438232422,154.0711527923122,5.131063907607862,16.848485079787274,87,2,0.0,15,178876362239639,17,28.8,110.48731994628906,0.03629999980330467,0,0.0,0.0,,,,,0,,1,0.0,
Raw,2863266,2842642000000,,,-1329526433789545577,0.6361980438232422,154.0711527923122,5.131063907607862,16.848485079787274,87,6,0.0,15,178876356892543,431,16.2,549.8916015625,13.100500106811523,0,0.0,0.0,,,,,0,,1,0.0,
Raw,2863266,2842642000000,,,-1329526433789545577,0.6361980438232422,154.0711527923122,5.131063907607862,16.848485079787274,87,12,0.0,15,178876364139509,11,33.0,-124.12271881103516,0.02890000119805336,0,0.0,0.0,,,,,0,,1,0.0,
Raw,2863266,2842642000000,,,-1329526433789545577,0.6361980438232422,154.0711527923122,5.131063907607862,16.848485079787274,87,24,0.0,15,178876355190821,263,10.8,567.2083129882812,6.999000072479248,0,0.0,0.0,,,,,0,,1,0.0,
Raw,2863266,2842642000000,,,-1329526433789545577,0.6361980438232422,154.0711527923122,5.131063907607862,16.848485079787274,87,25,0.0,15,178876358638025,13,31.3,-512.1033935546875,0.05220000073313713,0,0.0,0.0,,,,,0,,1,0.0,
Fix,gps,37.426426,-122.169248,-1.113098,0.000000,15.008000,1645494059000
NMEA,$GLGSV,3,1,09,78,79,227,24,79,34,324,24,88,00,000,29,87,23,035,15,1*7E
,1645494059006
NMEA,$GLGSV,3,2,09,81,43,254,22,82,00,000,,77,27,158,,65,00,000,,1*7D
,1645494059007
NMEA,$GLGSV,3,3,09,71,00,000,,1*47
,1645494059010
NMEA,$GAGSV,1,1,0,7*43
,1645494059010
NMEA,$PQGSV,1,1,0,0*43
,1645494059011
NMEA,$GBGSV,1,1,0,0*47
,1645494059011
NMEA,$GNGSA,A,3,02,12,24,25,,,,,,,,,1.5,1.3,0.9,1*3E
,1645494059016
NMEA,$GNGSA,A,3,78,79,81,87,88,,,,,,,,1.5,1.3,0.9,2*3A
,1645494059016
NMEA,$GNVTG,,T,,M,0.0,N,0.0,K,A*3D
,1645494059016
NMEA,$GNGGA,014059.00,3725.585565,N,12210.154870,W,1,09,1.3,26.8,M,-27.9,M,,*7D
,1645494059016
NMEA,$GNRMC,014059.00,A,3725.585565,N,12210.154870,W,0.0,,220222,15.0,E,A,V*50
,1645494059016
