# 
# Header Description:
# 
# Version: v2.0.0.1 Platform: 9 Manufacturer: samsung Model: SM-G960U
# 
# Raw,ElapsedRealtimeMillis,TimeNanos,LeapSecond,TimeUncertaintyNanos,FullBiasNanos,BiasNanos,BiasUncertaintyNanos,DriftNanosPerSecond,DriftUncertaintyNanosPerSecond,HardwareClockDiscontinuityCount,Svid,TimeOffsetNanos,State,ReceivedSvTimeNanos,ReceivedSvTimeUncertaintyNanos,Cn0DbHz,PseudorangeRateMetersPerSecond,PseudorangeRateUncertaintyMetersPerSecond,AccumulatedDeltaRangeState,AccumulatedDeltaRangeMeters,AccumulatedDeltaRangeUncertaintyMeters,CarrierFrequencyHz,CarrierCycles,CarrierPhase,CarrierPhaseUncertainty,MultipathIndicator,SnrInDb,ConstellationType,AgcDb,CarrierFrequencyHz
# 
# Fix,Provider,Latitude,Longitude,Altitude,Speed,Accuracy,(UTC)TimeInMs
# 
# Nav,Svid,Type,Status,MessageId,Sub-messageId,Data(Bytes)
# 
NMEA,$AIDSTAT,0,0,0,2,,23,9*00
,1645494144932
Raw,2949225,2928642000000,,,-1329526433789544819,0.09202384948730469,57.19432374462485,6.372391486238393,12.920231013843969,87,14,0.0,207,16944367499567,8,36.0,107.78868103027344,0.23170000314712524,0,0.0,0.0,,,,,0,,3,0.0,
Raw,2949226,2928642000000,,,-1329526433789544819,0.09202384948730469,57.19432374462485,6.372391486238393,12.920231013843969,87,15,0.0,207,16944360784152,10,34.9,-610.1349487304688,0.22210000455379486,0,0.0,0.0,,,,,0,,3,0.0,
Raw,2949226,2928642000000,,,-1329526433789544819,0.09202384948730469,57.19432374462485,6.372391486238393,12.920231013843969,87,24,0.0,207,16944365833753,10,34.9,286.8841247558594,0.22960001230239868,0,0.0,0.0,,,,,0,,3,0.0,
Raw,2949226,2928642000000,,,-1329526433789544819,0.09202384948730469,57.19432374462485,6.372391486238393,12.920231013843969,87,23,0.0,207,16944356931187,46,20.1,642.7726440429688,1.1405000686645508,0,0.0,0.0,,,,,0,,3,0.0,
Raw,2949227,2928642000000,,,-1329526433789544819,0.09202384948730469,57.19432374462485,6.372391486238393,12.920231013843969,87,17,0.0,207,16944363204000,53,19.4,-342.6146240234375,1.2010000944137573,0,0.0,0.0,,,,,0,,3,0.0,
Raw,2949227,2928642000000,,,-1329526433789544819,0.09202384948730469,57.19432374462485,6.372391486238393,12.920231013843969,87,2,0.0,15,178962362206671,10,34.3,117.48021697998047,0.025100000202655792,0,0.0,0.0,,,,,0,,1,0.0,
Raw,2949227,2928642000000,,,-1329526433789544819,0.09202384948730469,57.19432374462485,6.372391486238393,12.920231013843969,87,6,0.0,15,178962356734157,31,23.3,553.5452880859375,0.640500009059906,0,0.0,0.0,,,,,0,,1,0.0,
Raw,2949227,2928642000000,,,-1329526433789544819,0.09202384948730469,57.19432374462485,6.372391486238393,12.920231013843969,87,12,0.0,15,178962364173823,11,33.2,-117.04405975341797,0.02890000119805336,0,0.0,0.0,,,,,0,,1,0.0,
Raw,2949228,2928642000000,,,-1329526433789544819,0.09202384948730469,57.19432374462485,6.372391486238393,12.920231013843969,87,19,0.0,15,178962351155897,80,16.1,543.6119384765625,1.0929999351501465,0,0.0,0.0,,,,,0,,1,0.0,
Raw,2949228,2928642000000,,,-1329526433789544819,0.09202384948730469,57.19432374462485,6.372391486238393,12.920231013843969,87,24,0.0,15,178962355026999,78,17.8,572.527099609375,2.5190000534057617,0,0.0,0.0,,,,,0,,1,0.0,
Raw,2949228,2928642000000,,,-1329526433789544819,0.09202384948730469,57.19432374462485,6.372391486238393,12.920231013843969,87,25,0.0,15,178962358784136,11,33.9,-508.70245361328125,0.04990000277757645,0,0.0,0.0,,,,,0,,1,0.0,
Fix,gps,37.426425,-122.169291,-4.233917,0.000000,9.648001,1645494145000
NMEA,$GPGSV,3,1,09,02,82,075,34,06,34,043,23,12,76,340,33,19,13,067,16,1*6C
,1645494145003
NMEA,$GPGSV,3,2,09,24,30,212,18,25,37,312,34,05,13,161,,20,31,137,,1*61
,1645494145004
NMEA,$GPGSV,3,3,09,29,19,271,,1*5A
,1645494145004
NMEA,$GLGSV,3,1,09,78,79,227,36,79,35,324,35,88,61,001,35,87,23,036,20,1*72
,1645494145004
NMEA,$GLGSV,3,2,09,81,43,254,19,82,00,000,,77,26,158,,65,00,000,,1*74
,1645494145004
NMEA,$GLGSV,3,3,09,71,00,000,,1*47
,1645494145004
NMEA,$GAGSV,1,1,0,7*43
,1645494145005
NMEA,$PQGSV,1,1,0,0*43
,1645494145005
NMEA,$GBGSV,1,1,0,0*47
,1645494145005
NMEA,$GNGSA,A,3,02,06,12,24,25,,,,,,,,1.5,1.2,0.8,1*38
,1645494145007
NMEA,$GNGSA,A,3,78,79,81,87,88,,,,,,,,1.5,1.2,0.8,2*3A
,1645494145008
NMEA,$GNVTG,,T,,M,0.0,N,0.0,K,A*3D
,1645494145008
NMEA,$GNGGA,014225.00,3725.585524,N,12210.157441,W,1,10,1.2,23.7,M,-27.9,M,,*7F
,1645494145008
NMEA,$GNRMC,014225.00,A,3725.585524,N,12210.157441,W,0.0,,220222,15.0,E,A,V*51
,1645494145008
NMEA,$AIDSTAT,0,0,0,2,-6,23,9*00
,1645494145932
Raw,2950233,2929642000000,,,-1329526433789544822,0.6482334136962891,58.36630589328706,2.564907659964642,12.943803076769482,87,14,0.0,207,16945367499211,9,35.0,107.82833099365234,0.2320999950170517,0,0.0,0.0,,,,,0,,3,0.0,
Raw,2950234,2929642000000,,,-1329526433789544822,0.6482334136962891,58.36630589328706,2.564907659964642,12.943803076769482,87,15,0.0,207,16945360786218,16,29.7,-610.050537109375,0.22669999301433563,0,0.0,0.0,,,,,0,,3,0.0,
Raw,2950234,2929642000000,,,-1329526433789544822,0.6482334136962891,58.36630589328706,2.564907659964642,12.943803076769482,87,24,0.0,207,16945365832828,9,35.5,286.9305114746094,0.22910000383853912,0,0.0,0.0,,,,,0,,3,0.0,
Raw,2950235,2929642000000,,,-1329526433789544822,0.6482334136962891,58.36630589328706,2.564907659964642,12.943803076769482,87,23,0.0,207,16945356929043,55,20.1,642.7726440429688,2.640500068664551,0,0.0,0.0,,,,,0,,3,0.0,
Raw,2950238,2929642000000,,,-1329526433789544822,0.6482334136962891,58.36630589328706,2.564907659964642,12.943803076769482,87,17,0.0,207,16945363205229,93,15.6,-341.7456359863281,1.561000108718872,0,0.0,0.0,,,,,0,,3,0.0,
Raw,2950238,2929642000000,,,-1329526433789544822,0.6482334136962891,58.36630589328706,2.564907659964642,12.943803076769482,87,2,0.0,15,178963362206265,11,33.3,117.41288757324219,0.02590000070631504,0,0.0,0.0,,,,,0,,1,0.0,
Raw,2950238,2929642000000,,,-1329526433789544822,0.6482334136962891,58.36630589328706,2.564907659964642,12.943803076769482,87,6,0.0,15,178963356732310,38,23.3,553.5452880859375,2.140500068664551,0,0.0,0.0,,,,,0,,1,0.0,
Raw,2950238,2929642000000,,,-1329526433789544822,0.6482334136962891,58.36630589328706,2.564907659964642,12.943803076769482,87,12,0.0,15,178963364174225,9,35.5,-117.07939147949219,0.0276000015437603,0,0.0,0.0,,,,,0,,1,0.0,
Raw,2950238,2929642000000,,,-1329526433789544822,0.6482334136962891,58.36630589328706,2.564907659964642,12.943803076769482,87,19,0.0,15,178963351154084,89,16.1,543.6119384765625,2.5929999351501465,0,0.0,0.0,,,,,0,,1,0.0,
Raw,2950239,2929642000000,,,-1329526433789544822,0.6482334136962891,58.36630589328706,2.564907659964642,12.943803076769482,87,24,0.0,15,178963355025089,97,17.8,572.527099609375,4.019000053405762,0,0.0,0.0,,,,,0,,1,0.0,
Raw,2950239,2929642000000,,,-1329526433789544822,0.6482334136962891,58.36630589328706,2.564907659964642,12.943803076769482,87,25,0.0,15,178963358785836,13,31.9,-508.3266906738281,0.05220000073313713,0,0.0,0.0,,,,,0,,1,0.0,
NMEA,$GPGSV,3,1,09,02,82,075,33,06,34,043,23,12,76,340,36,19,13,067,16,1*6E
,1645494146010
NMEA,$GPGSV,3,2,09,24,30,212,18,25,37,312,32,05,13,161,,20,31,137,,1*67
,1645494146011
NMEA,$GPGSV,3,3,09,29,19,271,,1*5A
,1645494146011
NMEA,$GLGSV,3,1,09,78,79,227,35,79,35,324,30,88,61,001,36,87,23,036,20,1*77
,1645494146011
NMEA,$GLGSV,3,2,09,81,43,254,16,82,00,000,,77,26,158,,65,00,000,,1*7B
,1645494146011
NMEA,$GLGSV,3,3,09,71,00,000,,1*47
,1645494146011
NMEA,$GAGSV,1,1,0,7*43
,1645494146012
NMEA,$PQGSV,1,1,0,0*43
,1645494146012
NMEA,$GBGSV,1,1,0,0*47
,1645494146012
Fix,gps,37.426422,-122.169290,-4.022369,0.000000,9.648001,1645494146000
NMEA,$GNGSA,A,3,02,06,12,24,25,,,,,,,,1.5,1.2,0.8,1*38
,1645494146015
NMEA,$GNGSA,A,3,78,79,81,87,88,,,,,,,,1.5,1.2,0.8,2*3A
,1645494146015
NMEA,$GNVTG,,T,,M,0.0,N,0.0,K,A*3D
,1645494146015
NMEA,$GNGGA,014226.00,3725.585322,N,12210.157389,W,1,10,1.2,23.9,M,-27.9,M,,*71
,1645494146015
NMEA,$GNRMC,014226.00,A,3725.585322,N,12210.157389,W,0.0,,220222,15.0,E,A,V*51
,1645494146015
NMEA,$AIDSTAT,0,0,0,2,-6,23,9*00
,1645494146934
Raw,2951230,2930642000000,,,-1329526433789544824,0.20444297790527344,59.185818827245384,2.9634564493273947,14.732900385010213,87,14,0.0,207,16946367498850,11,33.8,108.68159484863281,0.23340000212192535,0,0.0,0.0,,,,,0,,3,0.0,
Raw,2951231,2930642000000,,,-1329526433789544824,0.20444297790527344,59.185818827245384,2.9634564493273947,14.732900385010213,87,15,0.0,207,16946360788222,11,33.5,-609.456298828125,0.22290000319480896,0,0.0,0.0,,,,,0,,3,0.0,
Raw,2951232,2930642000000,,,-1329526433789544824,0.20444297790527344,59.185818827245384,2.9634564493273947,14.732900385010213,87,24,0.0,207,16946365831870,6,38.8,287.5492858886719,0.22760000824928284,0,0.0,0.0,,,,,0,,3,0.0,
Raw,2951232,2930642000000,,,-1329526433789544824,0.20444297790527344,59.185818827245384,2.9634564493273947,14.732900385010213,87,23,0.0,207,16946356926794,126,13.1,643.249267578125,2.570500135421753,0,0.0,0.0,,,,,0,,3,0.0,
Raw,2951232,2930642000000,,,-1329526433789544824,0.20444297790527344,59.185818827245384,2.9634564493273947,14.732900385010213,87,17,0.0,207,16946363206282,61,18.1,-340.2693176269531,1.281000018119812,0,0.0,0.0,,,,,0,,3,0.0,
Raw,2951232,2930642000000,,,-1329526433789544824,0.20444297790527344,59.185818827245384,2.9634564493273947,14.732900385010213,87,2,0.0,15,178964362205888,8,36.6,118.15680694580078,0.02420000173151493,0,0.0,0.0,,,,,0,,1,0.0,
Raw,2951233,2930642000000,,,-1329526433789544824,0.20444297790527344,59.185818827245384,2.9634564493273947,14.732900385010213,87,6,0.0,15,178964356730536,84,16.3,553.98291015625,1.8504999876022339,0,0.0,0.0,,,,,0,,1,0.0,
Raw,2951233,2930642000000,,,-1329526433789544824,0.20444297790527344,59.185818827245384,2.9634564493273947,14.732900385010213,87,12,0.0,15,178964364174617,7,37.8,-116.34906005859375,0.026600001379847527,0,0.0,0.0,,,,,0,,1,0.0,
Raw,2951233,2930642000000,,,-1329526433789544824,0.20444297790527344,59.185818827245384,2.9634564493273947,14.732900385010213,87,19,0.0,15,178964351152271,108,16.1,543.6119384765625,4.0929999351501465,0,0.0,0.0,,,,,0,,1,0.0,
Raw,2951233,2930642000000,,,-1329526433789544824,0.20444297790527344,59.185818827245384,2.9634564493273947,14.732900385010213,87,24,0.0,15,178964355023040,102,15.4,571.8800659179688,2.689000129699707,0,0.0,0.0,,,,,0,,1,0.0,
Raw,2951233,2930642000000,,,-1329526433789544824,0.20444297790527344,59.185818827245384,2.9634564493273947,14.732900385010213,87,25,0.0,15,178964358787522,10,34.5,-507.8712158203125,0.04910000041127205,0,0.0,0.0,,,,,0,,1,0.0,
Fix,gps,37.426419,-122.169289,-3.795776,0.000000,9.648001,1645494147000
NMEA,$GPGSV,3,1,09,02,82,075,37,06,34,043,16,12,76,340,38,19,13,067,16,1*62
,1645494147009
NMEA,$GPGSV,3,2,09,24,30,212,15,25,37,312,35,05,13,161,,20,31,137,,1*6D
,1645494147009
NMEA,$GPGSV,3,3,09,29,19,271,,1*5A
,1645494147009
NMEA,$GLGSV,3,1,09,78,79,227,34,79,35,324,34,88,61,001,39,87,23,036,13,1*7D
,1645494147009
NMEA,$GLGSV,3,2,09,81,43,254,18,82,00,000,,77,26,158,,65,00,000,,1*75
,1645494147009
NMEA,$GLGSV,3,3,09,71,00,000,,1*47
,1645494147009
NMEA,$GAGSV,1,1,0,7*43
,1645494147012
NMEA,$PQGSV,1,1,0,0*43
,1645494147013
NMEA,$GBGSV,1,1,0,0*47
,1645494147013
NMEA,$GNGSA,A,3,02,06,12,24,25,,,,,,,,1.5,1.2,0.8,1*38
,1645494147016
NMEA,$GNGSA,A,3,78,79,81,87,88,,,,,,,,1.5,1.2,0.8,2*3A
,1645494147016
NMEA,$GNVTG,,T,,M,0.0,N,0.0,K,A*3D
,1645494147016
NMEA,$GNGGA,014227.00,3725.585151,N,12210.157310,W,1,10,1.2,24.1,M,-27.9,M,,*79
,1645494147016
NMEA,$GNRMC,014227.00,A,3725.585151,N,12210.157310,W,0.0,,220222,15.0,E,A,V*56
,1645494147016
NMEA,$AIDSTAT,0,0,0,2,-7,23,9*00
,1645494147931
Raw,2952230,2931642000000,,,-1329526433789544822,0.8866519927978516,58.953399275196716,5.014062891697941,13.155243844988316,87,14,0.0,207,16947367498491,11,33.5,108.98477935791016,0.23340000212192535,0,0.0,0.0,,,,,0,,3,0.0,
Raw,2952230,2931642000000,,,-1329526433789544822,0.8866519927978516,58.953399275196716,5.014062891697941,13.155243844988316,87,15,0.0,207,16947360790286,10,34.3,-609.1593627929688,0.22210000455379486,0,0.0,0.0,,,,,0,,3,0.0,
Raw,2952231,2931642000000,,,-1329526433789544822,0.8866519927978516,58.953399275196716,5.014062891697941,13.155243844988316,87,24,0.0,207,16947365830911,6,39.3,287.8224182128906,0.22709999978542328,0,0.0,0.0,,,,,0,,3,0.0,
Raw,2952231,2931642000000,,,-1329526433789544822,0.8866519927978516,58.953399275196716,5.014062891697941,13.155243844988316,87,23,0.0,207,16947356924649,142,13.1,643.249267578125,4.070500373840332,0,0.0,0.0,,,,,0,,3,0.0,
Raw,2952231,2931642000000,,,-1329526433789544822,0.8866519927978516,58.953399275196716,5.014062891697941,13.155243844988316,87,17,0.0,207,16947363207417,70,18.1,-340.2693176269531,2.7810001373291016,0,0.0,0.0,,,,,0,,3,0.0,
Raw,2952231,2931642000000,,,-1329526433789544822,0.8866519927978516,58.953399275196716,5.014062891697941,13.155243844988316,87,2,0.0,15,178965362205496,7,37.1,118.435302734375,0.023600000888109207,0,0.0,0.0,,,,,0,,1,0.0,
Raw,2952231,2931642000000,,,-1329526433789544822,0.8866519927978516,58.953399275196716,5.014062891697941,13.155243844988316,87,6,0.0,15,178965356728688,97,16.3,553.98291015625,3.3505001068115234,0,0.0,0.0,,,,,0,,1,0.0,
Raw,2952232,2931642000000,,,-1329526433789544822,0.8866519927978516,58.953399275196716,5.014062891697941,13.155243844988316,87,12,0.0,15,178965364174995,9,35.3,-116.09590148925781,0.0276000015437603,0,0.0,0.0,,,,,0,,1,0.0,
Raw,2952232,2931642000000,,,-1329526433789544822,0.8866519927978516,58.953399275196716,5.014062891697941,13.155243844988316,87,19,0.0,15,178965351150458,137,16.1,543.6119384765625,5.5929999351501465,0,0.0,0.0,,,,,0,,1,0.0,
Raw,2952232,2931642000000,,,-1329526433789544822,0.8866519927978516,58.953399275196716,5.014062891697941,13.155243844988316,87,24,0.0,15,178965355021132,121,15.4,571.8800659179688,4.189000129699707,0,0.0,0.0,,,,,0,,1,0.0,
Raw,2952232,2931642000000,,,-1329526433789544822,0.8866519927978516,58.953399275196716,5.014062891697941,13.155243844988316,87,25,0.0,15,178965358789223,7,37.9,-507.6883239746094,0.047600001096725464,0,0.0,0.0,,,,,0,,1,0.0,
Fix,gps,37.426416,-122.169287,-3.625092,0.000000,9.648001,1645494148000
NMEA,$GPGSV,3,1,09,02,82,075,37,06,34,043,16,12,76,340,35,19,13,067,16,1*6F
,1645494148006
NMEA,$GPGSV,3,2,09,24,30,212,15,25,37,312,38,05,13,161,,20,31,137,,1*60
,1645494148006
NMEA,$GPGSV,3,3,09,29,19,271,,1*5A
,1645494148006
NMEA,$GLGSV,3,1,09,78,79,227,34,79,35,324,34,88,61,001,39,87,23,036,13,1*7D
,1645494148006
NMEA,$GLGSV,3,2,09,81,43,254,18,82,00,000,,77,26,158,,65,00,000,,1*75
,1645494148006
NMEA,$GLGSV,3,3,09,71,00,000,,1*47
,1645494148006
NMEA,$GAGSV,1,1,0,7*43
,1645494148006
NMEA,$PQGSV,1,1,0,0*43
,1645494148007
NMEA,$GBGSV,1,1,0,0*47
,1645494148007
NMEA,$GNGSA,A,3,02,06,12,24,25,,,,,,,,1.5,1.2,0.8,1*38
,1645494148009
NMEA,$GNGSA,A,3,78,79,81,87,88,,,,,,,,1.5,1.2,0.8,2*3A
,1645494148009
NMEA,$GNVTG,,T,,M,0.0,N,0.0,K,A*3D
,1645494148009
NMEA,$GNGGA,014228.00,3725.584976,N,12210.157203,W,1,10,1.2,24.3,M,-27.9,M,,*7B
,1645494148009
NMEA,$GNRMC,014228.00,A,3725.584976,N,12210.157203,W,0.0,,220222,15.0,E,A,V*56
,1645494148009
NMEA,$AIDSTAT,0,0,0,2,,23,9*00
,1645494148934
Raw,2953228,2932642000000,,,-1329526433789544816,0.9365234375,56.287368352059275,5.918289293245451,12.978259325025583,87,14,0.0,207,16948367498132,11,33.7,108.8835678100586,0.23340000212192535,0,0.0,0.0,,,,,0,,3,0.0,
Raw,2953229,2932642000000,,,-1329526433789544816,0.9365234375,56.287368352059275,5.918289293245451,12.978259325025583,87,15,0.0,207,16948360792295,9,35.4,-609.2854614257812,0.2215999960899353,0,0.0,0.0,,,,,0,,3,0.0,
Raw,2953229,2932642000000,,,-1329526433789544816,0.9365234375,56.287368352059275,5.918289293245451,12.978259325025583,87,24,0.0,207,16948365829948,6,38.9,287.6468811035156,0.22760000824928284,0,0.0,0.0,,,,,0,,3,0.0,
Raw,2953229,2932642000000,,,-1329526433789544816,0.9365234375,56.287368352059275,5.918289293245451,12.978259325025583,87,23,0.0,207,16948356922503,169,13.1,643.249267578125,5.570500373840332,0,0.0,0.0,,,,,0,,3,0.0,
Raw,2953234,2932642000000,,,-1329526433789544816,0.9365234375,56.287368352059275,5.918289293245451,12.978259325025583,87,17,0.0,207,16948363208552,89,18.1,-340.2693176269531,4.281000137329102,0,0.0,0.0,,,,,0,,3,0.0,
Raw,2953235,2932642000000,,,-1329526433789544816,0.9365234375,56.287368352059275,5.918289293245451,12.978259325025583,87,2,0.0,15,178966362205103,7,37.2,118.27672576904297,0.023600000888109207,0,0.0,0.0,,,,,0,,1,0.0,
Raw,2953246,2932642000000,,,-1329526433789544816,0.9365234375,56.287368352059275,5.918289293245451,12.978259325025583,87,6,0.0,15,178966356726840,121,16.3,553.98291015625,4.850500106811523,0,0.0,0.0,,,,,0,,1,0.0,
Raw,2953247,2932642000000,,,-1329526433789544816,0.9365234375,56.287368352059275,5.918289293245451,12.978259325025583,87,12,0.0,15,178966364175398,9,35.5,-116.21233367919922,0.0276000015437603,0,0.0,0.0,,,,,0,,1,0.0,
Raw,2953247,2932642000000,,,-1329526433789544816,0.9365234375,56.287368352059275,5.918289293245451,12.978259325025583,87,19,0.0,15,178966351148682,124,14.2,543.0125122070312,3.5230000019073486,0,0.0,0.0,,,,,0,,1,0.0,
Raw,2953247,2932642000000,,,-1329526433789544816,0.9365234375,56.287368352059275,5.918289293245451,12.978259325025583,87,24,0.0,15,178966355019307,84,16.7,571.8515014648438,1.8489999771118164,0,0.0,0.0,,,,,0,,1,0.0,
Raw,2953248,2932642000000,,,-1329526433789544816,0.9365234375,56.287368352059275,5.918289293245451,12.978259325025583,87,25,0.0,15,178966358790926,8,36.0,-507.8369445800781,0.04820000380277634,0,0.0,0.0,,,,,0,,1,0.0,
NMEA,$GPGSV,3,1,09,02,82,075,37,06,34,043,16,12,76,340,36,19,13,067,14,1*6E
,1645494149003
NMEA,$GPGSV,3,2,09,24,30,212,17,25,37,312,36,05,13,161,,20,31,137,,1*6C
,1645494149003
NMEA,$GPGSV,3,3,09,29,19,271,,1*5A
,1645494149003
NMEA,$GLGSV,3,1,09,78,79,227,34,79,35,324,35,88,61,001,39,87,23,036,13,1*7C
,1645494149003
NMEA,$GLGSV,3,2,09,81,43,254,18,82,00,000,,77,26,158,,65,00,000,,1*75
,1645494149004
NMEA,$GLGSV,3,3,09,71,00,000,,1*47
,1645494149004
NMEA,$GAGSV,1,1,0,7*43
,1645494149004
NMEA,$PQGSV,1,1,0,0*43
,1645494149004
NMEA,$GBGSV,1,1,0,0*47
,1645494149004
Fix,gps,37.426413,-122.169285,-3.343597,0.000000,9.648001,1645494149000
NMEA,$GNGSA,A,3,02,06,12,25,,,,,,,,,1.7,1.5,0.9,1*3A
,1645494149020
NMEA,$GNGSA,A,3,78,79,81,87,88,,,,,,,,1.7,1.5,0.9,2*3E
,1645494149020
NMEA,$GNVTG,,T,,M,0.0,N,0.0,K,A*3D
,1645494149020
NMEA,$GNGGA,014229.00,3725.584778,N,12210.157085,W,1,09,1.5,24.6,M,-27.9,M,,*7C
,1645494149020
NMEA,$GNRMC,014229.00,A,3725.584778,N,12210.157085,W,0.0,,220222,15.0,E,A,V*5B
,1645494149020
NMEA,$AIDSTAT,0,0,0,2,-6,23,9*00
,1645494149933
Raw,2954233,2933642000000,,,-1329526433789544812,0.09556961059570312,56.27416248898953,4.842933214085329,12.956543442763637,87,14,0.0,207,16949367497749,9,35.3,109.55305480957031,0.2320999950170517,0,0.0,0.0,,,,,0,,3,0.0,
Raw,2954234,2933642000000,,,-1329526433789544812,0.09556961059570312,56.27416248898953,4.842933214085329,12.956543442763637,87,15,0.0,207,16949360794355,13,31.4,-608.7244262695312,0.22519999742507935,0,0.0,0.0,,,,,0,,3,0.0,
Raw,2954234,2933642000000,,,-1329526433789544812,0.09556961059570312,56.27416248898953,4.842933214085329,12.956543442763637,87,24,0.0,207,16949365828971,6,38.3,288.24871826171875,0.22760000824928284,0,0.0,0.0,,,,,0,,3,0.0,
Raw,2954234,2933642000000,,,-1329526433789544812,0.09556961059570312,56.27416248898953,4.842933214085329,12.956543442763637,87,23,0.0,207,16949356920357,205,13.1,643.249267578125,7.070500373840332,0,0.0,0.0,,,,,0,,3,0.0,
Raw,2954234,2933642000000,,,-1329526433789544812,0.09556961059570312,56.27416248898953,4.842933214085329,12.956543442763637,87,17,0.0,207,16949363209687,119,18.1,-340.2693176269531,5.781000137329102,0,0.0,0.0,,,,,0,,3,0.0,
Raw,2954235,2933642000000,,,-1329526433789544812,0.09556961059570312,56.27416248898953,4.842933214085329,12.956543442763637,87,2,0.0,15,178967362204692,6,38.2,118.9017105102539,0.023100001737475395,0,0.0,0.0,,,,,0,,1,0.0,
Raw,2954235,2933642000000,,,-1329526433789544812,0.09556961059570312,56.27416248898953,4.842933214085329,12.956543442763637,87,6,0.0,15,178967356724992,155,16.3,553.98291015625,6.350500106811523,0,0.0,0.0,,,,,0,,1,0.0,
Raw,2954236,2933642000000,,,-1329526433789544812,0.09556961059570312,56.27416248898953,4.842933214085329,12.956543442763637,87,12,0.0,15,178967364175764,9,35.3,-115.6363296508789,0.0276000015437603,0,0.0,0.0,,,,,0,,1,0.0,
Raw,2954236,2933642000000,,,-1329526433789544812,0.09556961059570312,56.27416248898953,4.842933214085329,12.956543442763637,87,19,0.0,15,178967351146870,148,14.2,543.0125122070312,5.023000240325928,0,0.0,0.0,,,,,0,,1,0.0,
Raw,2954237,2933642000000,,,-1329526433789544812,0.09556961059570312,56.27416248898953,4.842933214085329,12.956543442763637,87,24,0.0,15,178967355017446,70,17.9,573.849609375,1.0190000534057617,0,0.0,0.0,,,,,0,,1,0.0,
Raw,2954237,2933642000000,,,-1329526433789544812,0.09556961059570312,56.27416248898953,4.842933214085329,12.956543442763637,87,25,0.0,15,178967358792618,10,34.6,-507.32623291015625,0.04910000041127205,0,0.0,0.0,,,,,0,,1,0.0,
Fix,gps,37.426410,-122.169284,-3.339752,0.000000,9.648001,1645494150000
NMEA,$GPGSV,3,1,09,02,82,075,38,06,34,043,16,12,76,340,35,19,13,067,14,1*62
,1645494150002
NMEA,$GPGSV,3,2,09,24,30,212,18,25,37,312,35,05,13,161,,20,31,137,,1*60
,1645494150002
NMEA,$GPGSV,3,3,09,29,19,271,,1*5A
,1645494150002
NMEA,$GLGSV,3,1,09,78,79,227,35,79,35,324,31,88,61,001,38,87,23,036,13,1*78
,1645494150002
NMEA,$GLGSV,3,2,09,81,43,254,18,82,00,000,,77,26,158,,65,00,000,,1*75
,1645494150002
NMEA,$GLGSV,3,3,09,71,00,000,,1*47
,1645494150003
NMEA,$GAGSV,1,1,0,7*43
,1645494150006
NMEA,$PQGSV,1,1,0,0*43
,1645494150006
NMEA,$GBGSV,1,1,0,0*47
,1645494150006
NMEA,$GNGSA,A,3,02,06,12,25,,,,,,,,,1.9,1.7,1.0,1*3E
,1645494150010
NMEA,$GNGSA,A,3,78,79,87,88,,,,,,,,,1.9,1.7,1.0,2*33
,1645494150010
NMEA,$GNVTG,,T,,M,0.0,N,0.0,K,A*3D
,1645494150010
NMEA,$GNGGA,014230.00,3725.584616,N,12210.157045,W,1,08,1.7,24.6,M,-27.9,M,,*72
,1645494150010
NMEA,$GNRMC,014230.00,A,3725.584616,N,12210.157045,W,0.0,,220222,15.0,E,A,V*56
,1645494150010
