# 
# Header Description:
# 
# Version: v2.0.0.1 Platform: 9 Manufacturer: samsung Model: SM-G960U
# 
# Raw,ElapsedRealtimeMillis,TimeNanos,LeapSecond,TimeUncertaintyNanos,FullBiasNanos,BiasNanos,BiasUncertaintyNanos,DriftNanosPerSecond,DriftUncertaintyNanosPerSecond,HardwareClockDiscontinuityCount,Svid,TimeOffsetNanos,State,ReceivedSvTimeNanos,ReceivedSvTimeUncertaintyNanos,Cn0DbHz,PseudorangeRateMetersPerSecond,PseudorangeRateUncertaintyMetersPerSecond,AccumulatedDeltaRangeState,AccumulatedDeltaRangeMeters,AccumulatedDeltaRangeUncertaintyMeters,CarrierFrequencyHz,CarrierCycles,CarrierPhase,CarrierPhaseUncertainty,MultipathIndicator,SnrInDb,ConstellationType,AgcDb,CarrierFrequencyHz
# 
# Fix,Provider,Latitude,Longitude,Altitude,Speed,Accuracy,(UTC)TimeInMs
# 
# Nav,Svid,Type,Status,MessageId,Sub-messageId,Data(Bytes)
# 
NMEA,$AIDSTAT,0,0,0,2,,23,3*00
,1645494344934
Raw,3149238,3128642000000,,,-1329526433789543566,0.8757266998291016,34.004959161393344,2.041424352440646,14.2195272577479,87,14,0.0,207,17144367416315,11,33.9,137.84031677246094,0.23340000212192535,0,0.0,0.0,,,,,0,,3,0.0,
Raw,3149239,3128642000000,,,-1329526433789543566,0.8757266998291016,34.004959161393344,2.041424352440646,14.2195272577479,87,13,0.0,207,17144357517739,148,17.4,772.1522216796875,6.642000198364258,0,0.0,0.0,,,,,0,,3,0.0,
Raw,3149239,3128642000000,,,-1329526433789543566,0.8757266998291016,34.004959161393344,2.041424352440646,14.2195272577479,87,15,0.0,207,17144361184810,14,30.6,-593.7388916015625,0.2273000031709671,0,0.0,0.0,,,,,0,,3,0.0,
Raw,3149239,3128642000000,,,-1329526433789543566,0.8757266998291016,34.004959161393344,2.041424352440646,14.2195272577479,87,24,0.0,207,17144365636763,9,35.9,300.1695556640625,0.22910000383853912,0,0.0,0.0,,,,,0,,3,0.0,
Raw,3149239,3128642000000,,,-1329526433789543566,0.8757266998291016,34.004959161393344,2.041424352440646,14.2195272577479,87,23,0.0,207,17144356501494,19,27.5,641.5006103515625,0.2653000056743622,0,0.0,0.0,,,,,0,,3,0.0,
Raw,3149239,3128642000000,,,-1329526433789543566,0.8757266998291016,34.004959161393344,2.041424352440646,14.2195272577479,87,17,0.0,207,17144363426171,6,38.5,-326.3858337402344,0.22460000216960907,0,0.0,0.0,,,,,0,,3,0.0,
Raw,3149240,3128642000000,,,-1329526433789543566,0.8757266998291016,34.004959161393344,2.041424352440646,14.2195272577479,87,7,0.0,207,17144349136454,5,40.6,150.95506286621094,0.232900008559227,0,0.0,0.0,,,,,0,,3,0.0,
Raw,3149241,3128642000000,,,-1329526433789543566,0.8757266998291016,34.004959161393344,2.041424352440646,14.2195272577479,87,2,0.0,15,179162362121633,9,35.2,133.54884338378906,0.02460000105202198,0,0.0,0.0,,,,,0,,1,0.0,
Raw,3149241,3128642000000,,,-1329526433789543566,0.8757266998291016,34.004959161393344,2.041424352440646,14.2195272577479,87,6,0.0,15,179162356360780,7,37.3,562.0331420898438,0.044600002467632294,0,0.0,0.0,,,,,0,,1,0.0,
Raw,3149241,3128642000000,,,-1329526433789543566,0.8757266998291016,34.004959161393344,2.041424352440646,14.2195272577479,87,12,0.0,15,179162364245115,8,36.6,-100.21590423583984,0.0272000003606081,0,0.0,0.0,,,,,0,,1,0.0,
Raw,3149241,3128642000000,,,-1329526433789543566,0.8757266998291016,34.004959161393344,2.041424352440646,14.2195272577479,87,19,0.0,15,179162350793080,17,28.9,541.30615234375,0.04830000177025795,0,0.0,0.0,,,,,0,,1,0.0,
Raw,3149241,3128642000000,,,-1329526433789543566,0.8757266998291016,34.004959161393344,2.041424352440646,14.2195272577479,87,20,0.0,15,179162356698017,12,32.3,-484.6653747558594,0.0479000024497509,0,0.0,0.0,,,,,0,,1,0.0,
Raw,3149242,3128642000000,,,-1329526433789543566,0.8757266998291016,34.004959161393344,2.041424352440646,14.2195272577479,87,24,0.0,15,179162354642053,1191,13.3,579.27294921875,5.427500247955322,0,0.0,0.0,,,,,0,,1,0.0,
Raw,3149242,3128642000000,,,-1329526433789543566,0.8757266998291016,34.004959161393344,2.041424352440646,14.2195272577479,87,25,0.0,15,179162359119626,24,25.1,-499.45806884765625,0.41030001640319824,0,0.0,0.0,,,,,0,,1,0.0,
Raw,3149242,3128642000000,,,-1329526433789543566,0.8757266998291016,34.004959161393344,2.041424352440646,14.2195272577479,87,29,0.0,15,179162352361316,11,33.5,-464.5184020996094,0.04090000316500664,0,0.0,0.0,,,,,0,,1,0.0,
Fix,gps,37.427271,-122.170353,-7.198486,0.000000,3.216000,1645494345000
NMEA,$GPGSV,3,1,10,02,81,066,35,06,33,043,37,11,00,000,36,12,78,343,37,1*66
,1645494345010
NMEA,$GPGSV,3,2,10,19,12,068,29,20,33,136,32,24,28,210,13,25,38,313,25,1*6A
,1645494345010
NMEA,$GPGSV,3,3,10,29,20,272,34,05,14,160,,1*6B
,1645494345010
NMEA,$GLGSV,3,1,09,78,78,217,34,77,24,160,17,79,37,323,31,88,61,002,36,1*7D
,1645494345011
NMEA,$GLGSV,3,2,09,87,21,037,28,81,45,257,39,71,00,000,41,82,02,236,,1*7C
,1645494345011
NMEA,$GLGSV,3,3,09,65,02,101,,1*40
,1645494345011
NMEA,$GAGSV,1,1,0,7*43
,1645494345011
NMEA,$PQGSV,1,1,0,0*43
,1645494345011
NMEA,$GBGSV,1,1,0,0*47
,1645494345012
NMEA,$GNGSA,A,3,02,06,12,19,20,25,29,,,,,,1.2,0.9,0.8,1*32
,1645494345015
NMEA,$GNGSA,A,3,78,79,81,87,88,,,,,,,,1.2,0.9,0.8,2*37
,1645494345015
NMEA,$GNVTG,,T,,M,0.0,N,0.0,K,A*3D
,1645494345015
NMEA,$GNGGA,014545.00,3725.636251,N,12210.221204,W,1,12,0.9,20.7,M,-27.9,M,,*7E
,1645494345016
NMEA,$GNRMC,014545.00,A,3725.636251,N,12210.221204,W,0.0,,220222,15.0,E,A,V*5B
,1645494345016
NMEA,$AIDSTAT,0,0,0,2,,23,3*00
,1645494345933
Raw,3150280,3129642000000,,,-1329526433789543570,0.8524131774902344,34.35379039729014,-3.505026980877392,14.265161944481767,87,14,0.0,207,17145367415877,7,37.6,137.59109497070312,0.23109999299049377,0,0.0,0.0,,,,,0,,3,0.0,
Raw,3150280,3129642000000,,,-1329526433789543570,0.8524131774902344,34.35379039729014,-3.505026980877392,14.265161944481767,87,13,0.0,207,17145357515163,193,17.4,772.1522216796875,8.142000198364258,0,0.0,0.0,,,,,0,,3,0.0,
Raw,3150280,3129642000000,,,-1329526433789543570,0.8524131774902344,34.35379039729014,-3.505026980877392,14.265161944481767,87,15,0.0,207,17145361186791,19,27.4,-593.85888671875,0.2428000122308731,0,0.0,0.0,,,,,0,,3,0.0,
Raw,3150280,3129642000000,,,-1329526433789543570,0.8524131774902344,34.35379039729014,-3.505026980877392,14.265161944481767,87,24,0.0,207,17145365635752,7,37.7,299.8851623535156,0.2281000018119812,0,0.0,0.0,,,,,0,,3,0.0,
Raw,3150280,3129642000000,,,-1329526433789543570,0.8524131774902344,34.35379039729014,-3.505026980877392,14.265161944481767,87,23,0.0,207,17145356499439,19,27.7,641.1893310546875,0.2653000056743622,0,0.0,0.0,,,,,0,,3,0.0,
Raw,3150280,3129642000000,,,-1329526433789543570,0.8524131774902344,34.35379039729014,-3.505026980877392,14.265161944481767,87,17,0.0,207,17145363427281,9,35.7,-326.6796875,0.22609999775886536,0,0.0,0.0,,,,,0,,3,0.0,
Raw,3150280,3129642000000,,,-1329526433789543570,0.8524131774902344,34.35379039729014,-3.505026980877392,14.265161944481767,87,7,0.0,207,17145349135988,6,39.6,150.73204040527344,0.23309999704360962,0,0.0,0.0,,,,,0,,3,0.0,
Raw,3150280,3129642000000,,,-1329526433789543570,0.8524131774902344,34.35379039729014,-3.505026980877392,14.265161944481767,87,2,0.0,15,179163362121193,12,32.7,133.19952392578125,0.026900000870227814,0,0.0,0.0,,,,,0,,1,0.0,
Raw,3150280,3129642000000,,,-1329526433789543570,0.8524131774902344,34.35379039729014,-3.505026980877392,14.265161944481767,87,6,0.0,15,179163356358880,6,39.7,561.7191162109375,0.04360000044107437,0,0.0,0.0,,,,,0,,1,0.0,
Raw,3150280,3129642000000,,,-1329526433789543570,0.8524131774902344,34.35379039729014,-3.505026980877392,14.265161944481767,87,12,0.0,15,179163364245452,10,34.6,-100.52861022949219,0.02810000069439411,0,0.0,0.0,,,,,0,,1,0.0,
Raw,3150280,3129642000000,,,-1329526433789543570,0.8524131774902344,34.35379039729014,-3.505026980877392,14.265161944481767,87,19,0.0,15,179163350791272,14,30.0,540.9501953125,0.040800001472234726,0,0.0,0.0,,,,,0,,1,0.0,
Raw,3150281,3129642000000,,,-1329526433789543570,0.8524131774902344,34.35379039729014,-3.505026980877392,14.265161944481767,87,20,0.0,15,179163356699637,7,37.4,-485.10400390625,0.044600002467632294,0,0.0,0.0,,,,,0,,1,0.0,
Raw,3150281,3129642000000,,,-1329526433789543570,0.8524131774902344,34.35379039729014,-3.505026980877392,14.265161944481767,87,24,0.0,15,179163354640121,1228,13.3,579.27294921875,6.927500247955322,0,0.0,0.0,,,,,0,,1,0.0,
Raw,3150281,3129642000000,,,-1329526433789543570,0.8524131774902344,34.35379039729014,-3.505026980877392,14.265161944481767,87,25,0.0,15,179163359121202,27,24.4,-499.73974609375,0.6200000047683716,0,0.0,0.0,,,,,0,,1,0.0,
Raw,3150281,3129642000000,,,-1329526433789543570,0.8524131774902344,34.35379039729014,-3.505026980877392,14.265161944481767,87,29,0.0,15,179163352362861,9,35.9,-464.9078674316406,0.03960000351071358,0,0.0,0.0,,,,,0,,1,0.0,
Fix,gps,37.427269,-122.170355,-7.032166,0.000000,3.216000,1645494346000
NMEA,$GPGSV,3,1,10,02,81,066,33,06,33,043,40,11,00,000,36,12,78,343,35,1*62
,1645494346013
NMEA,$GPGSV,3,2,10,19,12,068,30,20,33,136,37,24,28,210,13,25,38,313,24,1*66
,1645494346013
NMEA,$GPGSV,3,3,10,29,20,272,36,05,14,160,,1*69
,1645494346013
NMEA,$GLGSV,3,1,09,78,78,217,38,77,24,160,17,79,37,323,27,88,61,002,38,1*78
,1645494346013
NMEA,$GLGSV,3,2,09,87,21,037,28,81,45,257,36,71,00,000,40,82,02,236,,1*72
,1645494346013
NMEA,$GLGSV,3,3,09,65,02,101,,1*40
,1645494346013
NMEA,$GAGSV,1,1,0,7*43
,1645494346014
NMEA,$PQGSV,1,1,0,0*43
,1645494346014
NMEA,$GBGSV,1,1,0,0*47
,1645494346015
NMEA,$GNGSA,A,3,02,06,12,19,20,25,29,,,,,,1.2,0.9,0.8,1*32
,1645494346019
NMEA,$GNGSA,A,3,78,79,81,87,88,,,,,,,,1.2,0.9,0.8,2*37
,1645494346019
NMEA,$GNVTG,,T,,M,0.0,N,0.0,K,A*3D
,1645494346020
NMEA,$GNGGA,014546.00,3725.636145,N,12210.221310,W,1,12,0.9,20.9,M,-27.9,M,,*71
,1645494346020
NMEA,$GNRMC,014546.00,A,3725.636145,N,12210.221310,W,0.0,,220222,15.0,E,A,V*5A
,1645494346020
NMEA,$AIDSTAT,0,0,0,2,0,23,3*00
,1645494346934
Raw,3151228,3130642000000,,,-1329526433789543575,0.10056495666503906,30.788516596658155,-4.9437471257852,11.89504350572063,87,14,0.0,207,17146367415416,6,39.6,138.33457946777344,0.23009999096393585,0,0.0,0.0,,,,,0,,3,0.0,
Raw,3151228,3130642000000,,,-1329526433789543575,0.10056495666503906,30.788516596658155,-4.9437471257852,11.89504350572063,87,13,0.0,207,17146357512587,248,17.4,772.1522216796875,9.642000198364258,0,0.0,0.0,,,,,0,,3,0.0,
Raw,3151229,3130642000000,,,-1329526433789543575,0.10056495666503906,30.788516596658155,-4.9437471257852,11.89504350572063,87,15,0.0,207,17146361188729,19,27.8,-593.3347778320312,0.2428000122308731,0,0.0,0.0,,,,,0,,3,0.0,
Raw,3151229,3130642000000,,,-1329526433789543575,0.10056495666503906,30.788516596658155,-4.9437471257852,11.89504350572063,87,24,0.0,207,17146365634770,6,38.8,300.50189208984375,0.22760000824928284,0,0.0,0.0,,,,,0,,3,0.0,
Raw,3151229,3130642000000,,,-1329526433789543575,0.10056495666503906,30.788516596658155,-4.9437471257852,11.89504350572063,87,23,0.0,207,17146356497308,17,28.5,641.72607421875,0.2573000192642212,0,0.0,0.0,,,,,0,,3,0.0,
Raw,3151229,3130642000000,,,-1329526433789543575,0.10056495666503906,30.788516596658155,-4.9437471257852,11.89504350572063,87,17,0.0,207,17146363428376,14,30.9,-326.0377502441406,0.23029999434947968,0,0.0,0.0,,,,,0,,3,0.0,
Raw,3151229,3130642000000,,,-1329526433789543575,0.10056495666503906,30.788516596658155,-4.9437471257852,11.89504350572063,87,7,0.0,207,17146349135485,5,40.6,151.37155151367188,0.232900008559227,0,0.0,0.0,,,,,0,,3,0.0,
Raw,3151229,3130642000000,,,-1329526433789543575,0.10056495666503906,30.788516596658155,-4.9437471257852,11.89504350572063,87,2,0.0,15,179164362120728,9,35.4,133.87782287597656,0.02460000105202198,0,0.0,0.0,,,,,0,,1,0.0,
Raw,3151229,3130642000000,,,-1329526433789543575,0.10056495666503906,30.788516596658155,-4.9437471257852,11.89504350572063,87,6,0.0,15,179164356357005,6,38.9,562.2683715820312,0.04410000145435333,0,0.0,0.0,,,,,0,,1,0.0,
Raw,3151230,3130642000000,,,-1329526433789543575,0.10056495666503906,30.788516596658155,-4.9437471257852,11.89504350572063,87,12,0.0,15,179164364245793,11,33.9,-99.86195373535156,0.02890000119805336,0,0.0,0.0,,,,,0,,1,0.0,
Raw,3151230,3130642000000,,,-1329526433789543575,0.10056495666503906,30.788516596658155,-4.9437471257852,11.89504350572063,87,19,0.0,15,179164350789452,13,31.1,541.3805541992188,0.04020000249147415,0,0.0,0.0,,,,,0,,1,0.0,
Raw,3151230,3130642000000,,,-1329526433789543575,0.10056495666503906,30.788516596658155,-4.9437471257852,11.89504350572063,87,20,0.0,15,179164356701251,6,39.4,-484.4444885253906,0.04360000044107437,0,0.0,0.0,,,,,0,,1,0.0,
Raw,3151230,3130642000000,,,-1329526433789543575,0.10056495666503906,30.788516596658155,-4.9437471257852,11.89504350572063,87,24,0.0,15,179164354638199,1404,12.8,578.4166870117188,7.047500133514404,0,0.0,0.0,,,,,0,,1,0.0,
Raw,3151230,3130642000000,,,-1329526433789543575,0.10056495666503906,30.788516596658155,-4.9437471257852,11.89504350572063,87,25,0.0,15,179164359122830,19,27.2,-499.4675598144531,0.08480000495910645,0,0.0,0.0,,,,,0,,1,0.0,
Raw,3151230,3130642000000,,,-1329526433789543575,0.10056495666503906,30.788516596658155,-4.9437471257852,11.89504350572063,87,29,0.0,15,179164352364398,7,37.6,-464.3541259765625,0.038600001484155655,0,0.0,0.0,,,,,0,,1,0.0,
Fix,gps,37.427267,-122.170357,-6.589478,0.000000,3.216000,1645494347000
NMEA,$GPGSV,3,1,10,02,81,066,35,06,33,043,39,11,00,000,36,12,78,343,34,1*6B
,1645494347010
NMEA,$GPGSV,3,2,10,19,12,068,31,20,33,136,39,24,28,210,13,25,38,313,27,1*6A
,1645494347011
NMEA,$GPGSV,3,3,10,29,20,272,38,05,14,160,,1*67
,1645494347011
NMEA,$GLGSV,3,1,09,78,78,217,40,77,24,160,17,79,37,323,28,88,61,002,39,1*79
,1645494347011
NMEA,$GLGSV,3,2,09,87,21,037,29,81,45,257,31,71,00,000,41,82,02,236,,1*75
,1645494347012
NMEA,$GLGSV,3,3,09,65,02,101,,1*40
,1645494347012
NMEA,$GAGSV,1,1,0,7*43
,1645494347012
NMEA,$PQGSV,1,1,0,0*43
,1645494347013
NMEA,$GBGSV,1,1,0,0*47
,1645494347013
NMEA,$GNGSA,A,3,02,06,12,19,20,25,29,,,,,,1.2,0.9,0.8,1*32
,1645494347020
NMEA,$GNGSA,A,3,78,79,81,87,88,,,,,,,,1.2,0.9,0.8,2*37
,1645494347020
NMEA,$GNVTG,,T,,M,0.0,N,0.0,K,A*3D
,1645494347021
NMEA,$GNGGA,014547.00,3725.636022,N,12210.221419,W,1,12,0.9,21.3,M,-27.9,M,,*75
,1645494347021
NMEA,$GNRMC,014547.00,A,3725.636022,N,12210.221419,W,0.0,,220222,15.0,E,A,V*55
,1645494347021
NMEA,$AIDSTAT,0,0,0,2,4,23,3*00
,1645494347935
Raw,3152225,3131642000000,,,-1329526433789543575,0.10056495666503906,29.518116207327694,-3.372895388611555,11.889878965348217,87,14,0.0,207,17147367414971,6,39.6,138.80975341796875,0.23009999096393585,0,0.0,0.0,,,,,0,,3,0.0,
Raw,3152226,3131642000000,,,-1329526433789543575,0.10056495666503906,29.518116207327694,-3.372895388611555,11.889878965348217,87,13,0.0,207,17147357510012,312,17.4,772.1522216796875,11.142000198364258,0,0.0,0.0,,,,,0,,3,0.0,
Raw,3152226,3131642000000,,,-1329526433789543575,0.10056495666503906,29.518116207327694,-3.372895388611555,11.889878965348217,87,15,0.0,207,17147361190755,19,27.7,-592.9368896484375,0.2428000122308731,0,0.0,0.0,,,,,0,,3,0.0,
Raw,3152226,3131642000000,,,-1329526433789543575,0.10056495666503906,29.518116207327694,-3.372895388611555,11.889878965348217,87,24,0.0,207,17147365633769,6,39.5,300.87567138671875,0.22709999978542328,0,0.0,0.0,,,,,0,,3,0.0,
Raw,3152226,3131642000000,,,-1329526433789543575,0.10056495666503906,29.518116207327694,-3.372895388611555,11.889878965348217,87,23,0.0,207,17147356495147,19,27.4,642.0134887695312,0.2653000056743622,0,0.0,0.0,,,,,0,,3,0.0,
Raw,3152226,3131642000000,,,-1329526433789543575,0.10056495666503906,29.518116207327694,-3.372895388611555,11.889878965348217,87,17,0.0,207,17147363429400,13,31.3,-325.68023681640625,0.2296999990940094,0,0.0,0.0,,,,,0,,3,0.0,
Raw,3152227,3131642000000,,,-1329526433789543575,0.10056495666503906,29.518116207327694,-3.372895388611555,11.889878965348217,87,7,0.0,207,17147349134971,5,40.8,151.79527282714844,0.232900008559227,0,0.0,0.0,,,,,0,,3,0.0,
Raw,3152227,3131642000000,,,-1329526433789543575,0.10056495666503906,29.518116207327694,-3.372895388611555,11.889878965348217,87,2,0.0,15,179165362120269,10,34.8,134.29161071777344,0.025100000202655792,0,0.0,0.0,,,,,0,,1,0.0,
Raw,3152227,3131642000000,,,-1329526433789543575,0.10056495666503906,29.518116207327694,-3.372895388611555,11.889878965348217,87,6,0.0,15,179165356355134,8,36.9,562.6384887695312,0.04520000144839287,0,0.0,0.0,,,,,0,,1,0.0,
Raw,3152227,3131642000000,,,-1329526433789543575,0.10056495666503906,29.518116207327694,-3.372895388611555,11.889878965348217,87,12,0.0,15,179165364246117,11,33.0,-99.43983459472656,0.02890000119805336,0,0.0,0.0,,,,,0,,1,0.0,
Raw,3152228,3131642000000,,,-1329526433789543575,0.10056495666503906,29.518116207327694,-3.372895388611555,11.889878965348217,87,19,0.0,15,179165350787653,14,30.6,541.689453125,0.040800001472234726,0,0.0,0.0,,,,,0,,1,0.0,
Raw,3152228,3131642000000,,,-1329526433789543575,0.10056495666503906,29.518116207327694,-3.372895388611555,11.889878965348217,87,20,0.0,15,179165356702863,6,38.8,-484.0540771484375,0.04410000145435333,0,0.0,0.0,,,,,0,,1,0.0,
Raw,3152229,3131642000000,,,-1329526433789543575,0.10056495666503906,29.518116207327694,-3.372895388611555,11.889878965348217,87,24,0.0,15,179165354636277,1426,12.7,578.654541015625,7.797500133514404,0,0.0,0.0,,,,,0,,1,0.0,
Raw,3152229,3131642000000,,,-1329526433789543575,0.10056495666503906,29.518116207327694,-3.372895388611555,11.889878965348217,87,25,0.0,15,179165359124473,21,26.8,-498.9759826660156,0.15470001101493835,0,0.0,0.0,,,,,0,,1,0.0,
Raw,3152229,3131642000000,,,-1329526433789543575,0.10056495666503906,29.518116207327694,-3.372895388611555,11.889878965348217,87,29,0.0,15,179165352365944,7,37.1,-463.9853515625,0.038600001484155655,0,0.0,0.0,,,,,0,,1,0.0,
Fix,gps,37.427265,-122.170358,-6.207153,0.000000,3.216000,1645494348000
NMEA,$GPGSV,3,1,10,02,81,066,35,06,33,043,37,11,00,000,35,12,78,343,33,1*61
,1645494348005
NMEA,$GPGSV,3,2,10,19,12,068,31,20,33,136,39,24,28,210,13,25,38,313,27,1*6A
,1645494348006
NMEA,$GPGSV,3,3,10,29,20,272,37,05,14,160,,1*68
,1645494348006
NMEA,$GLGSV,3,1,09,78,78,217,40,77,24,160,17,79,37,323,28,88,61,002,40,1*77
,1645494348006
NMEA,$GLGSV,3,2,09,87,21,037,27,81,45,257,31,71,00,000,41,82,02,236,,1*7B
,1645494348006
NMEA,$GLGSV,3,3,09,65,02,101,,1*40
,1645494348006
NMEA,$GAGSV,1,1,0,7*43
,1645494348006
NMEA,$PQGSV,1,1,0,0*43
,1645494348006
NMEA,$GBGSV,1,1,0,0*47
,1645494348007
NMEA,$GNGSA,A,3,02,06,12,19,20,25,29,,,,,,1.2,0.9,0.8,1*32
,1645494348012
NMEA,$GNGSA,A,3,78,79,81,87,88,,,,,,,,1.2,0.9,0.8,2*37
,1645494348012
NMEA,$GNVTG,,T,,M,0.0,N,0.0,K,A*3D
,1645494348012
NMEA,$GNGGA,014548.00,3725.635903,N,12210.221504,W,1,12,0.9,21.7,M,-27.9,M,,*7A
,1645494348012
NMEA,$GNRMC,014548.00,A,3725.635903,N,12210.221504,W,0.0,,220222,15.0,E,A,V*5E
,1645494348013
