# 
# Header Description:
# 
# Version: v2.0.0.1 Platform: 9 Manufacturer: samsung Model: SM-G960U
# 
# Raw,ElapsedRealtimeMillis,TimeNanos,LeapSecond,TimeUncertaintyNanos,FullBiasNanos,BiasNanos,BiasUncertaintyNanos,DriftNanosPerSecond,DriftUncertaintyNanosPerSecond,HardwareClockDiscontinuityCount,Svid,TimeOffsetNanos,State,ReceivedSvTimeNanos,ReceivedSvTimeUncertaintyNanos,Cn0DbHz,PseudorangeRateMetersPerSecond,PseudorangeRateUncertaintyMetersPerSecond,AccumulatedDeltaRangeState,AccumulatedDeltaRangeMeters,AccumulatedDeltaRangeUncertaintyMeters,CarrierFrequencyHz,CarrierCycles,CarrierPhase,CarrierPhaseUncertainty,MultipathIndicator,SnrInDb,ConstellationType,AgcDb,CarrierFrequencyHz
# 
# Fix,Provider,Latitude,Longitude,Altitude,Speed,Accuracy,(UTC)TimeInMs
# 
# Nav,Svid,Type,Status,MessageId,Sub-messageId,Data(Bytes)
# 
NMEA,$AIDSTAT,0,0,0,2,,23,3*00
,1645494386932
Fix,gps,37.427205,-122.170377,-5.548706,0.000000,3.216000,1645494387000
Raw,3191254,3170642000000,,,-1329526433789543612,0.9801502227783203,32.60451921960339,0.9114242709308796,11.840293333654365,87,14,0.0,207,17186367396355,35,22.5,145.77259826660156,0.996999979019165,0,0.0,0.0,,,,,0,,3,0.0,
Raw,3191254,3170642000000,,,-1329526433789543612,0.9801502227783203,32.60451921960339,0.9114242709308796,11.840293333654365,87,13,0.0,207,17186357409431,931,10.4,774.970703125,19.50200080871582,0,0.0,0.0,,,,,0,,3,0.0,
Raw,3191255,3170642000000,,,-1329526433789543612,0.9801502227783203,32.60451921960339,0.9114242709308796,11.840293333654365,87,15,0.0,207,17186361267628,13,31.2,-588.103759765625,0.22670000791549683,0,0.0,0.0,,,,,0,,3,0.0,
Raw,3191255,3170642000000,,,-1329526433789543612,0.9801502227783203,32.60451921960339,0.9114242709308796,11.840293333654365,87,24,0.0,207,17186365594352,10,34.2,304.88623046875,0.22960001230239868,0,0.0,0.0,,,,,0,,3,0.0,
Raw,3191255,3170642000000,,,-1329526433789543612,0.9801502227783203,32.60451921960339,0.9114242709308796,11.840293333654365,87,23,0.0,207,17186356411516,12,32.5,643.1713256835938,0.24790000915527344,0,0.0,0.0,,,,,0,,3,0.0,
Raw,3191255,3170642000000,,,-1329526433789543612,0.9801502227783203,32.60451921960339,0.9114242709308796,11.840293333654365,87,17,0.0,207,17186363471524,6,39.9,-321.08966064453125,0.2240999937057495,0,0.0,0.0,,,,,0,,3,0.0,
Raw,3191255,3170642000000,,,-1329526433789543612,0.9801502227783203,32.60451921960339,0.9114242709308796,11.840293333654365,87,7,0.0,207,17186349114897,8,36.7,158.20272827148438,0.234700009226799,0,0.0,0.0,,,,,0,,3,0.0,
Raw,3191255,3170642000000,,,-1329526433789543612,0.9801502227783203,32.60451921960339,0.9114242709308796,11.840293333654365,87,2,0.0,15,179204362102513,21,26.8,138.82127380371094,0.11420000344514847,0,0.0,0.0,,,,,0,,1,0.0,
Raw,3191255,3170642000000,,,-1329526433789543612,0.9801502227783203,32.60451921960339,0.9114242709308796,11.840293333654365,87,5,0.0,15,179204351085449,563,18.6,-660.1763305664062,1.4429999589920044,0,0.0,0.0,,,,,0,,1,0.0,
Raw,3191255,3170642000000,,,-1329526433789543612,0.9801502227783203,32.60451921960339,0.9114242709308796,11.840293333654365,87,6,0.0,15,179204356281763,10,34.8,565.693115234375,0.04610000178217888,0,0.0,0.0,,,,,0,,1,0.0,
Raw,3191255,3170642000000,,,-1329526433789543612,0.9801502227783203,32.60451921960339,0.9114242709308796,11.840293333654365,87,12,0.0,15,179204364258787,17,28.3,-94.62234497070312,0.03930000215768814,0,0.0,0.0,,,,,0,,1,0.0,
Raw,3191256,3170642000000,,,-1329526433789543612,0.9801502227783203,32.60451921960339,0.9114242709308796,11.840293333654365,87,19,0.0,15,179204350717108,24,25.4,542.9182739257812,0.3968000113964081,0,0.0,0.0,,,,,0,,1,0.0,
Raw,3191256,3170642000000,,,-1329526433789543612,0.9801502227783203,32.60451921960339,0.9114242709308796,11.840293333654365,87,20,0.0,15,179204356765612,14,30.0,-480.4736328125,0.049800001084804535,0,0.0,0.0,,,,,0,,1,0.0,
Raw,3191256,3170642000000,,,-1329526433789543612,0.9801502227783203,32.60451921960339,0.9114242709308796,11.840293333654365,87,24,0.0,15,179204354560974,200,13.5,579.967529296875,6.627500057220459,0,0.0,0.0,,,,,0,,1,0.0,
Raw,3191256,3170642000000,,,-1329526433789543612,0.9801502227783203,32.60451921960339,0.9114242709308796,11.840293333654365,87,25,0.0,15,179204359189266,9,35.0,-495.7432556152344,0.06509999930858612,0,0.0,0.0,,,,,0,,1,0.0,
Raw,3191256,3170642000000,,,-1329526433789543612,0.9801502227783203,32.60451921960339,0.9114242709308796,11.840293333654365,87,29,0.0,15,179204352426199,8,36.5,-462.1108093261719,0.03920000046491623,0,0.0,0.0,,,,,0,,1,0.0,
NMEA,$GPGSV,3,1,10,02,81,066,27,05,14,160,19,06,33,043,35,11,00,000,32,1*60
,1645494387003
NMEA,$GPGSV,3,2,10,12,78,343,28,19,12,068,25,20,33,136,30,24,28,210,14,1*6B
,1645494387003
NMEA,$GPGSV,3,3,10,25,38,313,35,29,20,272,37,1*64
,1645494387003
NMEA,$GLGSV,3,1,09,78,78,217,23,77,24,160,10,79,37,323,31,88,60,004,34,1*79
,1645494387003
NMEA,$GLGSV,3,2,09,87,21,037,33,81,45,257,40,71,00,000,37,82,02,236,,1*79
,1645494387004
NMEA,$GLGSV,3,3,09,65,02,101,,1*40
,1645494387004
NMEA,$GAGSV,1,1,0,7*43
,1645494387004
NMEA,$PQGSV,1,1,0,0*43
,1645494387004
NMEA,$GBGSV,1,1,0,0*47
,1645494387004
NMEA,$GNGSA,A,3,02,06,12,19,20,25,29,,,,,,1.2,0.9,0.8,1*32
,1645494387007
NMEA,$GNGSA,A,3,78,79,81,87,88,,,,,,,,1.2,0.9,0.8,2*37
,1645494387008
NMEA,$GNVTG,,T,,M,0.0,N,0.0,K,A*3D
,1645494387008
NMEA,$GNGGA,014627.00,3725.632316,N,12210.222642,W,1,12,0.9,22.4,M,-27.9,M,,*7B
,1645494387008
NMEA,$GNRMC,014627.00,A,3725.632316,N,12210.222642,W,0.0,,220222,15.0,E,A,V*5F
,1645494387008
NMEA,$AIDSTAT,0,0,0,2,1,23,3*00
,1645494387934
NMEA,$GPGSV,3,1,10,02,81,066,33,05,14,160,19,06,33,043,34,11,00,000,35,1*63
,1645494388009
Raw,3192250,3171642000000,,,-1329526433789543603,0.8314399719238281,31.854087865212932,1.3105594789812065,12.118047627344893,87,14,0.0,207,17187367395984,14,30.4,145.35989379882812,0.6270000338554382,0,0.0,0.0,,,,,0,,3,0.0,
Raw,3192250,3171642000000,,,-1329526433789543603,0.8314399719238281,31.854087865212932,1.3105594789812065,12.118047627344893,87,13,0.0,207,17187357406846,1059,10.4,774.970703125,21.00200080871582,0,0.0,0.0,,,,,0,,3,0.0,
Raw,3192250,3171642000000,,,-1329526433789543603,0.8314399719238281,31.854087865212932,1.3105594789812065,12.118047627344893,87,15,0.0,207,17187361269589,12,32.9,-588.88671875,0.22540001571178436,0,0.0,0.0,,,,,0,,3,0.0,
Raw,3192251,3171642000000,,,-1329526433789543603,0.8314399719238281,31.854087865212932,1.3105594789812065,12.118047627344893,87,24,0.0,207,17187365593353,6,38.7,304.1210021972656,0.22760000824928284,0,0.0,0.0,,,,,0,,3,0.0,
Raw,3192251,3171642000000,,,-1329526433789543603,0.8314399719238281,31.854087865212932,1.3105594789812065,12.118047627344893,87,23,0.0,207,17187356409473,27,24.5,642.3333129882812,0.8904999494552612,0,0.0,0.0,,,,,0,,3,0.0,
Raw,3192251,3171642000000,,,-1329526433789543603,0.8314399719238281,31.854087865212932,1.3105594789812065,12.118047627344893,87,17,0.0,207,17187363472608,6,39.6,-321.791259765625,0.2240999937057495,0,0.0,0.0,,,,,0,,3,0.0,
Raw,3192251,3171642000000,,,-1329526433789543603,0.8314399719238281,31.854087865212932,1.3105594789812065,12.118047627344893,87,7,0.0,207,17187349114373,13,31.9,157.561279296875,0.2387000024318695,0,0.0,0.0,,,,,0,,3,0.0,
Raw,3192251,3171642000000,,,-1329526433789543603,0.8314399719238281,31.854087865212932,1.3105594789812065,12.118047627344893,87,2,0.0,15,179205362102048,12,32.6,138.08596801757812,0.026900000870227814,0,0.0,0.0,,,,,0,,1,0.0,
Raw,3192252,3171642000000,,,-1329526433789543603,0.8314399719238281,31.854087865212932,1.3105594789812065,12.118047627344893,87,5,0.0,15,179205351087669,493,19.4,-661.0326538085938,2.123000144958496,0,0.0,0.0,,,,,0,,1,0.0,
Raw,3192252,3171642000000,,,-1329526433789543603,0.8314399719238281,31.854087865212932,1.3105594789812065,12.118047627344893,87,6,0.0,15,179205356279877,10,34.3,564.85791015625,0.04610000178217888,0,0.0,0.0,,,,,0,,1,0.0,
Raw,3192252,3171642000000,,,-1329526433789543603,0.8314399719238281,31.854087865212932,1.3105594789812065,12.118047627344893,87,12,0.0,15,179205364259110,14,30.4,-95.38404083251953,0.03180000185966492,0,0.0,0.0,,,,,0,,1,0.0,
Raw,3192252,3171642000000,,,-1329526433789543603,0.8314399719238281,31.854087865212932,1.3105594789812065,12.118047627344893,87,19,0.0,15,179205350715265,27,24.8,542.0895385742188,0.5914999842643738,0,0.0,0.0,,,,,0,,1,0.0,
Raw,3192253,3171642000000,,,-1329526433789543603,0.8314399719238281,31.854087865212932,1.3105594789812065,12.118047627344893,87,20,0.0,15,179205356767222,14,30.3,-481.3819885253906,0.049800001084804535,0,0.0,0.0,,,,,0,,1,0.0,
Raw,3192253,3171642000000,,,-1329526433789543603,0.8314399719238281,31.854087865212932,1.3105594789812065,12.118047627344893,87,24,0.0,15,179205354558984,116,14.6,580.0531616210938,2.7775001525878906,0,0.0,0.0,,,,,0,,1,0.0,
Raw,3192253,3171642000000,,,-1329526433789543603,0.8314399719238281,31.854087865212932,1.3105594789812065,12.118047627344893,87,25,0.0,15,179205359190903,9,35.9,-496.5721130371094,0.06509999930858612,0,0.0,0.0,,,,,0,,1,0.0,
Raw,3192254,3171642000000,,,-1329526433789543603,0.8314399719238281,31.854087865212932,1.3105594789812065,12.118047627344893,87,29,0.0,15,179205352427759,7,37.1,-462.9188537597656,0.038600001484155655,0,0.0,0.0,,,,,0,,1,0.0,
NMEA,$GPGSV,3,2,10,12,78,343,30,19,12,068,25,20,33,136,30,24,28,210,15,1*63
,1645494388010
Fix,gps,37.427206,-122.170376,-5.240082,0.000000,3.216000,1645494388000
NMEA,$GPGSV,3,3,10,25,38,313,36,29,20,272,37,1*67
,1645494388010
NMEA,$GLGSV,3,1,09,78,78,217,30,77,24,160,10,79,37,323,33,88,60,004,39,1*74
,1645494388010
NMEA,$GLGSV,3,2,09,87,21,037,25,81,45,257,40,71,00,000,32,82,02,236,,1*7B
,1645494388010
NMEA,$GLGSV,3,3,09,65,02,101,,1*40
,1645494388010
NMEA,$GAGSV,1,1,0,7*43
,1645494388010
NMEA,$PQGSV,1,1,0,0*43
,1645494388010
NMEA,$GBGSV,1,1,0,0*47
,1645494388011
NMEA,$GNGSA,A,3,02,06,12,19,20,25,29,,,,,,1.2,0.9,0.8,1*32
,1645494388014
NMEA,$GNGSA,A,3,78,79,81,87,88,,,,,,,,1.2,0.9,0.8,2*37
,1645494388015
NMEA,$GNVTG,,T,,M,0.0,N,0.0,K,A*3D
,1645494388015
NMEA,$GNGGA,014628.00,3725.632333,N,12210.222586,W,1,12,0.9,22.7,M,-27.9,M,,*7B
,1645494388015
NMEA,$GNRMC,014628.00,A,3725.632333,N,12210.222586,W,0.0,,220222,15.0,E,A,V*5C
,1645494388015
NMEA,$AIDSTAT,0,0,0,2,,23,3*00
,1645494388933
NMEA,$GPGSV,3,1,10,02,81,066,32,05,14,160,20,06,33,043,33,11,00,000,35,1*6F
,1645494389010
NMEA,$GPGSV,3,2,10,12,78,343,32,19,12,068,24,20,33,136,30,24,28,210,15,1*60
,1645494389011
NMEA,$GPGSV,3,3,10,25,38,313,34,29,20,272,37,1*65
,1645494389011
NMEA,$GLGSV,3,1,09,78,78,217,33,77,24,160,10,79,37,323,34,88,60,004,39,1*70
,1645494389011
NMEA,$GLGSV,3,2,09,87,21,037,23,81,45,257,39,71,00,000,30,82,02,236,,1*71
,1645494389011
NMEA,$GLGSV,3,3,09,65,02,101,,1*40
,1645494389012
NMEA,$GAGSV,1,1,0,7*43
,1645494389012
Raw,3193287,3172642000000,,,-1329526433789543610,0.05303382873535156,30.641938792541623,-1.742007460166176,9.68701083432956,87,14,0.0,207,17188367395432,12,32.7,145.4891815185547,0.23440000414848328,0,0.0,0.0,,,,,0,,3,0.0,
Raw,3193287,3172642000000,,,-1329526433789543610,0.05303382873535156,30.641938792541623,-1.742007460166176,9.68701083432956,87,13,0.0,207,17188357404261,1196,10.4,774.970703125,22.50200080871582,0,0.0,0.0,,,,,0,,3,0.0,
Raw,3193287,3172642000000,,,-1329526433789543610,0.05303382873535156,30.641938792541623,-1.742007460166176,9.68701083432956,87,15,0.0,207,17188361271574,11,33.9,-588.9061279296875,0.22440001368522644,0,0.0,0.0,,,,,0,,3,0.0,
Raw,3193287,3172642000000,,,-1329526433789543610,0.05303382873535156,30.641938792541623,-1.742007460166176,9.68701083432956,87,24,0.0,207,17188365592321,6,39.1,304.0405578613281,0.22709999978542328,0,0.0,0.0,,,,,0,,3,0.0,
Raw,3193287,3172642000000,,,-1329526433789543610,0.05303382873535156,30.641938792541623,-1.742007460166176,9.68701083432956,87,23,0.0,207,17188356407178,31,23.3,642.193115234375,0.950499951839447,0,0.0,0.0,,,,,0,,3,0.0,
Raw,3193287,3172642000000,,,-1329526433789543610,0.05303382873535156,30.641938792541623,-1.742007460166176,9.68701083432956,87,17,0.0,207,17188363473674,6,38.9,-321.83197021484375,0.22460000216960907,0,0.0,0.0,,,,,0,,3,0.0,
Raw,3193287,3172642000000,,,-1329526433789543610,0.05303382873535156,30.641938792541623,-1.742007460166176,9.68701083432956,87,7,0.0,207,17188349113888,14,30.1,157.51979064941406,0.23929999768733978,0,0.0,0.0,,,,,0,,3,0.0,
Raw,3193287,3172642000000,,,-1329526433789543610,0.05303382873535156,30.641938792541623,-1.742007460166176,9.68701083432956,87,2,0.0,15,179206362101617,12,32.1,138.10153198242188,0.026900000870227814,0,0.0,0.0,,,,,0,,1,0.0,
Raw,3193287,3172642000000,,,-1329526433789543610,0.05303382873535156,30.641938792541623,-1.742007460166176,9.68701083432956,87,5,0.0,15,179206351089871,500,19.5,-661.1278076171875,2.873000144958496,0,0.0,0.0,,,,,0,,1,0.0,
Raw,3193287,3172642000000,,,-1329526433789543610,0.05303382873535156,30.641938792541623,-1.742007460166176,9.68701083432956,87,6,0.0,15,179206356277986,11,33.3,564.81005859375,0.04690000042319298,0,0.0,0.0,,,,,0,,1,0.0,
Raw,3193287,3172642000000,,,-1329526433789543610,0.05303382873535156,30.641938792541623,-1.742007460166176,9.68701083432956,87,12,0.0,15,179206364259391,12,32.2,-95.33720397949219,0.029900001361966133,0,0.0,0.0,,,,,0,,1,0.0,
Raw,3193288,3172642000000,,,-1329526433789543610,0.05303382873535156,30.641938792541623,-1.742007460166176,9.68701083432956,87,19,0.0,15,179206350713410,27,24.1,541.8327026367188,0.5914999842643738,0,0.0,0.0,,,,,0,,1,0.0,
Raw,3193288,3172642000000,,,-1329526433789543610,0.05303382873535156,30.641938792541623,-1.742007460166176,9.68701083432956,87,20,0.0,15,179206356768828,14,30.2,-481.3331604003906,0.049800001084804535,0,0.0,0.0,,,,,0,,1,0.0,
Raw,3193288,3172642000000,,,-1329526433789543610,0.05303382873535156,30.641938792541623,-1.742007460166176,9.68701083432956,87,24,0.0,15,179206354557049,135,14.6,580.0531616210938,4.277500152587891,0,0.0,0.0,,,,,0,,1,0.0,
Raw,3193288,3172642000000,,,-1329526433789543610,0.05303382873535156,30.641938792541623,-1.742007460166176,9.68701083432956,87,25,0.0,15,179206359192574,11,33.5,-496.57537841796875,0.05140000209212303,0,0.0,0.0,,,,,0,,1,0.0,
Raw,3193288,3172642000000,,,-1329526433789543610,0.05303382873535156,30.641938792541623,-1.742007460166176,9.68701083432956,87,29,0.0,15,179206352429317,8,36.5,-463.0415344238281,0.03920000046491623,0,0.0,0.0,,,,,0,,1,0.0,
Fix,gps,37.427206,-122.170377,-5.623291,0.000000,3.216000,1645494389000
NMEA,$PQGSV,1,1,0,0*43
,1645494389012
NMEA,$GBGSV,1,1,0,0*47
,1645494389012
NMEA,$GNGSA,A,3,02,06,12,19,20,25,29,,,,,,1.2,0.9,0.8,1*32
,1645494389017
NMEA,$GNGSA,A,3,78,79,81,87,88,,,,,,,,1.2,0.9,0.8,2*37
,1645494389017
NMEA,$GNVTG,,T,,M,0.0,N,0.0,K,A*3D
,1645494389017
NMEA,$GNGGA,014629.00,3725.632365,N,12210.222615,W,1,12,0.9,22.3,M,-27.9,M,,*74
,1645494389017
NMEA,$GNRMC,014629.00,A,3725.632365,N,12210.222615,W,0.0,,220222,15.0,E,A,V*57
,1645494389017
NMEA,$AIDSTAT,0,0,0,2,-3,23,3*00
,1645494389934
NMEA,$GPGSV,3,1,10,02,81,066,31,05,14,160,19,06,33,043,31,11,00,000,34,1*65
,1645494390012
NMEA,$GPGSV,3,2,10,12,78,343,34,19,12,068,24,20,33,136,30,24,28,210,17,1*64
,1645494390013
Fix,gps,37.427206,-122.170376,-5.522095,0.000000,3.216000,1645494390000
NMEA,$GPGSV,3,3,10,25,38,313,33,29,20,272,36,1*63
,1645494390019
NMEA,$GLGSV,3,1,09,78,78,217,35,77,24,160,10,79,37,323,32,88,60,004,39,1*70
,1645494390019
NMEA,$GLGSV,3,2,09,87,21,037,23,81,45,257,38,71,00,000,31,82,02,236,,1*71
,1645494390019
NMEA,$GLGSV,3,3,09,65,02,101,,1*40
,1645494390019
NMEA,$GAGSV,1,1,0,7*43
,1645494390020
NMEA,$PQGSV,1,1,0,0*43
,1645494390022
NMEA,$GBGSV,1,1,0,0*47
,1645494390023
NMEA,$GNGSA,A,3,02,06,12,19,20,25,29,,,,,,1.2,0.9,0.8,1*32
,1645494390028
NMEA,$GNGSA,A,3,78,79,81,87,88,,,,,,,,1.2,0.9,0.8,2*37
,1645494390029
NMEA,$GNVTG,,T,,M,0.0,N,0.0,K,A*3D
,1645494390029
NMEA,$GNGGA,014630.00,3725.632330,N,12210.222558,W,1,12,0.9,22.4,M,-27.9,M,,*71
,1645494390029
NMEA,$GNRMC,014630.00,A,3725.632330,N,12210.222558,W,0.0,,220222,15.0,E,A,V*55
,1645494390029
Raw,3194305,3173642000000,,,-1329526433789543614,0.9535923004150391,30.026776585145853,-2.1150496709803956,9.683487749351151,87,14,0.0,207,17189367394971,10,34.6,146.2174072265625,0.23260000348091125,0,0.0,0.0,,,,,0,,3,0.0,
Raw,3194305,3173642000000,,,-1329526433789543614,0.9535923004150391,30.026776585145853,-2.1150496709803956,9.683487749351151,87,13,0.0,207,17189357401676,1344,10.4,774.970703125,24.00200080871582,0,0.0,0.0,,,,,0,,3,0.0,
Raw,3194306,3173642000000,,,-1329526433789543614,0.9535923004150391,30.026776585145853,-2.1150496709803956,9.683487749351151,87,15,0.0,207,17189361273529,13,31.8,-588.1986083984375,0.22670000791549683,0,0.0,0.0,,,,,0,,3,0.0,
Raw,3194306,3173642000000,,,-1329526433789543614,0.9535923004150391,30.026776585145853,-2.1150496709803956,9.683487749351151,87,24,0.0,207,17189365591310,6,39.1,304.6646728515625,0.22709999978542328,0,0.0,0.0,,,,,0,,3,0.0,
Raw,3194306,3173642000000,,,-1329526433789543614,0.9535923004150391,30.026776585145853,-2.1150496709803956,9.683487749351151,87,23,0.0,207,17189356405175,35,22.5,643.1558227539062,1.0104999542236328,0,0.0,0.0,,,,,0,,3,0.0,
Raw,3194306,3173642000000,,,-1329526433789543614,0.9535923004150391,30.026776585145853,-2.1150496709803956,9.683487749351151,87,17,0.0,207,17189363474737,7,37.5,-321.1974182128906,0.22509999573230743,0,0.0,0.0,,,,,0,,3,0.0,
Raw,3194306,3173642000000,,,-1329526433789543614,0.9535923004150391,30.026776585145853,-2.1150496709803956,9.683487749351151,87,7,0.0,207,17189349113371,13,31.4,158.1678009033203,0.2387000024318695,0,0.0,0.0,,,,,0,,3,0.0,
Raw,3194306,3173642000000,,,-1329526433789543614,0.9535923004150391,30.026776585145853,-2.1150496709803956,9.683487749351151,87,2,0.0,15,179207362101193,13,31.1,138.72344970703125,0.028200000524520874,0,0.0,0.0,,,,,0,,1,0.0,
Raw,3194306,3173642000000,,,-1329526433789543614,0.9535923004150391,30.026776585145853,-2.1150496709803956,9.683487749351151,87,5,0.0,15,179207351092084,509,19.3,-661.0040893554688,3.623000144958496,0,0.0,0.0,,,,,0,,1,0.0,
Raw,3194306,3173642000000,,,-1329526433789543614,0.9535923004150391,30.026776585145853,-2.1150496709803956,9.683487749351151,87,6,0.0,15,179207356276106,13,31.3,565.4228515625,0.04920000210404396,0,0.0,0.0,,,,,0,,1,0.0,
Raw,3194306,3173642000000,,,-1329526433789543614,0.9535923004150391,30.026776585145853,-2.1150496709803956,9.683487749351151,87,12,0.0,15,179207364259708,11,33.6,-94.80121612548828,0.02890000119805336,0,0.0,0.0,,,,,0,,1,0.0,
Raw,3194306,3173642000000,,,-1329526433789543614,0.9535923004150391,30.026776585145853,-2.1150496709803956,9.683487749351151,87,19,0.0,15,179207350711640,31,23.8,542.6699829101562,0.6315000057220459,0,0.0,0.0,,,,,0,,1,0.0,
Raw,3194306,3173642000000,,,-1329526433789543614,0.9535923004150391,30.026776585145853,-2.1150496709803956,9.683487749351151,87,20,0.0,15,179207356770462,14,30.3,-480.8756408691406,0.049800001084804535,0,0.0,0.0,,,,,0,,1,0.0,
Raw,3194307,3173642000000,,,-1329526433789543614,0.9535923004150391,30.026776585145853,-2.1150496709803956,9.683487749351151,87,24,0.0,15,179207354555264,73,17.2,581.5374755859375,1.7675000429153442,0,0.0,0.0,,,,,0,,1,0.0,
Raw,3194307,3173642000000,,,-1329526433789543614,0.9535923004150391,30.026776585145853,-2.1150496709803956,9.683487749351151,87,25,0.0,15,179207359194238,11,33.3,-496.0294494628906,0.06640000641345978,0,0.0,0.0,,,,,0,,1,0.0,
Raw,3194307,3173642000000,,,-1329526433789543614,0.9535923004150391,30.026776585145853,-2.1150496709803956,9.683487749351151,87,29,0.0,15,179207352430841,8,36.0,-462.4375305175781,0.03920000046491623,0,0.0,0.0,,,,,0,,1,0.0,
