# 
# Header Description:
# 
# Version: v2.0.0.1 Platform: 9 Manufacturer: samsung Model: SM-G960U
# 
# Raw,ElapsedRealtimeMillis,TimeNanos,LeapSecond,TimeUncertaintyNanos,FullBiasNanos,BiasNanos,BiasUncertaintyNanos,DriftNanosPerSecond,DriftUncertaintyNanosPerSecond,HardwareClockDiscontinuityCount,Svid,TimeOffsetNanos,State,ReceivedSvTimeNanos,ReceivedSvTimeUncertaintyNanos,Cn0DbHz,PseudorangeRateMetersPerSecond,PseudorangeRateUncertaintyMetersPerSecond,AccumulatedDeltaRangeState,AccumulatedDeltaRangeMeters,AccumulatedDeltaRangeUncertaintyMeters,CarrierFrequencyHz,CarrierCycles,CarrierPhase,CarrierPhaseUncertainty,MultipathIndicator,SnrInDb,ConstellationType,AgcDb,CarrierFrequencyHz
# 
# Fix,Provider,Latitude,Longitude,Altitude,Speed,Accuracy,(UTC)TimeInMs
# 
# Nav,Svid,Type,Status,MessageId,Sub-messageId,Data(Bytes)
# 
NMEA,$AIDSTAT,0,0,0,2,1,23,3*00
,1645494420932
Raw,3225222,3204642000000,,,-1329526433789543566,0.2796802520751953,33.51473787915893,0.9222185897597592,14.717505378461222,87,14,0.0,207,17220367379537,93,15.6,152.2071990966797,1.5670000314712524,0,0.0,0.0,,,,,0,,3,0.0,
Raw,3225223,3204642000000,,,-1329526433789543566,0.2796802520751953,33.51473787915893,0.9222185897597592,14.717505378461222,87,15,0.0,207,17220361334128,9,35.6,-584.3067016601562,0.22310000658035278,0,0.0,0.0,,,,,0,,3,0.0,
Raw,3225223,3204642000000,,,-1329526433789543566,0.2796802520751953,33.51473787915893,0.9222185897597592,14.717505378461222,87,1,0.0,207,17220350275125,352,14.3,-581.1070556640625,11.381500244140625,0,0.0,0.0,,,,,0,,3,0.0,
Raw,3225223,3204642000000,,,-1329526433789543566,0.2796802520751953,33.51473787915893,0.9222185897597592,14.717505378461222,87,24,0.0,207,17220365559630,7,37.3,307.95587158203125,0.2281000018119812,0,0.0,0.0,,,,,0,,3,0.0,
Raw,3225223,3204642000000,,,-1329526433789543566,0.2796802520751953,33.51473787915893,0.9222185897597592,14.717505378461222,87,23,0.0,207,17220356338578,10,34.8,643.6591186523438,0.24610000848770142,0,0.0,0.0,,,,,0,,3,0.0,
Raw,3225223,3204642000000,,,-1329526433789543566,0.2796802520751953,33.51473787915893,0.9222185897597592,14.717505378461222,87,17,0.0,207,17220363507605,46,20.9,-317.9285583496094,1.121000051498413,0,0.0,0.0,,,,,0,,3,0.0,
Raw,3225223,3204642000000,,,-1329526433789543566,0.2796802520751953,33.51473787915893,0.9222185897597592,14.717505378461222,87,7,0.0,207,17220349096592,27,24.0,163.53208923339844,0.8799999952316284,0,0.0,0.0,,,,,0,,3,0.0,
Raw,3225223,3204642000000,,,-1329526433789543566,0.2796802520751953,33.51473787915893,0.9222185897597592,14.717505378461222,87,2,0.0,15,179238362086587,11,33.8,142.5002899169922,0.02590000070631504,0,0.0,0.0,,,,,0,,1,0.0,
Raw,3225223,3204642000000,,,-1329526433789543566,0.2796802520751953,33.51473787915893,0.9222185897597592,14.717505378461222,87,6,0.0,15,179238356217519,13,31.2,567.8163452148438,0.04920000210404396,0,0.0,0.0,,,,,0,,1,0.0,
Raw,3225223,3204642000000,,,-1329526433789543566,0.2796802520751953,33.51473787915893,0.9222185897597592,14.717505378461222,87,12,0.0,15,179238364269248,12,32.7,-90.73699951171875,0.029900001361966133,0,0.0,0.0,,,,,0,,1,0.0,
Raw,3225223,3204642000000,,,-1329526433789543566,0.2796802520751953,33.51473787915893,0.9222185897597592,14.717505378461222,87,19,0.0,15,179238350655483,14,30.9,543.505126953125,0.040800001472234726,0,0.0,0.0,,,,,0,,1,0.0,
Raw,3225223,3204642000000,,,-1329526433789543566,0.2796802520751953,33.51473787915893,0.9222185897597592,14.717505378461222,87,24,0.0,15,179238354495111,87,18.4,582.5460205078125,3.937500238418579,0,0.0,0.0,,,,,0,,1,0.0,
Raw,3225223,3204642000000,,,-1329526433789543566,0.2796802520751953,33.51473787915893,0.9222185897597592,14.717505378461222,87,25,0.0,15,179238359245376,6,39.2,-493.24090576171875,0.048100002110004425,0,0.0,0.0,,,,,0,,1,0.0,
Raw,3225224,3204642000000,,,-1329526433789543566,0.2796802520751953,33.51473787915893,0.9222185897597592,14.717505378461222,87,29,0.0,15,179238352478401,49,20.9,-461.0910949707031,1.5544999837875366,0,0.0,0.0,,,,,0,,1,0.0,
Fix,gps,37.427158,-122.170386,-6.203094,0.000000,3.216000,1645494421000
NMEA,$GPGSV,3,1,10,02,80,061,34,06,33,043,31,11,00,000,35,12,79,344,33,1*66
,1645494421004
NMEA,$GPGSV,3,2,10,19,11,068,31,24,28,210,18,25,39,313,39,29,21,272,21,1*6C
,1645494421005
NMEA,$GPGSV,3,3,10,05,14,160,,20,33,136,,1*64
,1645494421005
NMEA,$GLGSV,3,1,09,78,76,215,16,79,37,323,36,65,02,101,14,88,60,004,37,1*73
,1645494421005
NMEA,$GLGSV,3,2,09,87,21,037,35,81,45,258,21,71,00,000,24,82,02,236,,1*75
,1645494421005
NMEA,$GLGSV,3,3,09,77,24,160,,1*40
,1645494421005
NMEA,$GAGSV,1,1,0,7*43
,1645494421005
NMEA,$PQGSV,1,1,0,0*43
,1645494421005
NMEA,$GBGSV,1,1,0,0*47
,1645494421006
NMEA,$GNGSA,A,3,02,06,12,19,25,29,,,,,,,1.7,1.5,0.8,1*38
,1645494421008
NMEA,$GNGSA,A,3,79,81,87,88,,,,,,,,,1.7,1.5,0.8,2*30
,1645494421008
NMEA,$GNVTG,,T,,M,0.0,N,0.0,K,A*3D
,1645494421008
NMEA,$GNGGA,014701.00,3725.629502,N,12210.223150,W,1,10,1.5,21.7,M,-27.9,M,,*7D
,1645494421008
NMEA,$GNRMC,014701.00,A,3725.629502,N,12210.223150,W,0.0,,220222,15.0,E,A,V*56
,1645494421008
NMEA,$AIDSTAT,0,0,0,2,-2,23,3*00
,1645494421936
NMEA,$GPGSV,3,1,10,02,80,061,33,06,33,043,35,11,00,000,35,12,79,344,32,1*64
,1645494422011
NMEA,$GPGSV,3,2,10,19,11,068,28,24,28,210,15,25,39,313,40,29,21,272,21,1*67
,1645494422011
NMEA,$GPGSV,3,3,10,05,14,160,,20,33,136,,1*64
,1645494422012
NMEA,$GLGSV,3,1,09,78,76,215,16,79,37,323,35,65,02,101,14,88,60,004,34,1*73
,1645494422012
NMEA,$GLGSV,3,2,09,87,21,037,33,81,45,258,20,71,00,000,28,82,02,236,,1*7E
,1645494422012
NMEA,$GLGSV,3,3,09,77,24,160,,1*40
,1645494422013
NMEA,$GAGSV,1,1,0,7*43
,1645494422014
NMEA,$PQGSV,1,1,0,0*43
,1645494422014
NMEA,$GBGSV,1,1,0,0*47
,1645494422014
Raw,3226324,3205642000000,,,-1329526433789543564,0.6936683654785156,34.83857653918676,3.0342688668358506,13.224887997974587,87,14,0.0,207,17221367379128,80,16.2,151.58811950683594,1.4670000076293945,0,0.0,0.0,,,,,0,,3,0.0,
Raw,3226324,3205642000000,,,-1329526433789543564,0.6936683654785156,34.83857653918676,3.0342688668358506,13.224887997974587,87,15,0.0,207,17221361336096,10,34.9,-584.5513305664062,0.22360001504421234,0,0.0,0.0,,,,,0,,3,0.0,
Raw,3226325,3205642000000,,,-1329526433789543564,0.6936683654785156,34.83857653918676,3.0342688668358506,13.224887997974587,87,1,0.0,207,17221350277064,428,14.3,-581.1070556640625,12.881500244140625,0,0.0,0.0,,,,,0,,3,0.0,
Raw,3226325,3205642000000,,,-1329526433789543564,0.6936683654785156,34.83857653918676,3.0342688668358506,13.224887997974587,87,24,0.0,207,17221365558596,10,34.4,307.677734375,0.22960001230239868,0,0.0,0.0,,,,,0,,3,0.0,
Raw,3226325,3205642000000,,,-1329526433789543564,0.6936683654785156,34.83857653918676,3.0342688668358506,13.224887997974587,87,23,0.0,207,17221356336429,12,32.8,643.4183959960938,0.24790000915527344,0,0.0,0.0,,,,,0,,3,0.0,
Raw,3226325,3205642000000,,,-1329526433789543564,0.6936683654785156,34.83857653918676,3.0342688668358506,13.224887997974587,87,17,0.0,207,17221363508821,46,20.1,-317.4427185058594,1.121000051498413,0,0.0,0.0,,,,,0,,3,0.0,
Raw,3226325,3205642000000,,,-1329526433789543564,0.6936683654785156,34.83857653918676,3.0342688668358506,13.224887997974587,87,7,0.0,207,17221349096034,17,28.4,163.18301391601562,0.2468000054359436,0,0.0,0.0,,,,,0,,3,0.0,
Raw,3226325,3205642000000,,,-1329526433789543564,0.6936683654785156,34.83857653918676,3.0342688668358506,13.224887997974587,87,2,0.0,15,179239362086090,12,32.5,142.24383544921875,0.026900000870227814,0,0.0,0.0,,,,,0,,1,0.0,
Raw,3226325,3205642000000,,,-1329526433789543564,0.6936683654785156,34.83857653918676,3.0342688668358506,13.224887997974587,87,6,0.0,15,179239356215610,9,35.2,567.64794921875,0.04560000076889992,0,0.0,0.0,,,,,0,,1,0.0,
Raw,3226325,3205642000000,,,-1329526433789543564,0.6936683654785156,34.83857653918676,3.0342688668358506,13.224887997974587,87,12,0.0,15,179239364269518,13,31.9,-91.06747436523438,0.031200001016259193,0,0.0,0.0,,,,,0,,1,0.0,
Raw,3226325,3205642000000,,,-1329526433789543564,0.6936683654785156,34.83857653918676,3.0342688668358506,13.224887997974587,87,19,0.0,15,179239350653685,17,28.3,543.1300659179688,0.04830000177025795,0,0.0,0.0,,,,,0,,1,0.0,
Raw,3226325,3205642000000,,,-1329526433789543564,0.6936683654785156,34.83857653918676,3.0342688668358506,13.224887997974587,87,24,0.0,15,179239354493160,102,15.0,581.7182006835938,2.6875,0,0.0,0.0,,,,,0,,1,0.0,
Raw,3226325,3205642000000,,,-1329526433789543564,0.6936683654785156,34.83857653918676,3.0342688668358506,13.224887997974587,87,25,0.0,15,179239359247013,5,40.2,-493.5325012207031,0.06289999932050705,0,0.0,0.0,,,,,0,,1,0.0,
Raw,3226325,3205642000000,,,-1329526433789543564,0.6936683654785156,34.83857653918676,3.0342688668358506,13.224887997974587,87,29,0.0,15,179239352479939,61,20.9,-461.0910949707031,3.054500102996826,0,0.0,0.0,,,,,0,,1,0.0,
Fix,gps,37.427161,-122.170384,-6.487518,0.000000,3.216000,1645494422000
NMEA,$GNGSA,A,3,02,06,12,19,25,29,,,,,,,1.7,1.5,0.8,1*38
,1645494422024
NMEA,$GNGSA,A,3,79,81,87,88,,,,,,,,,1.7,1.5,0.8,2*30
,1645494422027
NMEA,$GNVTG,,T,,M,0.0,N,0.0,K,A*3D
,1645494422027
NMEA,$GNGGA,014702.00,3725.629673,N,12210.223038,W,1,10,1.5,21.4,M,-27.9,M,,*77
,1645494422028
NMEA,$GNRMC,014702.00,A,3725.629673,N,12210.223038,W,0.0,,220222,15.0,E,A,V*5F
,1645494422028
NMEA,$AIDSTAT,0,0,0,2,,23,3*00
,1645494422934
NMEA,$GPGSV,3,1,10,02,80,061,35,05,14,160,18,06,33,043,38,11,00,000,35,1*6E
,1645494423005
NMEA,$GPGSV,3,2,10,12,79,344,32,19,11,068,31,24,28,210,15,25,39,313,42,1*6E
,1645494423006
NMEA,$GPGSV,3,3,10,29,21,272,21,20,33,136,,1*6F
,1645494423006
NMEA,$GLGSV,3,1,09,78,76,215,16,79,37,323,40,65,02,101,14,88,60,004,38,1*7D
,1645494423014
NMEA,$GLGSV,3,2,09,87,21,037,29,81,45,258,18,71,00,000,26,82,02,236,,1*70
,1645494423018
NMEA,$GLGSV,3,3,09,77,24,160,,1*40
,1645494423018
NMEA,$GAGSV,1,1,0,7*43
,1645494423019
NMEA,$PQGSV,1,1,0,0*43
,1645494423019
NMEA,$GBGSV,1,1,0,0*47
,1645494423019
Raw,3227323,3206642000000,,,-1329526433789543564,0.5446567535400391,39.34643609682098,2.2047272939776357,13.7161332885689,87,14,0.0,207,17222367378622,90,16.2,151.58811950683594,2.9670002460479736,0,0.0,0.0,,,,,0,,3,0.0,
Raw,3227324,3206642000000,,,-1329526433789543564,0.5446567535400391,39.34643609682098,2.2047272939776357,13.7161332885689,87,15,0.0,207,17222361338013,5,40.0,-584.7576293945312,0.2209000140428543,0,0.0,0.0,,,,,0,,3,0.0,
Raw,3227324,3206642000000,,,-1329526433789543564,0.5446567535400391,39.34643609682098,2.2047272939776357,13.7161332885689,87,1,0.0,207,17222350279002,513,14.3,-581.1070556640625,14.381500244140625,0,0.0,0.0,,,,,0,,3,0.0,
Raw,3227324,3206642000000,,,-1329526433789543564,0.5446567535400391,39.34643609682098,2.2047272939776357,13.7161332885689,87,24,0.0,207,17222365557595,7,37.5,307.3779296875,0.2281000018119812,0,0.0,0.0,,,,,0,,3,0.0,
Raw,3227324,3206642000000,,,-1329526433789543564,0.5446567535400391,39.34643609682098,2.2047272939776357,13.7161332885689,87,23,0.0,207,17222356334283,16,29.0,643.0448608398438,0.2506999969482422,0,0.0,0.0,,,,,0,,3,0.0,
Raw,3227324,3206642000000,,,-1329526433789543564,0.5446567535400391,39.34643609682098,2.2047272939776357,13.7161332885689,87,17,0.0,207,17222363509717,70,17.9,-316.9381408691406,1.371000051498413,0,0.0,0.0,,,,,0,,3,0.0,
Raw,3227324,3206642000000,,,-1329526433789543564,0.5446567535400391,39.34643609682098,2.2047272939776357,13.7161332885689,87,7,0.0,207,17222349095545,21,26.1,162.7574920654297,0.3246999979019165,0,0.0,0.0,,,,,0,,3,0.0,
Raw,3227324,3206642000000,,,-1329526433789543564,0.5446567535400391,39.34643609682098,2.2047272939776357,13.7161332885689,87,2,0.0,15,179240362085634,10,34.9,141.9844970703125,0.025100000202655792,0,0.0,0.0,,,,,0,,1,0.0,
Raw,3227324,3206642000000,,,-1329526433789543564,0.5446567535400391,39.34643609682098,2.2047272939776357,13.7161332885689,87,5,0.0,15,179240351164509,567,18.1,-661.3656616210938,2.177999973297119,0,0.0,0.0,,,,,0,,1,0.0,
Raw,3227324,3206642000000,,,-1329526433789543564,0.5446567535400391,39.34643609682098,2.2047272939776357,13.7161332885689,87,6,0.0,15,179240356213706,6,38.0,567.3001098632812,0.04410000145435333,0,0.0,0.0,,,,,0,,1,0.0,
Raw,3227324,3206642000000,,,-1329526433789543564,0.5446567535400391,39.34643609682098,2.2047272939776357,13.7161332885689,87,12,0.0,15,179240364269874,13,31.8,-91.27961730957031,0.031200001016259193,0,0.0,0.0,,,,,0,,1,0.0,
Raw,3227324,3206642000000,,,-1329526433789543564,0.5446567535400391,39.34643609682098,2.2047272939776357,13.7161332885689,87,19,0.0,15,179240350651866,14,30.9,542.8080444335938,0.040800001472234726,0,0.0,0.0,,,,,0,,1,0.0,
Raw,3227324,3206642000000,,,-1329526433789543564,0.5446567535400391,39.34643609682098,2.2047272939776357,13.7161332885689,87,24,0.0,15,179240354491220,121,15.0,581.7182006835938,4.1875,0,0.0,0.0,,,,,0,,1,0.0,
Raw,3227324,3206642000000,,,-1329526433789543564,0.5446567535400391,39.34643609682098,2.2047272939776357,13.7161332885689,87,25,0.0,15,179240359248660,4,42.3,-493.7300720214844,0.047300003468990326,0,0.0,0.0,,,,,0,,1,0.0,
Raw,3227324,3206642000000,,,-1329526433789543564,0.5446567535400391,39.34643609682098,2.2047272939776357,13.7161332885689,87,29,0.0,15,179240352481477,84,20.9,-461.0910949707031,4.554500102996826,0,0.0,0.0,,,,,0,,1,0.0,
Fix,gps,37.427164,-122.170382,-6.363556,0.000000,3.216000,1645494423000
NMEA,$GNGSA,A,3,02,06,12,19,25,29,,,,,,,1.7,1.5,0.8,1*38
,1645494423029
NMEA,$GNGSA,A,3,79,81,87,88,,,,,,,,,1.7,1.5,0.8,2*30
,1645494423031
NMEA,$GNVTG,,T,,M,0.0,N,0.0,K,A*3D
,1645494423031
NMEA,$GNGGA,014703.00,3725.629817,N,12210.222948,W,1,10,1.5,21.6,M,-27.9,M,,*77
,1645494423033
NMEA,$GNRMC,014703.00,A,3725.629817,N,12210.222948,W,0.0,,220222,15.0,E,A,V*5D
,1645494423033
NMEA,$AIDSTAT,0,0,0,2,-2,23,3*00
,1645494423933
NMEA,$GPGSV,3,1,10,02,80,061,35,05,14,160,18,06,33,043,36,11,00,000,34,1*61
,1645494424003
NMEA,$GPGSV,3,2,10,12,79,344,30,19,11,068,29,24,28,210,17,25,39,313,42,1*67
,1645494424004
Raw,3228249,3207642000000,,,-1329526433789543559,0.5216445922851562,38.66908446070738,0.9988190462011398,12.924746606735031,87,14,0.0,207,17223367377904,84,16.4,152.7324676513672,2.2170000076293945,0,0.0,0.0,,,,,0,,3,0.0,
Raw,3228249,3207642000000,,,-1329526433789543559,0.5216445922851562,38.66908446070738,0.9988190462011398,12.924746606735031,87,15,0.0,207,17223361339985,5,40.7,-584.138916015625,0.2209000140428543,0,0.0,0.0,,,,,0,,3,0.0,
Raw,3228249,3207642000000,,,-1329526433789543559,0.5216445922851562,38.66908446070738,0.9988190462011398,12.924746606735031,87,1,0.0,207,17223350280941,608,14.3,-581.1070556640625,15.881501197814941,0,0.0,0.0,,,,,0,,3,0.0,
Raw,3228249,3207642000000,,,-1329526433789543559,0.5216445922851562,38.66908446070738,0.9988190462011398,12.924746606735031,87,24,0.0,207,17223365556561,6,38.0,308.00439453125,0.22760000824928284,0,0.0,0.0,,,,,0,,3,0.0,
Raw,3228249,3207642000000,,,-1329526433789543559,0.5216445922851562,38.66908446070738,0.9988190462011398,12.924746606735031,87,23,0.0,207,17223356332118,17,28.7,643.6204833984375,0.2573000192642212,0,0.0,0.0,,,,,0,,3,0.0,
Raw,3228249,3207642000000,,,-1329526433789543559,0.5216445922851562,38.66908446070738,0.9988190462011398,12.924746606735031,87,17,0.0,207,17223363510938,70,17.5,-317.1343688964844,1.371000051498413,0,0.0,0.0,,,,,0,,3,0.0,
Raw,3228249,3207642000000,,,-1329526433789543559,0.5216445922851562,38.66908446070738,0.9988190462011398,12.924746606735031,87,7,0.0,207,17223349095017,24,25.2,163.6588897705078,0.595300018787384,0,0.0,0.0,,,,,0,,3,0.0,
Raw,3228249,3207642000000,,,-1329526433789543559,0.5216445922851562,38.66908446070738,0.9988190462011398,12.924746606735031,87,2,0.0,15,179241362085151,10,34.7,142.49798583984375,0.025100000202655792,0,0.0,0.0,,,,,0,,1,0.0,
Raw,3228249,3207642000000,,,-1329526433789543559,0.5216445922851562,38.66908446070738,0.9988190462011398,12.924746606735031,87,5,0.0,15,179241351166754,574,18.2,-660.8518676757812,2.927999973297119,0,0.0,0.0,,,,,0,,1,0.0,
Raw,3228249,3207642000000,,,-1329526433789543559,0.5216445922851562,38.66908446070738,0.9988190462011398,12.924746606735031,87,6,0.0,15,179241356211810,9,35.9,567.9449462890625,0.04560000076889992,0,0.0,0.0,,,,,0,,1,0.0,
Raw,3228250,3207642000000,,,-1329526433789543559,0.5216445922851562,38.66908446070738,0.9988190462011398,12.924746606735031,87,12,0.0,15,179241364270222,14,30.4,-90.70613861083984,0.03180000185966492,0,0.0,0.0,,,,,0,,1,0.0,
Raw,3228250,3207642000000,,,-1329526433789543559,0.5216445922851562,38.66908446070738,0.9988190462011398,12.924746606735031,87,19,0.0,15,179241350650089,16,29.2,543.413818359375,0.04170000180602074,0,0.0,0.0,,,,,0,,1,0.0,
Raw,3228250,3207642000000,,,-1329526433789543559,0.5216445922851562,38.66908446070738,0.9988190462011398,12.924746606735031,87,24,0.0,15,179241354489258,73,17.4,581.8038940429688,1.7675000429153442,0,0.0,0.0,,,,,0,,1,0.0,
Raw,3228251,3207642000000,,,-1329526433789543559,0.5216445922851562,38.66908446070738,0.9988190462011398,12.924746606735031,87,25,0.0,15,179241359250311,4,42.1,-493.2574157714844,0.062300004065036774,0,0.0,0.0,,,,,0,,1,0.0,
Raw,3228251,3207642000000,,,-1329526433789543559,0.5216445922851562,38.66908446070738,0.9988190462011398,12.924746606735031,87,29,0.0,15,179241352483029,131,13.2,-461.78564453125,2.874500036239624,0,0.0,0.0,,,,,0,,1,0.0,
Fix,gps,37.427165,-122.170382,-6.370667,0.000000,3.216000,1645494424000
NMEA,$GPGSV,3,3,10,29,21,272,13,20,33,136,,1*6E
,1645494424004
NMEA,$GLGSV,3,1,09,78,76,215,16,79,37,323,41,65,02,101,14,88,60,004,38,1*7C
,1645494424004
NMEA,$GLGSV,3,2,09,87,21,037,29,81,45,258,18,71,00,000,25,82,02,236,,1*73
,1645494424004
NMEA,$GLGSV,3,3,09,77,24,160,,1*40
,1645494424005
NMEA,$GAGSV,1,1,0,7*43
,1645494424005
NMEA,$PQGSV,1,1,0,0*43
,1645494424005
NMEA,$GBGSV,1,1,0,0*47
,1645494424007
NMEA,$GNGSA,A,3,02,06,12,19,25,29,,,,,,,1.7,1.5,0.8,1*38
,1645494424011
NMEA,$GNGSA,A,3,79,81,87,88,,,,,,,,,1.7,1.5,0.8,2*30
,1645494424011
NMEA,$GNVTG,,T,,M,0.0,N,0.0,K,A*3D
,1645494424011
NMEA,$GNGGA,014704.00,3725.629927,N,12210.222900,W,1,10,1.5,21.6,M,-27.9,M,,*7E
,1645494424011
NMEA,$GNRMC,014704.00,A,3725.629927,N,12210.222900,W,0.0,,220222,15.0,E,A,V*54
,1645494424011
NMEA,$AIDSTAT,0,0,0,2,,23,3*00
,1645494424934
NMEA,$GPGSV,3,1,10,02,80,061,38,06,33,043,35,11,00,000,37,12,79,344,34,1*6B
,1645494425007
Raw,3229237,3208642000000,,,-1329526433789543559,0.9984817504882812,40.51137511851266,2.392001130746385,14.588830863035371,87,14,0.0,207,17224367377188,40,21.4,152.17906188964844,1.056999921798706,0,0.0,0.0,,,,,0,,3,0.0,
Raw,3229237,3208642000000,,,-1329526433789543559,0.9984817504882812,40.51137511851266,2.392001130746385,14.588830863035371,87,15,0.0,207,17224361341910,6,39.6,-584.3473510742188,0.22110000252723694,0,0.0,0.0,,,,,0,,3,0.0,
Raw,3229237,3208642000000,,,-1329526433789543559,0.9984817504882812,40.51137511851266,2.392001130746385,14.588830863035371,87,1,0.0,207,17224350282879,714,14.3,-581.1070556640625,17.381500244140625,0,0.0,0.0,,,,,0,,3,0.0,
Raw,3229237,3208642000000,,,-1329526433789543559,0.9984817504882812,40.51137511851266,2.392001130746385,14.588830863035371,87,24,0.0,207,17224365555534,8,36.0,308.11260986328125,0.22870001196861267,0,0.0,0.0,,,,,0,,3,0.0,
Raw,3229237,3208642000000,,,-1329526433789543559,0.9984817504882812,40.51137511851266,2.392001130746385,14.588830863035371,87,23,0.0,207,17224356329989,16,29.2,643.5843505859375,0.2506999969482422,0,0.0,0.0,,,,,0,,3,0.0,
Raw,3229238,3208642000000,,,-1329526433789543559,0.9984817504882812,40.51137511851266,2.392001130746385,14.588830863035371,87,17,0.0,207,17224363511978,53,19.0,-318.3210144042969,1.2010000944137573,0,0.0,0.0,,,,,0,,3,0.0,
Raw,3229238,3208642000000,,,-1329526433789543559,0.9984817504882812,40.51137511851266,2.392001130746385,14.588830863035371,87,7,0.0,207,17224349094478,19,27.7,163.6457061767578,0.254800021648407,0,0.0,0.0,,,,,0,,3,0.0,
Raw,3229238,3208642000000,,,-1329526433789543559,0.9984817504882812,40.51137511851266,2.392001130746385,14.588830863035371,87,2,0.0,15,179242362084665,7,37.9,142.4870147705078,0.023600000888109207,0,0.0,0.0,,,,,0,,1,0.0,
Raw,3229238,3208642000000,,,-1329526433789543559,0.9984817504882812,40.51137511851266,2.392001130746385,14.588830863035371,87,6,0.0,15,179242356209916,9,35.4,567.9419555664062,0.04560000076889992,0,0.0,0.0,,,,,0,,1,0.0,
Raw,3229238,3208642000000,,,-1329526433789543559,0.9984817504882812,40.51137511851266,2.392001130746385,14.588830863035371,87,12,0.0,15,179242364270484,11,33.9,-90.68262481689453,0.02890000119805336,0,0.0,0.0,,,,,0,,1,0.0,
Raw,3229238,3208642000000,,,-1329526433789543559,0.9984817504882812,40.51137511851266,2.392001130746385,14.588830863035371,87,19,0.0,15,179242350648244,31,23.0,543.3931274414062,0.6315000057220459,0,0.0,0.0,,,,,0,,1,0.0,
Raw,3229238,3208642000000,,,-1329526433789543559,0.9984817504882812,40.51137511851266,2.392001130746385,14.588830863035371,87,24,0.0,15,179242354487317,86,17.4,581.8038940429688,3.267500162124634,0,0.0,0.0,,,,,0,,1,0.0,
Raw,3229238,3208642000000,,,-1329526433789543559,0.9984817504882812,40.51137511851266,2.392001130746385,14.588830863035371,87,25,0.0,15,179242359251947,5,41.1,-493.4146728515625,0.047600001096725464,0,0.0,0.0,,,,,0,,1,0.0,
Raw,3229238,3208642000000,,,-1329526433789543559,0.9984817504882812,40.51137511851266,2.392001130746385,14.588830863035371,87,29,0.0,15,179242352484687,31,23.9,-461.1195983886719,0.6345000267028809,0,0.0,0.0,,,,,0,,1,0.0,
NMEA,$GPGSV,3,2,10,19,11,068,23,24,28,210,17,25,39,313,41,29,21,272,24,1*6A
,1645494425008
NMEA,$GPGSV,3,3,10,05,14,160,,20,33,136,,1*64
,1645494425008
NMEA,$GLGSV,3,1,09,78,76,215,21,79,37,323,40,65,02,101,14,88,60,004,36,1*77
,1645494425009
NMEA,$GLGSV,3,2,09,87,21,037,29,81,45,258,19,71,00,000,28,82,02,236,,1*7F
,1645494425010
NMEA,$GLGSV,3,3,09,77,24,160,,1*40
,1645494425010
NMEA,$GAGSV,1,1,0,7*43
,1645494425010
NMEA,$PQGSV,1,1,0,0*43
,1645494425014
NMEA,$GBGSV,1,1,0,0*47
,1645494425017
Fix,gps,37.427166,-122.170382,-6.388428,0.180000,3.216000,1645494425000
NMEA,$GNGSA,A,3,02,06,12,19,25,29,,,,,,,1.5,1.3,0.8,1*3C
,1645494425026
NMEA,$GNGSA,A,3,78,79,81,87,88,,,,,,,,1.5,1.3,0.8,2*3B
,1645494425026
NMEA,$GNVTG,214.8,T,214.8,M,0.3,N,0.6,K,A*38
,1645494425027
NMEA,$GNGGA,014705.00,3725.629988,N,12210.222903,W,1,11,1.3,21.5,M,-27.9,M,,*7D
,1645494425027
NMEA,$GNRMC,014705.00,A,3725.629988,N,12210.222903,W,0.3,214.8,220222,15.0,E,A,V*71
,1645494425027
NMEA,$AIDSTAT,0,0,0,2,6,23,3*00
,1645494425940
Raw,3230238,3209642000000,,,-1329526433789543551,0.15103912353515625,44.696316763293,1.9743264832759602,16.314213616844913,87,14,0.0,207,17225367376681,49,21.4,152.17906188964844,2.557000160217285,0,0.0,0.0,,,,,0,,3,0.0,
Raw,3230239,3209642000000,,,-1329526433789543551,0.15103912353515625,44.696316763293,1.9743264832759602,16.314213616844913,87,15,0.0,207,17225361343874,6,38.0,-583.770263671875,0.2216000109910965,0,0.0,0.0,,,,,0,,3,0.0,
Raw,3230239,3209642000000,,,-1329526433789543551,0.15103912353515625,44.696316763293,1.9743264832759602,16.314213616844913,87,1,0.0,207,17225350284817,829,14.3,-581.1070556640625,18.881500244140625,0,0.0,0.0,,,,,0,,3,0.0,
Raw,3230242,3209642000000,,,-1329526433789543551,0.15103912353515625,44.696316763293,1.9743264832759602,16.314213616844913,87,24,0.0,207,17225365554481,9,35.9,308.4136962890625,0.22910000383853912,0,0.0,0.0,,,,,0,,3,0.0,
Raw,3230242,3209642000000,,,-1329526433789543551,0.15103912353515625,44.696316763293,1.9743264832759602,16.314213616844913,87,23,0.0,207,17225356327908,17,28.9,643.6793212890625,0.2573000192642212,0,0.0,0.0,,,,,0,,3,0.0,
Raw,3230242,3209642000000,,,-1329526433789543551,0.15103912353515625,44.696316763293,1.9743264832759602,16.314213616844913,87,17,0.0,207,17225363513101,70,17.9,-315.7982177734375,1.371000051498413,0,0.0,0.0,,,,,0,,3,0.0,
Raw,3230243,3209642000000,,,-1329526433789543551,0.15103912353515625,44.696316763293,1.9743264832759602,16.314213616844913,87,7,0.0,207,17225349093813,19,27.2,164.26144409179688,0.254800021648407,0,0.0,0.0,,,,,0,,3,0.0,
Raw,3230243,3209642000000,,,-1329526433789543551,0.15103912353515625,44.696316763293,1.9743264832759602,16.314213616844913,87,2,0.0,15,179243362084216,11,33.8,143.01217651367188,0.02590000070631504,0,0.0,0.0,,,,,0,,1,0.0,
Raw,3230243,3209642000000,,,-1329526433789543551,0.15103912353515625,44.696316763293,1.9743264832759602,16.314213616844913,87,6,0.0,15,179243356208035,11,33.7,568.119384765625,0.04690000042319298,0,0.0,0.0,,,,,0,,1,0.0,
Raw,3230243,3209642000000,,,-1329526433789543551,0.15103912353515625,44.696316763293,1.9743264832759602,16.314213616844913,87,12,0.0,15,179243364270815,10,34.0,-90.1984634399414,0.02810000069439411,0,0.0,0.0,,,,,0,,1,0.0,
Raw,3230244,3209642000000,,,-1329526433789543551,0.15103912353515625,44.696316763293,1.9743264832759602,16.314213616844913,87,19,0.0,15,179243350646470,21,26.4,543.773681640625,0.5115000009536743,0,0.0,0.0,,,,,0,,1,0.0,
Raw,3230244,3209642000000,,,-1329526433789543551,0.15103912353515625,44.696316763293,1.9743264832759602,16.314213616844913,87,24,0.0,15,179243354485377,110,17.4,581.8038940429688,4.767500400543213,0,0.0,0.0,,,,,0,,1,0.0,
Raw,3230245,3209642000000,,,-1329526433789543551,0.15103912353515625,44.696316763293,1.9743264832759602,16.314213616844913,87,25,0.0,15,179243359253590,5,40.5,-492.84716796875,0.0479000024497509,0,0.0,0.0,,,,,0,,1,0.0,
Raw,3230245,3209642000000,,,-1329526433789543551,0.15103912353515625,44.696316763293,1.9743264832759602,16.314213616844913,87,29,0.0,15,179243352486294,61,18.3,-459.8066101074219,0.934499979019165,0,0.0,0.0,,,,,0,,1,0.0,
Fix,gps,37.427167,-122.170380,-6.490570,0.000000,3.216000,1645494426000
NMEA,$GPGSV,3,1,10,02,80,061,34,06,33,043,34,11,00,000,35,12,79,344,34,1*64
,1645494426013
NMEA,$GPGSV,3,2,10,19,11,068,26,24,28,210,17,25,39,313,41,29,21,272,18,1*60
,1645494426013
NMEA,$GPGSV,3,3,10,05,14,160,,20,33,136,,1*64
,1645494426013
NMEA,$GLGSV,3,1,09,78,76,215,21,79,37,323,38,65,02,101,14,88,60,004,36,1*78
,1645494426013
NMEA,$GLGSV,3,2,09,87,21,037,29,81,45,258,18,71,00,000,27,82,02,236,,1*71
,1645494426013
NMEA,$GLGSV,3,3,09,77,24,160,,1*40
,1645494426014
NMEA,$GAGSV,1,1,0,7*43
,1645494426014
NMEA,$PQGSV,1,1,0,0*43
,1645494426014
NMEA,$GBGSV,1,1,0,0*47
,1645494426014
NMEA,$GNGSA,A,3,02,06,12,19,25,29,,,,,,,1.5,1.3,0.8,1*3C
,1645494426016
NMEA,$GNGSA,A,3,78,79,81,87,88,,,,,,,,1.5,1.3,0.8,2*3B
,1645494426017
NMEA,$GNVTG,,T,,M,0.0,N,0.0,K,A*3D
,1645494426017
NMEA,$GNGGA,014706.00,3725.630048,N,12210.222777,W,1,11,1.3,21.4,M,-27.9,M,,*7F
,1645494426017
NMEA,$GNRMC,014706.00,A,3725.630048,N,12210.222777,W,0.0,,220222,15.0,E,A,V*50
,1645494426017
