# 
# Header Description:
# 
# Version: v2.0.0.1 Platform: 9 Manufacturer: samsung Model: SM-G960U
# 
# Raw,ElapsedRealtimeMillis,TimeNanos,LeapSecond,TimeUncertaintyNanos,FullBiasNanos,BiasNanos,BiasUncertaintyNanos,DriftNanosPerSecond,DriftUncertaintyNanosPerSecond,HardwareClockDiscontinuityCount,Svid,TimeOffsetNanos,State,ReceivedSvTimeNanos,ReceivedSvTimeUncertaintyNanos,Cn0DbHz,PseudorangeRateMetersPerSecond,PseudorangeRateUncertaintyMetersPerSecond,AccumulatedDeltaRangeState,AccumulatedDeltaRangeMeters,AccumulatedDeltaRangeUncertaintyMeters,CarrierFrequencyHz,CarrierCycles,CarrierPhase,CarrierPhaseUncertainty,MultipathIndicator,SnrInDb,ConstellationType,AgcDb,CarrierFrequencyHz
# 
# Fix,Provider,Latitude,Longitude,Altitude,Speed,Accuracy,(UTC)TimeInMs
# 
# Nav,Svid,Type,Status,MessageId,Sub-messageId,Data(Bytes)
# 
NMEA,$AIDSTAT,0,0,0,2,2,23,3*00
,1645494535933
NMEA,$GPGSV,3,1,10,02,80,059,37,05,15,160,34,06,32,043,29,11,00,000,37,1*6B
,1645494536004
NMEA,$GPGSV,3,2,10,12,80,345,37,19,11,070,30,20,34,136,35,24,28,209,37,1*61
,1645494536004
NMEA,$GPGSV,3,3,10,25,40,313,30,29,21,274,40,1*69
,1645494536004
NMEA,$GLGSV,3,1,09,78,75,210,36,77,23,160,25,79,37,323,38,65,02,101,13,1*79
,1645494536004
NMEA,$GLGSV,3,2,09,88,59,005,32,87,20,037,23,81,46,260,35,71,00,000,16,1*78
,1645494536004
NMEA,$GLGSV,3,3,09,82,02,236,,1*4E
,1645494536004
NMEA,$GAGSV,1,1,0,7*43
,1645494536005
NMEA,$PQGSV,1,1,0,0*43
,1645494536005
NMEA,$GBGSV,1,1,0,0*47
,1645494536005
Raw,3340280,3319642000000,,,-1329526433789543139,0.07873916625976562,28.146649128757417,-1.4662176044626216,10.999764785683745,87,14,0.0,207,17335367317512,8,36.2,169.82916259765625,0.23170000314712524,0,0.0,0.0,,,,,0,,3,0.0,
Raw,3340280,3319642000000,,,-1329526433789543139,0.07873916625976562,28.146649128757417,-1.4662176044626216,10.999764785683745,87,13,0.0,207,17335357021325,27,24.6,783.6786499023438,0.8919999599456787,0,0.0,0.0,,,,,0,,3,0.0,
Raw,3340280,3319642000000,,,-1329526433789543139,0.07873916625976562,28.146649128757417,-1.4662176044626216,10.999764785683745,87,15,0.0,207,17335361556040,6,38.3,-573.669189453125,0.2216000109910965,0,0.0,0.0,,,,,0,,3,0.0,
Raw,3340280,3319642000000,,,-1329526433789543139,0.07873916625976562,28.146649128757417,-1.4662176044626216,10.999764785683745,87,1,0.0,207,17335350497406,359,12.8,-578.2354736328125,10.941500663757324,0,0.0,0.0,,,,,0,,3,0.0,
Raw,3340280,3319642000000,,,-1329526433789543139,0.07873916625976562,28.146649128757417,-1.4662176044626216,10.999764785683745,87,24,0.0,207,17335365439935,13,31.6,315.50445556640625,0.23270000517368317,0,0.0,0.0,,,,,0,,3,0.0,
Raw,3340280,3319642000000,,,-1329526433789543139,0.07873916625976562,28.146649128757417,-1.4662176044626216,10.999764785683745,87,23,0.0,207,17335356091610,35,22.8,642.6417236328125,1.0104999542236328,0,0.0,0.0,,,,,0,,3,0.0,
Raw,3340280,3319642000000,,,-1329526433789543139,0.07873916625976562,28.146649128757417,-1.4662176044626216,10.999764785683745,87,17,0.0,207,17335363627397,9,35.0,-307.8161315917969,0.22609999775886536,0,0.0,0.0,,,,,0,,3,0.0,
Raw,3340280,3319642000000,,,-1329526433789543139,0.07873916625976562,28.146649128757417,-1.4662176044626216,10.999764785683745,87,7,0.0,207,17335349031016,99,16.1,178.06578063964844,3.7200002670288086,0,0.0,0.0,,,,,0,,3,0.0,
Raw,3340280,3319642000000,,,-1329526433789543139,0.07873916625976562,28.146649128757417,-1.4662176044626216,10.999764785683745,87,2,0.0,15,179353362029895,7,37.3,151.833984375,0.023600000888109207,0,0.0,0.0,,,,,0,,1,0.0,
Raw,3340281,3319642000000,,,-1329526433789543139,0.07873916625976562,28.146649128757417,-1.4662176044626216,10.999764785683745,87,5,0.0,15,179353351413615,10,34.1,-660.7169189453125,0.038600001484155655,0,0.0,0.0,,,,,0,,1,0.0,
Raw,3340281,3319642000000,,,-1329526433789543139,0.07873916625976562,28.146649128757417,-1.4662176044626216,10.999764785683745,87,6,0.0,15,179353355998469,17,28.6,572.7523803710938,0.055800002068281174,0,0.0,0.0,,,,,0,,1,0.0,
Raw,3340281,3319642000000,,,-1329526433789543139,0.07873916625976562,28.146649128757417,-1.4662176044626216,10.999764785683745,87,12,0.0,15,179353364301891,7,37.1,-80.42707824707031,0.026600001379847527,0,0.0,0.0,,,,,0,,1,0.0,
Raw,3340281,3319642000000,,,-1329526433789543139,0.07873916625976562,28.146649128757417,-1.4662176044626216,10.999764785683745,87,19,0.0,15,179353350446842,16,29.5,543.0140380859375,0.04170000180602074,0,0.0,0.0,,,,,0,,1,0.0,
Raw,3340281,3319642000000,,,-1329526433789543139,0.07873916625976562,28.146649128757417,-1.4662176044626216,10.999764785683745,87,20,0.0,15,179353357001743,9,35.4,-471.2532043457031,0.0471000038087368,0,0.0,0.0,,,,,0,,1,0.0,
Raw,3340281,3319642000000,,,-1329526433789543139,0.07873916625976562,28.146649128757417,-1.4662176044626216,10.999764785683745,87,24,0.0,15,179353354271017,8,36.6,585.1256713867188,0.0422000028192997,0,0.0,0.0,,,,,0,,1,0.0,
Raw,3340281,3319642000000,,,-1329526433789543139,0.07873916625976562,28.146649128757417,-1.4662176044626216,10.999764785683745,87,25,0.0,15,179353359433211,16,29.8,-487.27630615234375,0.0552000030875206,0,0.0,0.0,,,,,0,,1,0.0,
Raw,3340281,3319642000000,,,-1329526433789543139,0.07873916625976562,28.146649128757417,-1.4662176044626216,10.999764785683745,87,29,0.0,15,179353352654725,6,39.6,-458.9946594238281,0.03760000318288803,0,0.0,0.0,,,,,0,,1,0.0,
Fix,gps,37.427488,-122.170263,-4.792114,0.000000,3.216000,1645494536000
NMEA,$GNGSA,A,3,02,06,12,19,20,24,25,29,,,,,1.1,0.8,0.8,1*36
,1645494536010
NMEA,$GNGSA,A,3,78,79,81,87,88,,,,,,,,1.1,0.8,0.8,2*35
,1645494536011
NMEA,$GNVTG,,T,,M,0.0,N,0.0,K,A*3D
,1645494536011
NMEA,$GNGGA,014856.00,3725.649274,N,12210.215765,W,1,12,0.8,23.1,M,-27.9,M,,*7F
,1645494536011
NMEA,$GNRMC,014856.00,A,3725.649274,N,12210.215765,W,0.0,,220222,15.0,E,A,V*5E
,1645494536011
NMEA,$AIDSTAT,0,0,0,2,-2,23,3*00
,1645494536933
Raw,3341242,3320642000000,,,-1329526433789543140,0.9297275543212891,29.486080165952444,0.2316435580517412,11.019775590249594,87,14,0.0,207,17336367316957,8,36.3,170.90232849121094,0.23170000314712524,0,0.0,0.0,,,,,0,,3,0.0,
Raw,3341242,3320642000000,,,-1329526433789543140,0.9297275543212891,29.486080165952444,0.2316435580517412,11.019775590249594,87,13,0.0,207,17336357018685,27,24.1,784.69921875,0.8919999599456787,0,0.0,0.0,,,,,0,,3,0.0,
Raw,3341242,3320642000000,,,-1329526433789543140,0.9297275543212891,29.486080165952444,0.2316435580517412,11.019775590249594,87,15,0.0,207,17336361557913,8,36.1,-572.6843872070312,0.22270001471042633,0,0.0,0.0,,,,,0,,3,0.0,
Raw,3341242,3320642000000,,,-1329526433789543140,0.9297275543212891,29.486080165952444,0.2316435580517412,11.019775590249594,87,1,0.0,207,17336350500223,112,15.4,-580.5084228515625,3.821500301361084,0,0.0,0.0,,,,,0,,3,0.0,
Raw,3341243,3320642000000,,,-1329526433789543140,0.9297275543212891,29.486080165952444,0.2316435580517412,11.019775590249594,87,24,0.0,207,17336365438792,8,36.1,316.5180358886719,0.22870001196861267,0,0.0,0.0,,,,,0,,3,0.0,
Raw,3341243,3320642000000,,,-1329526433789543140,0.9297275543212891,29.486080165952444,0.2316435580517412,11.019775590249594,87,23,0.0,207,17336356089508,40,21.3,644.1092529296875,1.0705000162124634,0,0.0,0.0,,,,,0,,3,0.0,
Raw,3341243,3320642000000,,,-1329526433789543140,0.9297275543212891,29.486080165952444,0.2316435580517412,11.019775590249594,87,17,0.0,207,17336363628383,12,32.6,-306.8403625488281,0.22840000689029694,0,0.0,0.0,,,,,0,,3,0.0,
Raw,3341243,3320642000000,,,-1329526433789543140,0.9297275543212891,29.486080165952444,0.2316435580517412,11.019775590249594,87,7,0.0,207,17336349030112,64,18.7,178.8223419189453,2.0399999618530273,0,0.0,0.0,,,,,0,,3,0.0,
Raw,3341244,3320642000000,,,-1329526433789543140,0.9297275543212891,29.486080165952444,0.2316435580517412,11.019775590249594,87,2,0.0,15,179354362029393,8,36.5,152.88006591796875,0.02420000173151493,0,0.0,0.0,,,,,0,,1,0.0,
Raw,3341244,3320642000000,,,-1329526433789543140,0.9297275543212891,29.486080165952444,0.2316435580517412,11.019775590249594,87,5,0.0,15,179354351415776,11,33.8,-659.81640625,0.039400000125169754,0,0.0,0.0,,,,,0,,1,0.0,
Raw,3341244,3320642000000,,,-1329526433789543140,0.9297275543212891,29.486080165952444,0.2316435580517412,11.019775590249594,87,6,0.0,15,179354355996525,31,23.9,573.0693969726562,0.6389999985694885,0,0.0,0.0,,,,,0,,1,0.0,
Raw,3341245,3320642000000,,,-1329526433789543140,0.9297275543212891,29.486080165952444,0.2316435580517412,11.019775590249594,87,12,0.0,15,179354364302160,6,38.3,-79.37109375,0.026100000366568565,0,0.0,0.0,,,,,0,,1,0.0,
Raw,3341245,3320642000000,,,-1329526433789543140,0.9297275543212891,29.486080165952444,0.2316435580517412,11.019775590249594,87,19,0.0,15,179354350445051,17,28.8,543.9706420898438,0.04830000177025795,0,0.0,0.0,,,,,0,,1,0.0,
Raw,3341245,3320642000000,,,-1329526433789543140,0.9297275543212891,29.486080165952444,0.2316435580517412,11.019775590249594,87,20,0.0,15,179354357003333,8,36.8,-470.2178955078125,0.04670000076293945,0,0.0,0.0,,,,,0,,1,0.0,
Raw,3341245,3320642000000,,,-1329526433789543140,0.9297275543212891,29.486080165952444,0.2316435580517412,11.019775590249594,87,24,0.0,15,179354354269052,16,29.3,586.02783203125,0.047700002789497375,0,0.0,0.0,,,,,0,,1,0.0,
Raw,3341246,3320642000000,,,-1329526433789543140,0.9297275543212891,29.486080165952444,0.2316435580517412,11.019775590249594,87,25,0.0,15,179354359434853,13,31.3,-486.4167175292969,0.06870000064373016,0,0.0,0.0,,,,,0,,1,0.0,
Raw,3341246,3320642000000,,,-1329526433789543140,0.9297275543212891,29.486080165952444,0.2316435580517412,11.019775590249594,87,29,0.0,15,179354352656246,6,38.6,-458.1788330078125,0.038100000470876694,0,0.0,0.0,,,,,0,,1,0.0,
NMEA,$GPGSV,3,1,10,02,80,059,37,05,15,160,34,06,32,043,24,11,00,000,38,1*69
,1645494537008
NMEA,$GPGSV,3,2,10,12,80,345,38,19,11,070,29,20,34,136,37,24,28,209,29,1*6B
,1645494537008
NMEA,$GPGSV,3,3,10,25,40,313,31,29,21,274,39,1*66
,1645494537009
NMEA,$GLGSV,3,1,09,78,75,210,36,77,23,160,24,79,37,323,36,65,02,101,15,1*70
,1645494537009
NMEA,$GLGSV,3,2,09,88,59,005,36,87,20,037,21,81,46,260,33,71,00,000,19,1*77
,1645494537009
NMEA,$GLGSV,3,3,09,82,02,236,,1*4E
,1645494537009
NMEA,$GAGSV,1,1,0,7*43
,1645494537011
NMEA,$PQGSV,1,1,0,0*43
,1645494537012
NMEA,$GBGSV,1,1,0,0*47
,1645494537012
Fix,gps,37.427486,-122.170263,-4.782776,0.000000,3.216000,1645494537000
NMEA,$GNGSA,A,3,02,06,12,19,20,24,25,29,,,,,1.1,0.8,0.8,1*36
,1645494537030
NMEA,$GNGSA,A,3,78,79,81,87,88,,,,,,,,1.1,0.8,0.8,2*35
,1645494537030
NMEA,$GNVTG,,T,,M,0.0,N,0.0,K,A*3D
,1645494537030
NMEA,$GNGGA,014857.00,3725.649179,N,12210.215796,W,1,12,0.8,23.2,M,-27.9,M,,*7F
,1645494537030
NMEA,$GNRMC,014857.00,A,3725.649179,N,12210.215796,W,0.0,,220222,15.0,E,A,V*5D
,1645494537030
NMEA,$AIDSTAT,0,0,0,2,,23,3*00
,1645494537932
NMEA,$GPGSV,3,1,10,02,80,059,35,05,15,160,32,06,32,043,19,11,00,000,37,1*6C
,1645494538004
NMEA,$GPGSV,3,2,10,12,80,345,37,19,11,070,25,20,34,136,35,24,28,209,32,1*60
,1645494538004
NMEA,$GPGSV,3,3,10,25,40,313,30,29,21,274,40,1*69
,1645494538004
Raw,3342276,3321642000000,,,-1329526433789543136,0.17818069458007812,31.462288461625576,2.6671103272273897,10.142501981705072,87,14,0.0,207,17337367316359,6,38.3,171.25498962402344,0.2305999994277954,0,0.0,0.0,,,,,0,,3,0.0,
Raw,3342276,3321642000000,,,-1329526433789543136,0.17818069458007812,31.462288461625576,2.6671103272273897,10.142501981705072,87,13,0.0,207,17337357016123,31,23.9,784.7086181640625,0.9519999623298645,0,0.0,0.0,,,,,0,,3,0.0,
Raw,3342276,3321642000000,,,-1329526433789543136,0.17818069458007812,31.462288461625576,2.6671103272273897,10.142501981705072,87,15,0.0,207,17337361559837,7,37.6,-572.3963012695312,0.22210000455379486,0,0.0,0.0,,,,,0,,3,0.0,
Raw,3342276,3321642000000,,,-1329526433789543136,0.17818069458007812,31.462288461625576,2.6671103272273897,10.142501981705072,87,1,0.0,207,17337350502160,137,15.4,-580.5084228515625,5.321500301361084,0,0.0,0.0,,,,,0,,3,0.0,
Raw,3342276,3321642000000,,,-1329526433789543136,0.17818069458007812,31.462288461625576,2.6671103272273897,10.142501981705072,87,24,0.0,207,17337365437708,6,38.1,316.78070068359375,0.22760000824928284,0,0.0,0.0,,,,,0,,3,0.0,
Raw,3342276,3321642000000,,,-1329526433789543136,0.17818069458007812,31.462288461625576,2.6671103272273897,10.142501981705072,87,23,0.0,207,17337356087266,19,27.7,644.2548828125,0.2653000056743622,0,0.0,0.0,,,,,0,,3,0.0,
Raw,3342277,3321642000000,,,-1329526433789543136,0.17818069458007812,31.462288461625576,2.6671103272273897,10.142501981705072,87,17,0.0,207,17337363629447,14,30.9,-306.50128173828125,0.23029999434947968,0,0.0,0.0,,,,,0,,3,0.0,
Raw,3342277,3321642000000,,,-1329526433789543136,0.17818069458007812,31.462288461625576,2.6671103272273897,10.142501981705072,87,7,0.0,207,17337349029833,61,18.3,179.78440856933594,1.2899999618530273,0,0.0,0.0,,,,,0,,3,0.0,
Raw,3342277,3321642000000,,,-1329526433789543136,0.17818069458007812,31.462288461625576,2.6671103272273897,10.142501981705072,87,2,0.0,15,179355362028902,9,35.0,153.16244506835938,0.02460000105202198,0,0.0,0.0,,,,,0,,1,0.0,
Raw,3342277,3321642000000,,,-1329526433789543136,0.17818069458007812,31.462288461625576,2.6671103272273897,10.142501981705072,87,5,0.0,15,179355351417976,12,32.2,-659.6465454101562,0.040400002151727676,0,0.0,0.0,,,,,0,,1,0.0,
Raw,3342277,3321642000000,,,-1329526433789543136,0.17818069458007812,31.462288461625576,2.6671103272273897,10.142501981705072,87,6,0.0,15,179355355994857,61,18.9,573.0504150390625,0.9389999508857727,0,0.0,0.0,,,,,0,,1,0.0,
Raw,3342277,3321642000000,,,-1329526433789543136,0.17818069458007812,31.462288461625576,2.6671103272273897,10.142501981705072,87,12,0.0,15,179355364302451,8,36.7,-79.12004089355469,0.0272000003606081,0,0.0,0.0,,,,,0,,1,0.0,
Raw,3342277,3321642000000,,,-1329526433789543136,0.17818069458007812,31.462288461625576,2.6671103272273897,10.142501981705072,87,19,0.0,15,179355350443348,24,25.1,544.192138671875,0.3968000113964081,0,0.0,0.0,,,,,0,,1,0.0,
Raw,3342277,3321642000000,,,-1329526433789543136,0.17818069458007812,31.462288461625576,2.6671103272273897,10.142501981705072,87,20,0.0,15,179355357004905,10,34.9,-469.99102783203125,0.047600001096725464,0,0.0,0.0,,,,,0,,1,0.0,
Raw,3342277,3321642000000,,,-1329526433789543136,0.17818069458007812,31.462288461625576,2.6671103272273897,10.142501981705072,87,24,0.0,15,179355354267101,13,31.9,586.2664794921875,0.04620000347495079,0,0.0,0.0,,,,,0,,1,0.0,
Raw,3342277,3321642000000,,,-1329526433789543136,0.17818069458007812,31.462288461625576,2.6671103272273897,10.142501981705072,87,25,0.0,15,179355359436454,16,29.6,-486.07196044921875,0.07020000368356705,0,0.0,0.0,,,,,0,,1,0.0,
Raw,3342277,3321642000000,,,-1329526433789543136,0.17818069458007812,31.462288461625576,2.6671103272273897,10.142501981705072,87,29,0.0,15,179355352657776,5,40.0,-457.94683837890625,0.03739999979734421,0,0.0,0.0,,,,,0,,1,0.0,
NMEA,$GLGSV,3,1,09,78,75,210,38,77,23,160,24,79,37,323,38,65,02,101,15,1*70
,1645494538004
NMEA,$GLGSV,3,2,09,88,59,005,38,87,20,037,28,81,46,260,31,71,00,000,18,1*73
,1645494538005
NMEA,$GLGSV,3,3,09,82,02,236,,1*4E
,1645494538006
NMEA,$GAGSV,1,1,0,7*43
,1645494538006
NMEA,$PQGSV,1,1,0,0*43
,1645494538006
NMEA,$GBGSV,1,1,0,0*47
,1645494538006
Fix,gps,37.427485,-122.170263,-4.557800,0.000000,3.216000,1645494538000
NMEA,$GNGSA,A,3,02,06,12,19,20,24,25,29,,,,,1.1,0.8,0.8,1*36
,1645494538017
NMEA,$GNGSA,A,3,78,79,81,87,88,,,,,,,,1.1,0.8,0.8,2*35
,1645494538017
NMEA,$GNVTG,,T,,M,0.0,N,0.0,K,A*3D
,1645494538017
NMEA,$GNGGA,014858.00,3725.649126,N,12210.215778,W,1,12,0.8,23.4,M,-27.9,M,,*7C
,1645494538017
NMEA,$GNRMC,014858.00,A,3725.649126,N,12210.215778,W,0.0,,220222,15.0,E,A,V*58
,1645494538018
NMEA,$AIDSTAT,0,0,0,2,-6,23,3*00
,1645494538935
Fix,gps,37.427485,-122.170262,-4.232971,0.000000,3.216000,1645494539000
Raw,3343246,3322642000000,,,-1329526433789543135,0.6682968139648438,32.44069739594124,3.57592807196939,10.122437893461221,87,14,0.0,207,17338367315786,6,39.9,171.5384063720703,0.23009999096393585,0,0.0,0.0,,,,,0,,3,0.0,
Raw,3343246,3322642000000,,,-1329526433789543135,0.6682968139648438,32.44069739594124,3.57592807196939,10.122437893461221,87,13,0.0,207,17338357013501,40,21.4,784.2965698242188,1.0720000267028809,0,0.0,0.0,,,,,0,,3,0.0,
Raw,3343246,3322642000000,,,-1329526433789543135,0.6682968139648438,32.44069739594124,3.57592807196939,10.122437893461221,87,15,0.0,207,17338361561760,6,38.9,-572.1515502929688,0.2216000109910965,0,0.0,0.0,,,,,0,,3,0.0,
Raw,3343247,3322642000000,,,-1329526433789543135,0.6682968139648438,32.44069739594124,3.57592807196939,10.122437893461221,87,1,0.0,207,17338350503863,84,16.1,-579.1708374023438,2.2215001583099365,0,0.0,0.0,,,,,0,,3,0.0,
Raw,3343247,3322642000000,,,-1329526433789543135,0.6682968139648438,32.44069739594124,3.57592807196939,10.122437893461221,87,24,0.0,207,17338365436651,6,38.8,316.9853820800781,0.22760000824928284,0,0.0,0.0,,,,,0,,3,0.0,
Raw,3343247,3322642000000,,,-1329526433789543135,0.6682968139648438,32.44069739594124,3.57592807196939,10.122437893461221,87,23,0.0,207,17338356085132,17,28.6,644.114501953125,0.2573000192642212,0,0.0,0.0,,,,,0,,3,0.0,
Raw,3343247,3322642000000,,,-1329526433789543135,0.6682968139648438,32.44069739594124,3.57592807196939,10.122437893461221,87,17,0.0,207,17338363630489,11,33.4,-306.3330383300781,0.227400004863739,0,0.0,0.0,,,,,0,,3,0.0,
Raw,3343247,3322642000000,,,-1329526433789543135,0.6682968139648438,32.44069739594124,3.57592807196939,10.122437893461221,87,7,0.0,207,17338349029233,70,18.3,179.78440856933594,2.7899999618530273,0,0.0,0.0,,,,,0,,3,0.0,
Raw,3343247,3322642000000,,,-1329526433789543135,0.6682968139648438,32.44069739594124,3.57592807196939,10.122437893461221,87,2,0.0,15,179356362028406,8,36.2,153.360107421875,0.02420000173151493,0,0.0,0.0,,,,,0,,1,0.0,
Raw,3343248,3322642000000,,,-1329526433789543135,0.6682968139648438,32.44069739594124,3.57592807196939,10.122437893461221,87,5,0.0,15,179356351420240,11,33.0,-659.4869995117188,0.039400000125169754,0,0.0,0.0,,,,,0,,1,0.0,
Raw,3343248,3322642000000,,,-1329526433789543135,0.6682968139648438,32.44069739594124,3.57592807196939,10.122437893461221,87,6,0.0,15,179356355992812,19,27.7,573.5790405273438,0.06379999965429306,0,0.0,0.0,,,,,0,,1,0.0,
Raw,3343248,3322642000000,,,-1329526433789543135,0.6682968139648438,32.44069739594124,3.57592807196939,10.122437893461221,87,12,0.0,15,179356364302716,7,37.9,-78.90603637695312,0.026600001379847527,0,0.0,0.0,,,,,0,,1,0.0,
Raw,3343248,3322642000000,,,-1329526433789543135,0.6682968139648438,32.44069739594124,3.57592807196939,10.122437893461221,87,19,0.0,15,179356350441599,27,24.2,544.2398681640625,0.5914999842643738,0,0.0,0.0,,,,,0,,1,0.0,
Raw,3343248,3322642000000,,,-1329526433789543135,0.6682968139648438,32.44069739594124,3.57592807196939,10.122437893461221,87,20,0.0,15,179356357006483,13,31.2,-469.8246765136719,0.050700001418590546,0,0.0,0.0,,,,,0,,1,0.0,
Raw,3343248,3322642000000,,,-1329526433789543135,0.6682968139648438,32.44069739594124,3.57592807196939,10.122437893461221,87,24,0.0,15,179356354265142,12,32.4,586.4346313476562,0.04490000009536743,0,0.0,0.0,,,,,0,,1,0.0,
Raw,3343248,3322642000000,,,-1329526433789543135,0.6682968139648438,32.44069739594124,3.57592807196939,10.122437893461221,87,25,0.0,15,179356359438053,16,29.2,-485.90911865234375,0.07020000368356705,0,0.0,0.0,,,,,0,,1,0.0,
Raw,3343248,3322642000000,,,-1329526433789543135,0.6682968139648438,32.44069739594124,3.57592807196939,10.122437893461221,87,29,0.0,15,179356352659302,6,39.4,-457.7760009765625,0.03760000318288803,0,0.0,0.0,,,,,0,,1,0.0,
NMEA,$GPGSV,3,1,10,02,80,059,36,05,15,160,33,06,32,043,28,11,00,000,37,1*6C
,1645494539003
NMEA,$GPGSV,3,2,10,12,80,345,38,19,11,070,24,20,34,136,31,24,28,209,32,1*6A
,1645494539004
NMEA,$GPGSV,3,3,10,25,40,313,29,29,21,274,39,1*6F
,1645494539004
NMEA,$GLGSV,3,1,09,78,75,210,40,77,23,160,21,79,37,323,39,65,02,101,16,1*78
,1645494539004
NMEA,$GLGSV,3,2,09,88,59,005,39,87,20,037,29,81,46,260,33,71,00,000,18,1*71
,1645494539004
NMEA,$GLGSV,3,3,09,82,02,236,,1*4E
,1645494539004
NMEA,$GAGSV,1,1,0,7*43
,1645494539004
NMEA,$PQGSV,1,1,0,0*43
,1645494539004
NMEA,$GBGSV,1,1,0,0*47
,1645494539004
NMEA,$GNGSA,A,3,02,06,12,19,20,24,25,29,,,,,1.1,0.8,0.8,1*36
,1645494539008
NMEA,$GNGSA,A,3,78,79,81,87,88,,,,,,,,1.1,0.8,0.8,2*35
,1645494539008
NMEA,$GNVTG,,T,,M,0.0,N,0.0,K,A*3D
,1645494539008
NMEA,$GNGGA,014859.00,3725.649109,N,12210.215725,W,1,12,0.8,23.7,M,-27.9,M,,*7B
,1645494539008
NMEA,$GNRMC,014859.00,A,3725.649109,N,12210.215725,W,0.0,,220222,15.0,E,A,V*5C
,1645494539009
