# 
# Header Description:
# 
# Version: v2.0.0.1 Platform: 9 Manufacturer: samsung Model: SM-G960U
# 
# Raw,ElapsedRealtimeMillis,TimeNanos,LeapSecond,TimeUncertaintyNanos,FullBiasNanos,BiasNanos,BiasUncertaintyNanos,DriftNanosPerSecond,DriftUncertaintyNanosPerSecond,HardwareClockDiscontinuityCount,Svid,TimeOffsetNanos,State,ReceivedSvTimeNanos,ReceivedSvTimeUncertaintyNanos,Cn0DbHz,PseudorangeRateMetersPerSecond,PseudorangeRateUncertaintyMetersPerSecond,AccumulatedDeltaRangeState,AccumulatedDeltaRangeMeters,AccumulatedDeltaRangeUncertaintyMeters,CarrierFrequencyHz,CarrierCycles,CarrierPhase,CarrierPhaseUncertainty,MultipathIndicator,SnrInDb,ConstellationType,AgcDb,CarrierFrequencyHz
# 
# Fix,Provider,Latitude,Longitude,Altitude,Speed,Accuracy,(UTC)TimeInMs
# 
# Nav,Svid,Type,Status,MessageId,Sub-messageId,Data(Bytes)
# 
NMEA,$AIDSTAT,0,0,0,2,-20,23,3*00
,1645494805933
Fix,gps,37.429133,-122.169720,-6.195648,0.000000,3.216000,1645494806000
Raw,3610260,3589642000000,,,-1329526433789542281,0.6538448333740234,49.514128477312624,13.517755769527342,14.563326272683778,90,14,0.0,207,17605367143809,14,30.2,217.08804321289062,0.23629999160766602,0,0.0,0.0,,,,,0,,3,0.0,
Raw,3610260,3589642000000,,,-1329526433789542281,0.6538448333740234,49.514128477312624,13.517755769527342,14.563326272683778,90,13,0.0,207,17605356307573,16,29.3,801.836669921875,0.26570001244544983,0,0.0,0.0,,,,,0,,3,0.0,
Raw,3610260,3589642000000,,,-1329526433789542281,0.6538448333740234,49.514128477312624,13.517755769527342,14.563326272683778,90,15,0.0,207,17605362059494,10,34.9,-541.4917602539062,0.22510001063346863,0,0.0,0.0,,,,,0,,3,0.0,
Raw,3610261,3589642000000,,,-1329526433789542281,0.6538448333740234,49.514128477312624,13.517755769527342,14.563326272683778,90,1,0.0,207,17605351015116,96,15.9,-565.2247314453125,2.323000192642212,0,0.0,0.0,,,,,0,,3,0.0,
Raw,3610261,3589642000000,,,-1329526433789542281,0.6538448333740234,49.514128477312624,13.517755769527342,14.563326272683778,90,24,0.0,207,17605365146516,5,40.7,338.35211181640625,0.22690001130104065,0,0.0,0.0,,,,,0,,3,0.0,
Raw,3610261,3589642000000,,,-1329526433789542281,0.6538448333740234,49.514128477312624,13.517755769527342,14.563326272683778,90,23,0.0,207,17605355512558,17,28.6,646.267822265625,0.2558000087738037,0,0.0,0.0,,,,,0,,3,0.0,
Raw,3610261,3589642000000,,,-1329526433789542281,0.6538448333740234,49.514128477312624,13.517755769527342,14.563326272683778,90,17,0.0,207,17605363892526,17,28.9,-279.504150390625,0.2378000020980835,0,0.0,0.0,,,,,0,,3,0.0,
Raw,3610261,3589642000000,,,-1329526433789542281,0.6538448333740234,49.514128477312624,13.517755769527342,14.563326272683778,90,2,0.0,15,179623361881731,7,37.9,179.24176025390625,0.022100001573562622,0,0.0,0.0,,,,,0,,1,0.0,
Raw,3610262,3589642000000,,,-1329526433789542281,0.6538448333740234,49.514128477312624,13.517755769527342,14.563326272683778,90,5,0.0,15,179623352006561,4,44.8,-654.8673095703125,0.03629999980330467,0,0.0,0.0,,,,,0,,1,0.0,
Raw,3610262,3589642000000,,,-1329526433789542281,0.6538448333740234,49.514128477312624,13.517755769527342,14.563326272683778,90,6,0.0,15,179623355476797,12,32.2,588.8084716796875,0.046400003135204315,0,0.0,0.0,,,,,0,,1,0.0,
Raw,3610262,3589642000000,,,-1329526433789542281,0.6538448333740234,49.514128477312624,13.517755769527342,14.563326272683778,90,12,0.0,15,179623364361500,12,32.9,-49.64773178100586,0.029900001361966133,0,0.0,0.0,,,,,0,,1,0.0,
Raw,3610262,3589642000000,,,-1329526433789542281,0.6538448333740234,49.514128477312624,13.517755769527342,14.563326272683778,90,19,0.0,15,179623349957039,14,30.2,547.5974731445312,0.03930000215768814,0,0.0,0.0,,,,,0,,1,0.0,
Raw,3610262,3589642000000,,,-1329526433789542281,0.6538448333740234,49.514128477312624,13.517755769527342,14.563326272683778,90,20,0.0,15,179623357416806,11,33.2,-448.73406982421875,0.04840000346302986,0,0.0,0.0,,,,,0,,1,0.0,
Raw,3610262,3589642000000,,,-1329526433789542281,0.6538448333740234,49.514128477312624,13.517755769527342,14.563326272683778,90,24,0.0,15,179623353738874,10,34.5,597.1066284179688,0.041600000113248825,0,0.0,0.0,,,,,0,,1,0.0,
Raw,3610262,3589642000000,,,-1329526433789542281,0.6538448333740234,49.514128477312624,13.517755769527342,14.563326272683778,90,25,0.0,15,179623359863879,13,31.7,-466.4954528808594,0.06870000064373016,0,0.0,0.0,,,,,0,,1,0.0,
Raw,3610262,3589642000000,,,-1329526433789542281,0.6538448333740234,49.514128477312624,13.517755769527342,14.563326272683778,90,29,0.0,15,179623353064479,53,19.1,-448.6459045410156,0.8659999966621399,0,0.0,0.0,,,,,0,,1,0.0,
NMEA,$GPGSV,3,1,11,02,78,052,38,05,17,158,45,06,30,043,32,11,00,000,39,1*60
,1645494806007
NMEA,$GPGSV,3,2,11,12,82,352,33,19,09,071,30,20,36,133,33,24,26,208,35,1*64
,1645494806007
NMEA,$GPGSV,3,3,11,25,42,313,32,29,23,275,19,31,00,000,,1*55
,1645494806008
NMEA,$GLGSV,2,1,08,78,73,206,30,77,20,161,29,79,40,322,35,65,04,098,16,1*7E
,1645494806008
NMEA,$GLGSV,2,2,08,88,57,008,41,87,18,039,29,81,47,264,29,82,04,239,,1*7F
,1645494806008
NMEA,$GAGSV,1,1,0,7*43
,1645494806008
NMEA,$PQGSV,1,1,0,0*43
,1645494806009
NMEA,$GBGSV,1,1,0,0*47
,1645494806009
NMEA,$GNGSA,A,3,02,06,12,19,20,24,25,29,,,,,1.1,0.8,0.8,1*36
,1645494806015
NMEA,$GNGSA,A,3,78,79,81,87,88,,,,,,,,1.1,0.8,0.8,2*35
,1645494806015
NMEA,$GNVTG,,T,,M,0.0,N,0.0,K,A*3D
,1645494806016
NMEA,$GNGGA,015326.00,3725.747984,N,12210.183228,W,1,12,0.8,21.7,M,-27.9,M,,*7D
,1645494806016
NMEA,$GNRMC,015326.00,A,3725.747984,N,12210.183228,W,0.0,,220222,15.0,E,A,V*58
,1645494806016
NMEA,$AIDSTAT,0,0,0,2,,23,3*00
,1645494806934
NMEA,$GPGSV,3,1,11,02,78,052,38,05,17,158,43,06,30,043,34,11,00,000,39,1*60
,1645494807006
NMEA,$GPGSV,3,2,11,12,82,352,31,19,09,071,30,20,36,133,33,24,26,208,36,1*65
,1645494807007
NMEA,$GPGSV,3,3,11,25,42,313,35,29,23,275,24,31,00,000,,1*5C
,1645494807007
NMEA,$GLGSV,2,1,08,78,73,206,29,77,20,161,30,79,40,322,39,65,04,098,18,1*7C
,1645494807007
Raw,3611251,3590642000000,,,-1329526433789542269,0.12773895263671875,48.278074245899916,13.037649153471989,11.582867956040152,90,14,0.0,207,17606367143180,17,28.6,217.8931427001953,0.24379999935626984,0,0.0,0.0,,,,,0,,3,0.0,
Raw,3611251,3590642000000,,,-1329526433789542269,0.12773895263671875,48.278074245899916,13.037649153471989,11.582867956040152,90,13,0.0,207,17606356304953,16,29.7,802.4828491210938,0.26570001244544983,0,0.0,0.0,,,,,0,,3,0.0,
Raw,3611252,3590642000000,,,-1329526433789542269,0.12773895263671875,48.278074245899916,13.037649153471989,11.582867956040152,90,15,0.0,207,17606362061340,6,38.6,-540.7761840820312,0.22310000658035278,0,0.0,0.0,,,,,0,,3,0.0,
Raw,3611252,3590642000000,,,-1329526433789542269,0.12773895263671875,48.278074245899916,13.037649153471989,11.582867956040152,90,1,0.0,207,17606351016750,70,17.8,-566.0946044921875,1.3830000162124634,0,0.0,0.0,,,,,0,,3,0.0,
Raw,3611252,3590642000000,,,-1329526433789542269,0.12773895263671875,48.278074245899916,13.037649153471989,11.582867956040152,90,24,0.0,207,17606365145369,6,39.5,339.01123046875,0.22709999978542328,0,0.0,0.0,,,,,0,,3,0.0,
Raw,3611252,3590642000000,,,-1329526433789542269,0.12773895263671875,48.278074245899916,13.037649153471989,11.582867956040152,90,23,0.0,207,17606355510303,14,30.8,646.8606567382812,0.2483000010251999,0,0.0,0.0,,,,,0,,3,0.0,
Raw,3611252,3590642000000,,,-1329526433789542269,0.12773895263671875,48.278074245899916,13.037649153471989,11.582867956040152,90,17,0.0,207,17606363893485,13,31.7,-278.79168701171875,0.2296999990940094,0,0.0,0.0,,,,,0,,3,0.0,
Raw,3611252,3590642000000,,,-1329526433789542269,0.12773895263671875,48.278074245899916,13.037649153471989,11.582867956040152,90,2,0.0,15,179624361881113,7,37.6,179.92588806152344,0.022100001573562622,0,0.0,0.0,,,,,0,,1,0.0,
Raw,3611252,3590642000000,,,-1329526433789542269,0.12773895263671875,48.278074245899916,13.037649153471989,11.582867956040152,90,5,0.0,15,179624352008767,4,42.6,-654.2479248046875,0.03680000081658363,0,0.0,0.0,,,,,0,,1,0.0,
Raw,3611252,3590642000000,,,-1329526433789542269,0.12773895263671875,48.278074245899916,13.037649153471989,11.582867956040152,90,6,0.0,15,179624355474828,11,33.6,589.4073486328125,0.04540000110864639,0,0.0,0.0,,,,,0,,1,0.0,
Raw,3611252,3590642000000,,,-1329526433789542269,0.12773895263671875,48.278074245899916,13.037649153471989,11.582867956040152,90,12,0.0,15,179624364361653,14,30.5,-48.95163345336914,0.03180000185966492,0,0.0,0.0,,,,,0,,1,0.0,
Raw,3611252,3590642000000,,,-1329526433789542269,0.12773895263671875,48.278074245899916,13.037649153471989,11.582867956040152,90,19,0.0,15,179624349955172,14,30.2,548.2194213867188,0.03930000215768814,0,0.0,0.0,,,,,0,,1,0.0,
Raw,3611252,3590642000000,,,-1329526433789542269,0.12773895263671875,48.278074245899916,13.037649153471989,11.582867956040152,90,20,0.0,15,179624357418308,12,32.5,-448.0688781738281,0.049400001764297485,0,0.0,0.0,,,,,0,,1,0.0,
Raw,3611252,3590642000000,,,-1329526433789542269,0.12773895263671875,48.278074245899916,13.037649153471989,11.582867956040152,90,24,0.0,15,179624353736923,9,35.9,597.6808471679688,0.04110000282526016,0,0.0,0.0,,,,,0,,1,0.0,
Raw,3611252,3590642000000,,,-1329526433789542269,0.12773895263671875,48.278074245899916,13.037649153471989,11.582867956040152,90,25,0.0,15,179624359865431,9,35.4,-465.8782653808594,0.06509999930858612,0,0.0,0.0,,,,,0,,1,0.0,
Raw,3611253,3590642000000,,,-1329526433789542269,0.12773895263671875,48.278074245899916,13.037649153471989,11.582867956040152,90,29,0.0,15,179624353065863,27,24.3,-448.6934814453125,0.5960000157356262,0,0.0,0.0,,,,,0,,1,0.0,
Fix,gps,37.429133,-122.169720,-6.195831,0.000000,3.216000,1645494807000
NMEA,$GLGSV,2,2,08,88,57,008,40,87,18,039,31,81,47,264,32,82,04,239,,1*7D
,1645494807007
NMEA,$GAGSV,1,1,0,7*43
,1645494807011
NMEA,$PQGSV,1,1,0,0*43
,1645494807021
NMEA,$GBGSV,1,1,0,0*47
,1645494807021
NMEA,$GNGSA,A,3,02,06,12,19,20,24,25,29,,,,,1.1,0.8,0.8,1*36
,1645494807025
NMEA,$GNGSA,A,3,78,79,81,87,88,,,,,,,,1.1,0.8,0.8,2*35
,1645494807025
NMEA,$GNVTG,,T,,M,0.0,N,0.0,K,A*3D
,1645494807026
NMEA,$GNGGA,015327.00,3725.747982,N,12210.183226,W,1,12,0.8,21.7,M,-27.9,M,,*74
,1645494807026
NMEA,$GNRMC,015327.00,A,3725.747982,N,12210.183226,W,0.0,,220222,15.0,E,A,V*51
,1645494807026
NMEA,$AIDSTAT,0,0,0,2,-10,23,3*00
,1645494807934
NMEA,$GPGSV,3,1,11,02,78,052,36,05,17,158,42,06,30,043,31,11,00,000,39,1*6A
,1645494808013
Raw,3612255,3591642000000,,,-1329526433789542250,0.4992485046386719,43.946907680947334,14.86506299314832,11.575037641210038,90,14,0.0,207,17607367142471,19,27.5,217.4341583251953,0.251800000667572,0,0.0,0.0,,,,,0,,3,0.0,
Raw,3612256,3591642000000,,,-1329526433789542250,0.4992485046386719,43.946907680947334,14.86506299314832,11.575037641210038,90,13,0.0,207,17607356302300,16,29.1,801.91796875,0.26570001244544983,0,0.0,0.0,,,,,0,,3,0.0,
Raw,3612256,3591642000000,,,-1329526433789542250,0.4992485046386719,43.946907680947334,14.86506299314832,11.575037641210038,90,15,0.0,207,17607362063148,7,37.9,-541.3336791992188,0.22360000014305115,0,0.0,0.0,,,,,0,,3,0.0,
Raw,3612256,3591642000000,,,-1329526433789542250,0.4992485046386719,43.946907680947334,14.86506299314832,11.575037641210038,90,1,0.0,207,17607351018762,53,19.4,-566.0665283203125,1.2130000591278076,0,0.0,0.0,,,,,0,,3,0.0,
Raw,3612256,3591642000000,,,-1329526433789542250,0.4992485046386719,43.946907680947334,14.86506299314832,11.575037641210038,90,24,0.0,207,17607365144226,6,39.1,338.3880310058594,0.22709999978542328,0,0.0,0.0,,,,,0,,3,0.0,
Raw,3612256,3591642000000,,,-1329526433789542250,0.4992485046386719,43.946907680947334,14.86506299314832,11.575037641210038,90,23,0.0,207,17607355508186,14,30.9,646.1304321289062,0.2483000010251999,0,0.0,0.0,,,,,0,,3,0.0,
Raw,3612256,3591642000000,,,-1329526433789542250,0.4992485046386719,43.946907680947334,14.86506299314832,11.575037641210038,90,17,0.0,207,17607363894404,16,29.6,-279.3866271972656,0.23119999468326569,0,0.0,0.0,,,,,0,,3,0.0,
Raw,3612257,3591642000000,,,-1329526433789542250,0.4992485046386719,43.946907680947334,14.86506299314832,11.575037641210038,90,2,0.0,15,179625361880524,8,36.4,179.2841033935547,0.022700000554323196,0,0.0,0.0,,,,,0,,1,0.0,
Raw,3612257,3591642000000,,,-1329526433789542250,0.4992485046386719,43.946907680947334,14.86506299314832,11.575037641210038,90,5,0.0,15,179625352010954,5,41.7,-654.9571533203125,0.03710000216960907,0,0.0,0.0,,,,,0,,1,0.0,
Raw,3612257,3591642000000,,,-1329526433789542250,0.4992485046386719,43.946907680947334,14.86506299314832,11.575037641210038,90,6,0.0,15,179625355472868,13,31.3,588.7756958007812,0.047700002789497375,0,0.0,0.0,,,,,0,,1,0.0,
Raw,3612257,3591642000000,,,-1329526433789542250,0.4992485046386719,43.946907680947334,14.86506299314832,11.575037641210038,90,12,0.0,15,179625364361806,13,31.3,-49.512359619140625,0.031200001016259193,0,0.0,0.0,,,,,0,,1,0.0,
Raw,3612257,3591642000000,,,-1329526433789542250,0.4992485046386719,43.946907680947334,14.86506299314832,11.575037641210038,90,19,0.0,15,179625349953386,17,28.6,547.4942626953125,0.046800002455711365,0,0.0,0.0,,,,,0,,1,0.0,
Raw,3612257,3591642000000,,,-1329526433789542250,0.4992485046386719,43.946907680947334,14.86506299314832,11.575037641210038,90,20,0.0,15,179625357419804,12,32.7,-448.6625671386719,0.06440000236034393,0,0.0,0.0,,,,,0,,1,0.0,
Raw,3612258,3591642000000,,,-1329526433789542250,0.4992485046386719,43.946907680947334,14.86506299314832,11.575037641210038,90,24,0.0,15,179625353734941,10,34.5,597.0247192382812,0.041600000113248825,0,0.0,0.0,,,,,0,,1,0.0,
Raw,3612258,3591642000000,,,-1329526433789542250,0.4992485046386719,43.946907680947334,14.86506299314832,11.575037641210038,90,25,0.0,15,179625359867002,10,34.5,-466.4022216796875,0.06560000032186508,0,0.0,0.0,,,,,0,,1,0.0,
Raw,3612258,3591642000000,,,-1329526433789542250,0.4992485046386719,43.946907680947334,14.86506299314832,11.575037641210038,90,29,0.0,15,179625353067435,24,25.3,-449.075927734375,0.40130001306533813,0,0.0,0.0,,,,,0,,1,0.0,
NMEA,$GPGSV,3,2,11,12,82,352,31,19,09,071,29,20,36,133,33,24,26,208,35,1*6E
,1645494808013
NMEA,$GPGSV,3,3,11,25,42,313,35,29,23,275,25,31,00,000,,1*5D
,1645494808014
NMEA,$GLGSV,2,1,08,78,73,206,28,77,20,161,29,79,40,322,38,65,04,098,19,1*75
,1645494808014
NMEA,$GLGSV,2,2,08,88,57,008,39,87,18,039,31,81,47,264,30,82,04,239,,1*71
,1645494808015
NMEA,$GAGSV,1,1,0,7*43
,1645494808015
NMEA,$PQGSV,1,1,0,0*43
,1645494808015
NMEA,$GBGSV,1,1,0,0*47
,1645494808015
Fix,gps,37.429133,-122.169720,-6.198730,0.000000,3.216000,1645494808000
NMEA,$GNGSA,A,3,02,06,12,19,20,24,25,29,,,,,1.1,0.8,0.8,1*36
,1645494808019
NMEA,$GNGSA,A,3,78,79,81,87,88,,,,,,,,1.1,0.8,0.8,2*35
,1645494808019
NMEA,$GNVTG,,T,,M,0.0,N,0.0,K,A*3D
,1645494808019
NMEA,$GNGGA,015328.00,3725.747979,N,12210.183226,W,1,12,0.8,21.7,M,-27.9,M,,*7F
,1645494808019
NMEA,$GNRMC,015328.00,A,3725.747979,N,12210.183226,W,0.0,,220222,15.0,E,A,V*5A
,1645494808020
