# 
# Header Description:
# 
# Version: v2.0.0.1 Platform: 9 Manufacturer: samsung Model: SM-G960U
# 
# Raw,ElapsedRealtimeMillis,TimeNanos,LeapSecond,TimeUncertaintyNanos,FullBiasNanos,BiasNanos,BiasUncertaintyNanos,DriftNanosPerSecond,DriftUncertaintyNanosPerSecond,HardwareClockDiscontinuityCount,Svid,TimeOffsetNanos,State,ReceivedSvTimeNanos,ReceivedSvTimeUncertaintyNanos,Cn0DbHz,PseudorangeRateMetersPerSecond,PseudorangeRateUncertaintyMetersPerSecond,AccumulatedDeltaRangeState,AccumulatedDeltaRangeMeters,AccumulatedDeltaRangeUncertaintyMeters,CarrierFrequencyHz,CarrierCycles,CarrierPhase,CarrierPhaseUncertainty,MultipathIndicator,SnrInDb,ConstellationType,AgcDb,CarrierFrequencyHz
# 
# Fix,Provider,Latitude,Longitude,Altitude,Speed,Accuracy,(UTC)TimeInMs
# 
# Nav,Svid,Type,Status,MessageId,Sub-messageId,Data(Bytes)
# 
NMEA,$AIDSTAT,0,0,0,2,-12,23,3*00
,1645494918934
NMEA,$GPGSV,3,1,11,02,78,050,32,05,18,158,34,06,29,043,24,11,00,000,34,1*63
,1645494919008
NMEA,$GPGSV,3,2,11,12,82,355,31,19,09,071,26,20,36,133,43,24,25,208,34,1*63
,1645494919009
NMEA,$GPGSV,3,3,11,25,43,313,30,29,23,275,36,31,00,000,,1*5B
,1645494919009
NMEA,$GLGSV,2,1,08,78,72,205,39,82,05,239,37,77,20,161,26,79,42,320,29,1*75
,1645494919010
NMEA,$GLGSV,2,2,08,65,04,097,26,88,56,009,27,87,17,040,23,81,47,265,39,1*7F
,1645494919010
NMEA,$GAGSV,1,1,0,7*43
,1645494919012
NMEA,$PQGSV,1,1,0,0*43
,1645494919012
NMEA,$GBGSV,1,1,0,0*47
,1645494919014
Raw,3723282,3702642000000,,,-1329526433789539506,0.8759078979492188,31.167524866759777,2.754960996056086,14.841166456482132,91,14,0.0,207,17718367057335,6,38.7,230.1436004638672,0.2305999994277954,0,0.0,0.0,,,,,0,,3,0.0,
Raw,3723282,3702642000000,,,-1329526433789539506,0.8759078979492188,31.167524866759777,2.754960996056086,14.841166456482132,91,18,0.0,207,17718351523934,7,37.4,-604.1949462890625,0.2371000051498413,0,0.0,0.0,,,,,0,,3,0.0,
Raw,3723282,3702642000000,,,-1329526433789539506,0.8759078979492188,31.167524866759777,2.754960996056086,14.841166456482132,91,13,0.0,207,17718356002866,24,25.5,802.3223266601562,0.6057999730110168,0,0.0,0.0,,,,,0,,3,0.0,
Raw,3723282,3702642000000,,,-1329526433789539506,0.8759078979492188,31.167524866759777,2.754960996056086,14.841166456482132,91,15,0.0,207,17718362260062,16,29.3,-534.0114135742188,0.2296999990940094,0,0.0,0.0,,,,,0,,3,0.0,
Raw,3723282,3702642000000,,,-1329526433789539506,0.8759078979492188,31.167524866759777,2.754960996056086,14.841166456482132,91,1,0.0,207,17718351226441,24,25.5,-566.0632934570312,0.5982999801635742,0,0.0,0.0,,,,,0,,3,0.0,
Raw,3723282,3702642000000,,,-1329526433789539506,0.8759078979492188,31.167524866759777,2.754960996056086,14.841166456482132,91,24,0.0,207,17718365016279,21,26.9,340.82177734375,0.31869998574256897,0,0.0,0.0,,,,,0,,3,0.0,
Raw,3723282,3702642000000,,,-1329526433789539506,0.8759078979492188,31.167524866759777,2.754960996056086,14.841166456482132,91,23,0.0,207,17718355267666,44,22.7,642.6043701171875,2.509000062942505,0,0.0,0.0,,,,,0,,3,0.0,
Raw,3723282,3702642000000,,,-1329526433789539506,0.8759078979492188,31.167524866759777,2.754960996056086,14.841166456482132,91,17,0.0,207,17718363994581,6,38.5,-274.3321533203125,0.22460000216960907,0,0.0,0.0,,,,,0,,3,0.0,
Raw,3723282,3702642000000,,,-1329526433789539506,0.8759078979492188,31.167524866759777,2.754960996056086,14.841166456482132,91,2,0.0,15,179736361811091,12,32.2,183.75616455078125,0.02540000155568123,0,0.0,0.0,,,,,0,,1,0.0,
Raw,3723282,3702642000000,,,-1329526433789539506,0.8759078979492188,31.167524866759777,2.754960996056086,14.841166456482132,91,5,0.0,15,179736352251680,11,33.6,-658.6262817382812,0.04090000316500664,0,0.0,0.0,,,,,0,,1,0.0,
Raw,3723282,3702642000000,,,-1329526433789539506,0.8759078979492188,31.167524866759777,2.754960996056086,14.841166456482132,91,6,0.0,15,179736355252570,32,23.6,588.1121215820312,1.0110000371932983,0,0.0,0.0,,,,,0,,1,0.0,
Raw,3723282,3702642000000,,,-1329526433789539506,0.8759078979492188,31.167524866759777,2.754960996056086,14.841166456482132,91,12,0.0,15,179736364376795,13,31.4,-43.1905517578125,0.031200001016259193,0,0.0,0.0,,,,,0,,1,0.0,
Raw,3723283,3702642000000,,,-1329526433789539506,0.8759078979492188,31.167524866759777,2.754960996056086,14.841166456482132,91,19,0.0,15,179736349749374,21,26.2,542.824951171875,0.12470000237226486,0,0.0,0.0,,,,,0,,1,0.0,
Raw,3723283,3702642000000,,,-1329526433789539506,0.8759078979492188,31.167524866759777,2.754960996056086,14.841166456482132,91,20,0.0,15,179736357582943,4,42.5,-445.5709533691406,0.04430000111460686,0,0.0,0.0,,,,,0,,1,0.0,
Raw,3723283,3702642000000,,,-1329526433789539506,0.8759078979492188,31.167524866759777,2.754960996056086,14.841166456482132,91,24,0.0,15,179736353511746,10,34.4,594.9583129882812,0.041600000113248825,0,0.0,0.0,,,,,0,,1,0.0,
Raw,3723283,3702642000000,,,-1329526433789539506,0.8759078979492188,31.167524866759777,2.754960996056086,14.841166456482132,91,25,0.0,15,179736360037073,14,30.2,-464.03436279296875,0.025800000876188278,0,0.0,0.0,,,,,0,,1,0.0,
Raw,3723283,3702642000000,,,-1329526433789539506,0.8759078979492188,31.167524866759777,2.754960996056086,14.841166456482132,91,29,0.0,15,179736353231944,9,35.6,-451.5108642578125,0.04110000282526016,0,0.0,0.0,,,,,0,,1,0.0,
Fix,gps,37.429763,-122.169510,-7.423309,0.000000,3.216000,1645494919000
NMEA,$GNGSA,A,3,02,05,06,12,19,20,24,25,29,,,,1.0,0.7,0.7,1*32
,1645494919019
NMEA,$GNGSA,A,3,77,78,79,81,87,88,,,,,,,1.0,0.7,0.7,2*34
,1645494919019
NMEA,$GNVTG,,T,,M,0.0,N,0.0,K,A*3D
,1645494919020
NMEA,$GNGGA,015519.00,3725.785751,N,12210.170609,W,1,12,0.7,20.5,M,-27.9,M,,*78
,1645494919020
NMEA,$GNRMC,015519.00,A,3725.785751,N,12210.170609,W,0.0,,220222,15.0,E,A,V*51
,1645494919020
NMEA,$AIDSTAT,0,0,0,2,0,23,3*00
,1645494919934
NMEA,$GPGSV,3,1,11,02,78,050,31,05,18,158,36,06,29,043,21,11,00,000,32,1*61
,1645494920006
Fix,gps,37.429763,-122.169512,-7.716339,0.000000,3.216000,1645494920000
Raw,3724246,3703642000000,,,-1329526433789539520,0.5409908294677734,32.45205880375579,-3.7970891350298936,12.895027038869767,91,14,0.0,207,17719367056536,8,36.8,231.57948303222656,0.23170000314712524,0,0.0,0.0,,,,,0,,3,0.0,
Raw,3724246,3703642000000,,,-1329526433789539520,0.5409908294677734,32.45205880375579,-3.7970891350298936,12.895027038869767,91,18,0.0,207,17719351525958,7,37.9,-602.895751953125,0.2371000051498413,0,0.0,0.0,,,,,0,,3,0.0,
Raw,3724246,3703642000000,,,-1329526433789539520,0.5409908294677734,32.45205880375579,-3.7970891350298936,12.895027038869767,91,13,0.0,207,17719356000191,24,25.2,803.3785400390625,0.6057999730110168,0,0.0,0.0,,,,,0,,3,0.0,
Raw,3724246,3703642000000,,,-1329526433789539520,0.5409908294677734,32.45205880375579,-3.7970891350298936,12.895027038869767,91,15,0.0,207,17719362261831,10,34.8,-532.6399536132812,0.22510001063346863,0,0.0,0.0,,,,,0,,3,0.0,
Raw,3724246,3703642000000,,,-1329526433789539520,0.5409908294677734,32.45205880375579,-3.7970891350298936,12.895027038869767,91,1,0.0,207,17719351228373,24,25.9,-564.8589477539062,0.5982999801635742,0,0.0,0.0,,,,,0,,3,0.0,
Raw,3724246,3703642000000,,,-1329526433789539520,0.5409908294677734,32.45205880375579,-3.7970891350298936,12.895027038869767,91,24,0.0,207,17719365015224,21,26.9,342.1972351074219,0.31869998574256897,0,0.0,0.0,,,,,0,,3,0.0,
Raw,3724246,3703642000000,,,-1329526433789539520,0.5409908294677734,32.45205880375579,-3.7970891350298936,12.895027038869767,91,23,0.0,207,17719355265498,49,20.4,641.8565673828125,1.8890000581741333,0,0.0,0.0,,,,,0,,3,0.0,
Raw,3724246,3703642000000,,,-1329526433789539520,0.5409908294677734,32.45205880375579,-3.7970891350298936,12.895027038869767,91,17,0.0,207,17719363995496,8,36.2,-272.988037109375,0.2257000058889389,0,0.0,0.0,,,,,0,,3,0.0,
Raw,3724246,3703642000000,,,-1329526433789539520,0.5409908294677734,32.45205880375579,-3.7970891350298936,12.895027038869767,91,2,0.0,15,179737361810494,13,31.2,185.05838012695312,0.02670000120997429,0,0.0,0.0,,,,,0,,1,0.0,
Raw,3724246,3703642000000,,,-1329526433789539520,0.5409908294677734,32.45205880375579,-3.7970891350298936,12.895027038869767,91,5,0.0,15,179737352253895,9,35.5,-657.3846435546875,0.03960000351071358,0,0.0,0.0,,,,,0,,1,0.0,
Raw,3724246,3703642000000,,,-1329526433789539520,0.5409908294677734,32.45205880375579,-3.7970891350298936,12.895027038869767,91,6,0.0,15,179737355250564,40,21.2,589.9579467773438,0.7489999532699585,0,0.0,0.0,,,,,0,,1,0.0,
Raw,3724247,3703642000000,,,-1329526433789539520,0.5409908294677734,32.45205880375579,-3.7970891350298936,12.895027038869767,91,12,0.0,15,179737364376945,16,29.6,-41.899112701416016,0.03270000219345093,0,0.0,0.0,,,,,0,,1,0.0,
Raw,3724247,3703642000000,,,-1329526433789539520,0.5409908294677734,32.45205880375579,-3.7970891350298936,12.895027038869767,91,19,0.0,15,179737349747591,19,27.2,544.0431518554688,0.05480000376701355,0,0.0,0.0,,,,,0,,1,0.0,
Raw,3724247,3703642000000,,,-1329526433789539520,0.5409908294677734,32.45205880375579,-3.7970891350298936,12.895027038869767,91,20,0.0,15,179737357584442,5,41.6,-444.2381591796875,0.044600002467632294,0,0.0,0.0,,,,,0,,1,0.0,
Raw,3724247,3703642000000,,,-1329526433789539520,0.5409908294677734,32.45205880375579,-3.7970891350298936,12.895027038869767,91,24,0.0,15,179737353509782,9,35.1,596.258544921875,0.04110000282526016,0,0.0,0.0,,,,,0,,1,0.0,
Raw,3724247,3703642000000,,,-1329526433789539520,0.5409908294677734,32.45205880375579,-3.7970891350298936,12.895027038869767,91,25,0.0,15,179737360038634,11,33.4,-462.6971435546875,0.02290000021457672,0,0.0,0.0,,,,,0,,1,0.0,
Raw,3724247,3703642000000,,,-1329526433789539520,0.5409908294677734,32.45205880375579,-3.7970891350298936,12.895027038869767,91,29,0.0,15,179737353233448,10,34.4,-450.2565612792969,0.041600000113248825,0,0.0,0.0,,,,,0,,1,0.0,
NMEA,$GPGSV,3,2,11,12,82,355,30,19,09,071,27,20,36,133,42,24,25,208,35,1*63
,1645494920006
NMEA,$GPGSV,3,3,11,25,43,313,33,29,23,275,34,31,00,000,,1*5A
,1645494920006
NMEA,$GLGSV,2,1,08,78,72,205,37,82,05,239,38,77,20,161,25,79,42,320,35,1*7A
,1645494920006
NMEA,$GLGSV,2,2,08,65,04,097,26,88,56,009,27,87,17,040,20,81,47,265,36,1*73
,1645494920006
NMEA,$GAGSV,1,1,0,7*43
,1645494920007
NMEA,$PQGSV,1,1,0,0*43
,1645494920007
NMEA,$GBGSV,1,1,0,0*47
,1645494920007
NMEA,$GNGSA,A,3,02,05,06,12,19,20,24,25,29,,,,1.0,0.7,0.7,1*32
,1645494920011
NMEA,$GNGSA,A,3,77,78,79,81,87,88,,,,,,,1.0,0.7,0.7,2*34
,1645494920012
NMEA,$GNVTG,,T,,M,0.0,N,0.0,K,A*3D
,1645494920012
NMEA,$GNGGA,015520.00,3725.785790,N,12210.170749,W,1,12,0.7,20.2,M,-27.9,M,,*7D
,1645494920012
NMEA,$GNRMC,015520.00,A,3725.785790,N,12210.170749,W,0.0,,220222,15.0,E,A,V*53
,1645494920012
NMEA,$AIDSTAT,0,0,0,2,-9,23,3*00
,1645494920935
Raw,3725229,3704642000000,,,-1329526433789539521,0.7959327697753906,33.67355384398252,0.3847262229214713,11.97302058972355,91,14,0.0,207,17720367055766,10,34.8,233.67080688476562,0.23260000348091125,0,0.0,0.0,,,,,0,,3,0.0,
Raw,3725229,3704642000000,,,-1329526433789539521,0.7959327697753906,33.67355384398252,0.3847262229214713,11.97302058972355,91,18,0.0,207,17720351527963,7,37.1,-600.9035034179688,0.2371000051498413,0,0.0,0.0,,,,,0,,3,0.0,
Raw,3725229,3704642000000,,,-1329526433789539521,0.7959327697753906,33.67355384398252,0.3847262229214713,11.97302058972355,91,13,0.0,207,17720355997594,27,24.4,806.1788330078125,0.8889999389648438,0,0.0,0.0,,,,,0,,3,0.0,
Raw,3725229,3704642000000,,,-1329526433789539521,0.7959327697753906,33.67355384398252,0.3847262229214713,11.97302058972355,91,15,0.0,207,17720362263622,8,36.3,-530.6239624023438,0.22420001029968262,0,0.0,0.0,,,,,0,,3,0.0,
Raw,3725229,3704642000000,,,-1329526433789539521,0.7959327697753906,33.67355384398252,0.3847262229214713,11.97302058972355,91,1,0.0,207,17720351230018,21,26.7,-562.9512329101562,0.3276999890804291,0,0.0,0.0,,,,,0,,3,0.0,
Raw,3725229,3704642000000,,,-1329526433789539521,0.7959327697753906,33.67355384398252,0.3847262229214713,11.97302058972355,91,24,0.0,207,17720365014165,53,19.0,344.0705871582031,1.2040001153945923,0,0.0,0.0,,,,,0,,3,0.0,
Raw,3725229,3704642000000,,,-1329526433789539521,0.7959327697753906,33.67355384398252,0.3847262229214713,11.97302058972355,91,23,0.0,207,17720355263495,31,23.2,643.5951538085938,0.9489999413490295,0,0.0,0.0,,,,,0,,3,0.0,
Raw,3725230,3704642000000,,,-1329526433789539521,0.7959327697753906,33.67355384398252,0.3847262229214713,11.97302058972355,91,17,0.0,207,17720363996431,11,33.7,-270.94964599609375,0.227400004863739,0,0.0,0.0,,,,,0,,3,0.0,
Raw,3725230,3704642000000,,,-1329526433789539521,0.7959327697753906,33.67355384398252,0.3847262229214713,11.97302058972355,91,2,0.0,15,179738361809927,17,28.7,187.17135620117188,0.03480000048875809,0,0.0,0.0,,,,,0,,1,0.0,
Raw,3725230,3704642000000,,,-1329526433789539521,0.7959327697753906,33.67355384398252,0.3847262229214713,11.97302058972355,91,5,0.0,15,179738352256072,9,35.0,-655.4421997070312,0.03960000351071358,0,0.0,0.0,,,,,0,,1,0.0,
Raw,3725230,3704642000000,,,-1329526433789539521,0.7959327697753906,33.67355384398252,0.3847262229214713,11.97302058972355,91,6,0.0,15,179738355248689,46,20.3,592.6030883789062,0.8089999556541443,0,0.0,0.0,,,,,0,,1,0.0,
Raw,3725230,3704642000000,,,-1329526433789539521,0.7959327697753906,33.67355384398252,0.3847262229214713,11.97302058972355,91,12,0.0,15,179738364377038,17,28.0,-39.84739303588867,0.03930000215768814,0,0.0,0.0,,,,,0,,1,0.0,
Raw,3725230,3704642000000,,,-1329526433789539521,0.7959327697753906,33.67355384398252,0.3847262229214713,11.97302058972355,91,19,0.0,15,179738349745716,19,27.0,545.9501953125,0.05480000376701355,0,0.0,0.0,,,,,0,,1,0.0,
Raw,3725230,3704642000000,,,-1329526433789539521,0.7959327697753906,33.67355384398252,0.3847262229214713,11.97302058972355,91,20,0.0,15,179738357585910,5,40.0,-442.23736572265625,0.04490000009536743,0,0.0,0.0,,,,,0,,1,0.0,
Raw,3725230,3704642000000,,,-1329526433789539521,0.7959327697753906,33.67355384398252,0.3847262229214713,11.97302058972355,91,24,0.0,15,179738353507793,9,35.2,598.2106323242188,0.04110000282526016,0,0.0,0.0,,,,,0,,1,0.0,
Raw,3725230,3704642000000,,,-1329526433789539521,0.7959327697753906,33.67355384398252,0.3847262229214713,11.97302058972355,91,25,0.0,15,179738360040177,8,36.2,-460.74395751953125,0.02120000123977661,0,0.0,0.0,,,,,0,,1,0.0,
Raw,3725231,3704642000000,,,-1329526433789539521,0.7959327697753906,33.67355384398252,0.3847262229214713,11.97302058972355,91,29,0.0,15,179738353234948,10,34.1,-448.28497314453125,0.041600000113248825,0,0.0,0.0,,,,,0,,1,0.0,
Fix,gps,37.429764,-122.169515,-7.958832,0.000000,3.216000,1645494921000
NMEA,$GPGSV,3,1,11,02,78,050,29,05,18,158,35,06,29,043,20,11,00,000,33,1*6B
,1645494921013
NMEA,$GPGSV,3,2,11,12,82,355,28,19,09,071,27,20,36,133,40,24,25,208,35,1*68
,1645494921013
NMEA,$GPGSV,3,3,11,25,43,313,36,29,23,275,34,31,00,000,,1*5F
,1645494921013
NMEA,$GLGSV,2,1,08,78,72,205,35,82,05,239,37,77,20,161,24,79,42,320,36,1*75
,1645494921013
NMEA,$GLGSV,2,2,08,65,04,097,27,88,56,009,19,87,17,040,23,81,47,265,34,1*7E
,1645494921014
NMEA,$GAGSV,1,1,0,7*43
,1645494921014
NMEA,$PQGSV,1,1,0,0*43
,1645494921014
NMEA,$GBGSV,1,1,0,0*47
,1645494921014
NMEA,$GNGSA,A,3,02,05,06,12,19,20,24,25,29,,,,1.0,0.7,0.7,1*32
,1645494921022
NMEA,$GNGSA,A,3,77,78,79,81,87,88,,,,,,,1.0,0.7,0.7,2*34
,1645494921023
NMEA,$GNVTG,,T,,M,0.0,N,0.0,K,A*3D
,1645494921023
NMEA,$GNGGA,015521.00,3725.785810,N,12210.170895,W,1,12,0.7,20.0,M,-27.9,M,,*77
,1645494921023
NMEA,$GNRMC,015521.00,A,3725.785810,N,12210.170895,W,0.0,,220222,15.0,E,A,V*5B
,1645494921023
NMEA,$AIDSTAT,0,0,0,2,,23,3*00
,1645494921935
Raw,3726238,3705642000000,,,-1329526433789539510,0.34595489501953125,34.139804483857006,6.6226780439183655,11.205748350940539,91,14,0.0,207,17721367055009,12,32.0,234.29098510742188,0.23440000414848328,0,0.0,0.0,,,,,0,,3,0.0,
Raw,3726238,3705642000000,,,-1329526433789539510,0.34595489501953125,34.139804483857006,6.6226780439183655,11.205748350940539,91,18,0.0,207,17721351529975,8,36.8,-600.3862915039062,0.23770001530647278,0,0.0,0.0,,,,,0,,3,0.0,
Raw,3726238,3705642000000,,,-1329526433789539510,0.34595489501953125,34.139804483857006,6.6226780439183655,11.205748350940539,91,13,0.0,207,17721355994709,35,22.9,805.4298095703125,1.0089999437332153,0,0.0,0.0,,,,,0,,3,0.0,
Raw,3726238,3705642000000,,,-1329526433789539510,0.34595489501953125,34.139804483857006,6.6226780439183655,11.205748350940539,91,15,0.0,207,17721362265418,7,37.2,-530.0407104492188,0.22360000014305115,0,0.0,0.0,,,,,0,,3,0.0,
Raw,3726239,3705642000000,,,-1329526433789539510,0.34595489501953125,34.139804483857006,6.6226780439183655,11.205748350940539,91,1,0.0,207,17721351231975,21,26.7,-562.52392578125,0.3276999890804291,0,0.0,0.0,,,,,0,,3,0.0,
Raw,3726240,3705642000000,,,-1329526433789539510,0.34595489501953125,34.139804483857006,6.6226780439183655,11.205748350940539,91,24,0.0,207,17721365013183,40,21.6,345.2674255371094,1.0540000200271606,0,0.0,0.0,,,,,0,,3,0.0,
Raw,3726240,3705642000000,,,-1329526433789539510,0.34595489501953125,34.139804483857006,6.6226780439183655,11.205748350940539,91,23,0.0,207,17721355261271,35,22.8,643.9783935546875,1.0089999437332153,0,0.0,0.0,,,,,0,,3,0.0,
Raw,3726240,3705642000000,,,-1329526433789539510,0.34595489501953125,34.139804483857006,6.6226780439183655,11.205748350940539,91,17,0.0,207,17721363997289,11,33.3,-270.4244384765625,0.227400004863739,0,0.0,0.0,,,,,0,,3,0.0,
Raw,3726240,3705642000000,,,-1329526433789539510,0.34595489501953125,34.139804483857006,6.6226780439183655,11.205748350940539,91,2,0.0,15,179739361809275,16,29.5,187.69253540039062,0.028200000524520874,0,0.0,0.0,,,,,0,,1,0.0,
Raw,3726241,3705642000000,,,-1329526433789539510,0.34595489501953125,34.139804483857006,6.6226780439183655,11.205748350940539,91,5,0.0,15,179739352258256,10,34.7,-654.9783935546875,0.04010000079870224,0,0.0,0.0,,,,,0,,1,0.0,
Raw,3726241,3705642000000,,,-1329526433789539510,0.34595489501953125,34.139804483857006,6.6226780439183655,11.205748350940539,91,6,0.0,15,179739355246823,24,25.1,592.1982421875,0.4043000042438507,0,0.0,0.0,,,,,0,,1,0.0,
Raw,3726241,3705642000000,,,-1329526433789539510,0.34595489501953125,34.139804483857006,6.6226780439183655,11.205748350940539,91,12,0.0,15,179739364377195,19,27.8,-39.447879791259766,0.4625000059604645,0,0.0,0.0,,,,,0,,1,0.0,
Raw,3726241,3705642000000,,,-1329526433789539510,0.34595489501953125,34.139804483857006,6.6226780439183655,11.205748350940539,91,19,0.0,15,179739349743944,21,26.8,546.4532470703125,0.12470000237226486,0,0.0,0.0,,,,,0,,1,0.0,
Raw,3726241,3705642000000,,,-1329526433789539510,0.34595489501953125,34.139804483857006,6.6226780439183655,11.205748350940539,91,20,0.0,15,179739357587394,6,38.6,-441.68365478515625,0.04560000076889992,0,0.0,0.0,,,,,0,,1,0.0,
Raw,3726242,3705642000000,,,-1329526433789539510,0.34595489501953125,34.139804483857006,6.6226780439183655,11.205748350940539,91,24,0.0,15,179739353505776,9,35.6,598.7112426757812,0.04110000282526016,0,0.0,0.0,,,,,0,,1,0.0,
Raw,3726242,3705642000000,,,-1329526433789539510,0.34595489501953125,34.139804483857006,6.6226780439183655,11.205748350940539,91,25,0.0,15,179739360041726,7,37.0,-460.2123718261719,0.020600000396370888,0,0.0,0.0,,,,,0,,1,0.0,
Raw,3726242,3705642000000,,,-1329526433789539510,0.34595489501953125,34.139804483857006,6.6226780439183655,11.205748350940539,91,29,0.0,15,179739353236452,10,34.7,-447.7870788574219,0.041600000113248825,0,0.0,0.0,,,,,0,,1,0.0,
Fix,gps,37.429764,-122.169517,-8.039154,0.000000,3.216000,1645494922000
NMEA,$GPGSV,3,1,11,02,78,050,30,05,18,158,35,06,29,043,25,11,00,000,32,1*67
,1645494922012
NMEA,$GPGSV,3,2,11,12,82,355,28,19,09,071,27,20,36,133,39,24,25,208,36,1*65
,1645494922012
NMEA,$GPGSV,3,3,11,25,43,313,37,29,23,275,35,31,00,000,,1*5F
,1645494922012
NMEA,$GLGSV,2,1,08,78,72,205,32,82,05,239,37,77,20,161,23,79,42,320,37,1*74
,1645494922012
NMEA,$GLGSV,2,2,08,65,04,097,27,88,56,009,22,87,17,040,23,81,47,265,33,1*71
,1645494922012
NMEA,$GAGSV,1,1,0,7*43
,1645494922013
NMEA,$PQGSV,1,1,0,0*43
,1645494922013
NMEA,$GBGSV,1,1,0,0*47
,1645494922013
NMEA,$GNGSA,A,3,02,05,06,12,19,20,24,25,29,,,,1.0,0.7,0.7,1*32
,1645494922015
NMEA,$GNGSA,A,3,77,78,79,81,87,88,,,,,,,1.0,0.7,0.7,2*34
,1645494922015
NMEA,$GNVTG,,T,,M,0.0,N,0.0,K,A*3D
,1645494922016
NMEA,$GNGGA,015522.00,3725.785838,N,12210.171046,W,1,12,0.7,19.9,M,-27.9,M,,*7A
,1645494922016
NMEA,$GNRMC,015522.00,A,3725.785838,N,12210.171046,W,0.0,,220222,15.0,E,A,V*55
,1645494922016
NMEA,$AIDSTAT,0,0,0,2,-15,23,3*00
,1645494922935
Raw,3727245,3706642000000,,,-1329526433789539502,0.5415935516357422,34.08969132578932,8.126873490467789,10.244369240143973,91,14,0.0,207,17722367054207,13,31.7,234.7783966064453,0.23569999635219574,0,0.0,0.0,,,,,0,,3,0.0,
Raw,3727245,3706642000000,,,-1329526433789539502,0.5415935516357422,34.08969132578932,8.126873490467789,10.244369240143973,91,18,0.0,207,17722351531970,7,37.2,-600.0255737304688,0.2371000051498413,0,0.0,0.0,,,,,0,,3,0.0,
Raw,3727245,3706642000000,,,-1329526433789539502,0.5415935516357422,34.08969132578932,8.126873490467789,10.244369240143973,91,13,0.0,207,17722355992075,27,24.4,806.1039428710938,0.8889999389648438,0,0.0,0.0,,,,,0,,3,0.0,
Raw,3727245,3706642000000,,,-1329526433789539502,0.5415935516357422,34.08969132578932,8.126873490467789,10.244369240143973,91,15,0.0,207,17722362267205,6,38.2,-529.6029052734375,0.22310000658035278,0,0.0,0.0,,,,,0,,3,0.0,
Raw,3727246,3706642000000,,,-1329526433789539502,0.5415935516357422,34.08969132578932,8.126873490467789,10.244369240143973,91,1,0.0,207,17722351233800,19,27.6,-562.0975341796875,0.25780001282691956,0,0.0,0.0,,,,,0,,3,0.0,
Raw,3727246,3706642000000,,,-1329526433789539502,0.5415935516357422,34.08969132578932,8.126873490467789,10.244369240143973,91,24,0.0,207,17722365011872,53,19.1,345.71624755859375,1.2040001153945923,0,0.0,0.0,,,,,0,,3,0.0,
Raw,3727246,3706642000000,,,-1329526433789539502,0.5415935516357422,34.08969132578932,8.126873490467789,10.244369240143973,91,23,0.0,207,17722355259121,31,23.5,644.4176635742188,0.9489999413490295,0,0.0,0.0,,,,,0,,3,0.0,
Raw,3727246,3706642000000,,,-1329526433789539502,0.5415935516357422,34.08969132578932,8.126873490467789,10.244369240143973,91,17,0.0,207,17722363998221,12,32.7,-270.0267028808594,0.22840000689029694,0,0.0,0.0,,,,,0,,3,0.0,
Raw,3727247,3706642000000,,,-1329526433789539502,0.5415935516357422,34.08969132578932,8.126873490467789,10.244369240143973,91,2,0.0,15,179740361808618,16,29.9,188.12002563476562,0.028200000524520874,0,0.0,0.0,,,,,0,,1,0.0,
Raw,3727247,3706642000000,,,-1329526433789539502,0.5415935516357422,34.08969132578932,8.126873490467789,10.244369240143973,91,5,0.0,15,179740352260431,9,35.0,-654.6011352539062,0.03960000351071358,0,0.0,0.0,,,,,0,,1,0.0,
Raw,3727247,3706642000000,,,-1329526433789539502,0.5415935516357422,34.08969132578932,8.126873490467789,10.244369240143973,91,6,0.0,15,179740355244675,46,20.5,592.7933349609375,0.8089999556541443,0,0.0,0.0,,,,,0,,1,0.0,
Raw,3727247,3706642000000,,,-1329526433789539502,0.5415935516357422,34.08969132578932,8.126873490467789,10.244369240143973,91,12,0.0,15,179740364377271,16,29.1,-38.884803771972656,0.03270000219345093,0,0.0,0.0,,,,,0,,1,0.0,
Raw,3727247,3706642000000,,,-1329526433789539502,0.5415935516357422,34.08969132578932,8.126873490467789,10.244369240143973,91,19,0.0,15,179740349742132,21,26.4,546.7791137695312,0.12470000237226486,0,0.0,0.0,,,,,0,,1,0.0,
Raw,3727248,3706642000000,,,-1329526433789539502,0.5415935516357422,34.08969132578932,8.126873490467789,10.244369240143973,91,20,0.0,15,179740357588868,6,38.5,-441.29937744140625,0.04560000076889992,0,0.0,0.0,,,,,0,,1,0.0,
Raw,3727248,3706642000000,,,-1329526433789539502,0.5415935516357422,34.08969132578932,8.126873490467789,10.244369240143973,91,24,0.0,15,179740353503795,8,36.2,599.021728515625,0.04070000350475311,0,0.0,0.0,,,,,0,,1,0.0,
Raw,3727248,3706642000000,,,-1329526433789539502,0.5415935516357422,34.08969132578932,8.126873490467789,10.244369240143973,91,25,0.0,15,179740360043260,7,37.0,-459.8245849609375,0.020600000396370888,0,0.0,0.0,,,,,0,,1,0.0,
Raw,3727248,3706642000000,,,-1329526433789539502,0.5415935516357422,34.08969132578932,8.126873490467789,10.244369240143973,91,29,0.0,15,179740353237938,14,30.8,-447.3960266113281,0.04530000314116478,0,0.0,0.0,,,,,0,,1,0.0,
Fix,gps,37.429765,-122.169520,-8.110504,0.000000,3.216000,1645494923000
NMEA,$GPGSV,3,1,11,02,78,050,30,05,18,158,35,06,29,043,21,11,00,000,32,1*63
,1645494923006
NMEA,$GPGSV,3,2,11,12,82,355,29,19,09,071,26,20,36,133,39,24,25,208,36,1*65
,1645494923008
NMEA,$GPGSV,3,3,11,25,43,313,37,29,23,275,31,31,01,327,,1*5C
,1645494923008
NMEA,$GLGSV,2,1,08,78,72,205,32,82,05,239,37,77,20,161,24,79,42,320,38,1*7C
,1645494923009
NMEA,$GLGSV,2,2,08,65,04,097,28,88,56,009,19,87,17,040,24,81,47,265,33,1*71
,1645494923009
NMEA,$GAGSV,1,1,0,7*43
,1645494923009
NMEA,$PQGSV,1,1,0,0*43
,1645494923009
NMEA,$GBGSV,1,1,0,0*47
,1645494923009
NMEA,$GNGSA,A,3,02,05,06,12,19,20,24,25,29,,,,1.0,0.7,0.7,1*32
,1645494923013
NMEA,$GNGSA,A,3,77,78,79,81,87,88,,,,,,,1.0,0.7,0.7,2*34
,1645494923017
NMEA,$GNVTG,,T,,M,0.0,N,0.0,K,A*3D
,1645494923018
NMEA,$GNGGA,015523.00,3725.785882,N,12210.171170,W,1,12,0.7,19.8,M,-27.9,M,,*7F
,1645494923018
NMEA,$GNRMC,015523.00,A,3725.785882,N,12210.171170,W,0.0,,220222,15.0,E,A,V*51
,1645494923018
