# 
# Header Description:
# 
# Version: v2.0.0.1 Platform: 9 Manufacturer: samsung Model: SM-G960U
# 
# Raw,ElapsedRealtimeMillis,TimeNanos,LeapSecond,TimeUncertaintyNanos,FullBiasNanos,BiasNanos,BiasUncertaintyNanos,DriftNanosPerSecond,DriftUncertaintyNanosPerSecond,HardwareClockDiscontinuityCount,Svid,TimeOffsetNanos,State,ReceivedSvTimeNanos,ReceivedSvTimeUncertaintyNanos,Cn0DbHz,PseudorangeRateMetersPerSecond,PseudorangeRateUncertaintyMetersPerSecond,AccumulatedDeltaRangeState,AccumulatedDeltaRangeMeters,AccumulatedDeltaRangeUncertaintyMeters,CarrierFrequencyHz,CarrierCycles,CarrierPhase,CarrierPhaseUncertainty,MultipathIndicator,SnrInDb,ConstellationType,AgcDb,CarrierFrequencyHz
# 
# Fix,Provider,Latitude,Longitude,Altitude,Speed,Accuracy,(UTC)TimeInMs
# 
# Nav,Svid,Type,Status,MessageId,Sub-messageId,Data(Bytes)
# 
NMEA,$AIDSTAT,0,0,0,2,,23,3*00
,1645494989935
NMEA,$GPGSV,3,1,11,02,78,050,34,05,18,157,40,06,29,043,25,11,00,000,34,1*68
,1645494990008
Raw,3794252,3773642000000,,,-1329526433789538687,0.6947154998779297,28.249363822396845,4.736280763250248,11.475684258982593,91,14,0.0,207,17789367000346,12,32.7,243.19200134277344,0.23440000414848328,0,0.0,0.0,,,,,0,,3,0.0,
Raw,3794254,3773642000000,,,-1329526433789538687,0.6947154998779297,28.249363822396845,4.736280763250248,11.475684258982593,91,18,0.0,207,17789351665367,35,22.9,-599.121337890625,1.003000020980835,0,0.0,0.0,,,,,0,,3,0.0,
Raw,3794254,3773642000000,,,-1329526433789538687,0.6947154998779297,28.249363822396845,4.736280763250248,11.475684258982593,91,13,0.0,207,17789355811325,19,27.9,807.3363647460938,0.2637999951839447,0,0.0,0.0,,,,,0,,3,0.0,
Raw,3794254,3773642000000,,,-1329526433789538687,0.6947154998779297,28.249363822396845,4.736280763250248,11.475684258982593,91,15,0.0,207,17789362384486,13,31.8,-524.2784423828125,0.2282000035047531,0,0.0,0.0,,,,,0,,3,0.0,
Raw,3794255,3773642000000,,,-1329526433789538687,0.6947154998779297,28.249363822396845,4.736280763250248,11.475684258982593,91,1,0.0,207,17789351358839,31,23.6,-561.4085083007812,0.9429999589920044,0,0.0,0.0,,,,,0,,3,0.0,
Raw,3794255,3773642000000,,,-1329526433789538687,0.6947154998779297,28.249363822396845,4.736280763250248,11.475684258982593,91,24,0.0,207,17789364934073,35,22.8,346.9037170410156,0.9924999475479126,0,0.0,0.0,,,,,0,,3,0.0,
Raw,3794255,3773642000000,,,-1329526433789538687,0.6947154998779297,28.249363822396845,4.736280763250248,11.475684258982593,91,23,0.0,207,17789355115050,31,23.1,642.6324462890625,0.9489999413490295,0,0.0,0.0,,,,,0,,3,0.0,
Raw,3794255,3773642000000,,,-1329526433789538687,0.6947154998779297,28.249363822396845,4.736280763250248,11.475684258982593,91,17,0.0,207,17789364057714,11,33.4,-266.29168701171875,0.2289000153541565,0,0.0,0.0,,,,,0,,3,0.0,
Raw,3794255,3773642000000,,,-1329526433789538687,0.6947154998779297,28.249363822396845,4.736280763250248,11.475684258982593,91,2,0.0,15,179807361765772,10,34.4,191.4297637939453,0.023600000888109207,0,0.0,0.0,,,,,0,,1,0.0,
Raw,3794256,3773642000000,,,-1329526433789538687,0.6947154998779297,28.249363822396845,4.736280763250248,11.475684258982593,91,5,0.0,15,179807352406424,6,39.7,-655.9050903320312,0.03760000318288803,0,0.0,0.0,,,,,0,,1,0.0,
Raw,3794256,3773642000000,,,-1329526433789538687,0.6947154998779297,28.249363822396845,4.736280763250248,11.475684258982593,91,6,0.0,15,179807355112123,27,24.6,593.2119750976562,0.5989999771118164,0,0.0,0.0,,,,,0,,1,0.0,
Raw,3794256,3773642000000,,,-1329526433789538687,0.6947154998779297,28.249363822396845,4.736280763250248,11.475684258982593,91,12,0.0,15,179807364384997,13,31.7,-34.264808654785156,0.031200001016259193,0,0.0,0.0,,,,,0,,1,0.0,
Raw,3794256,3773642000000,,,-1329526433789538687,0.6947154998779297,28.249363822396845,4.736280763250248,11.475684258982593,91,19,0.0,15,179807349619802,14,30.5,544.7984008789062,0.03930000215768814,0,0.0,0.0,,,,,0,,1,0.0,
Raw,3794256,3773642000000,,,-1329526433789538687,0.6947154998779297,28.249363822396845,4.736280763250248,11.475684258982593,91,20,0.0,15,179807357686741,8,36.7,-438.50634765625,0.04670000076293945,0,0.0,0.0,,,,,0,,1,0.0,
Raw,3794257,3773642000000,,,-1329526433789538687,0.6947154998779297,28.249363822396845,4.736280763250248,11.475684258982593,91,24,0.0,15,179807353369527,12,32.8,598.3695068359375,0.04340000078082085,0,0.0,0.0,,,,,0,,1,0.0,
Raw,3794257,3773642000000,,,-1329526433789538687,0.6947154998779297,28.249363822396845,4.736280763250248,11.475684258982593,91,25,0.0,15,179807360145299,16,29.2,-457.5457458496094,0.02670000120997429,0,0.0,0.0,,,,,0,,1,0.0,
Raw,3794257,3773642000000,,,-1329526433789538687,0.6947154998779297,28.249363822396845,4.736280763250248,11.475684258982593,91,29,0.0,15,179807353337529,8,36.9,-448.1714782714844,0.04070000350475311,0,0.0,0.0,,,,,0,,1,0.0,
Raw,3794257,3773642000000,,,-1329526433789538687,0.6947154998779297,28.249363822396845,4.736280763250248,11.475684258982593,91,31,0.0,15,179807346426787,721,13.3,-480.50103759765625,17.100500106811523,0,0.0,0.0,,,,,0,,1,0.0,
NMEA,$GPGSV,3,2,11,12,82,355,32,19,09,071,31,20,36,133,37,24,25,208,33,1*62
,1645494990010
NMEA,$GPGSV,3,3,11,25,43,313,29,29,23,275,37,31,01,327,13,1*57
,1645494990011
NMEA,$GLGSV,2,1,08,78,72,205,33,82,05,240,23,77,18,161,28,79,42,320,32,1*7B
,1645494990011
NMEA,$GLGSV,2,2,08,65,04,097,24,88,56,011,23,87,17,040,23,81,47,265,33,1*7A
,1645494990011
NMEA,$GAGSV,1,1,0,7*43
,1645494990011
NMEA,$PQGSV,1,1,0,0*43
,1645494990013
NMEA,$GBGSV,1,1,0,0*47
,1645494990013
Fix,gps,37.429920,-122.169461,-11.035645,0.000000,3.216000,1645494990000
NMEA,$GNGSA,A,3,02,05,06,12,19,20,24,25,29,,,,1.0,0.7,0.7,1*32
,1645494990019
NMEA,$GNGSA,A,3,77,78,79,81,82,87,88,,,,,,1.0,0.7,0.7,2*3E
,1645494990019
NMEA,$GNVTG,,T,,M,0.0,N,0.0,K,A*3D
,1645494990019
NMEA,$GNGGA,015630.00,3725.795172,N,12210.167661,W,1,12,0.7,16.9,M,-27.9,M,,*77
,1645494990019
NMEA,$GNRMC,015630.00,A,3725.795172,N,12210.167661,W,0.0,,220222,15.0,E,A,V*57
,1645494990020
NMEA,$AIDSTAT,0,0,0,2,-14,23,3*00
,1645494990935
NMEA,$GPGSV,3,1,11,02,78,050,34,05,18,157,38,06,29,043,26,11,00,000,33,1*63
,1645494991006
NMEA,$GPGSV,3,2,11,12,82,355,35,19,09,071,29,20,36,133,36,24,25,208,33,1*6D
,1645494991014
NMEA,$GPGSV,3,3,11,25,43,313,30,29,23,275,34,31,01,327,13,1*5C
,1645494991014
NMEA,$GLGSV,2,1,08,78,72,205,34,82,05,240,23,77,18,161,22,79,42,320,30,1*74
,1645494991014
NMEA,$GLGSV,2,2,08,65,04,097,23,88,56,011,33,87,17,040,26,81,47,265,35,1*7F
,1645494991015
NMEA,$GAGSV,1,1,0,7*43
,1645494991016
NMEA,$PQGSV,1,1,0,0*43
,1645494991016
NMEA,$GBGSV,1,1,0,0*47
,1645494991016
Fix,gps,37.429917,-122.169461,-10.584259,0.000000,3.216000,1645494991000
Raw,3795293,3774642000000,,,-1329526433789538688,0.08539009094238281,29.404305678326637,2.2581553150785254,11.48668853140838,91,14,0.0,207,17790366999613,10,34.4,243.7342071533203,0.23110000789165497,0,0.0,0.0,,,,,0,,3,0.0,
Raw,3795293,3774642000000,,,-1329526433789538688,0.08539009094238281,29.404305678326637,2.2581553150785254,11.48668853140838,91,18,0.0,207,17790351667508,31,23.4,-599.4772338867188,0.9429999589920044,0,0.0,0.0,,,,,0,,3,0.0,
Raw,3795293,3774642000000,,,-1329526433789538688,0.08539009094238281,29.404305678326637,2.2581553150785254,11.48668853140838,91,13,0.0,207,17790355808594,35,22.3,807.1619873046875,1.0089999437332153,0,0.0,0.0,,,,,0,,3,0.0,
Raw,3795293,3774642000000,,,-1329526433789538688,0.08539009094238281,29.404305678326637,2.2581553150785254,11.48668853140838,91,15,0.0,207,17790362386322,16,29.6,-523.7223510742188,0.2296999990940094,0,0.0,0.0,,,,,0,,3,0.0,
Raw,3795293,3774642000000,,,-1329526433789538688,0.08539009094238281,29.404305678326637,2.2581553150785254,11.48668853140838,91,1,0.0,207,17790351360729,35,22.7,-561.6235961914062,1.003000020980835,0,0.0,0.0,,,,,0,,3,0.0,
Raw,3795293,3774642000000,,,-1329526433789538688,0.08539009094238281,29.404305678326637,2.2581553150785254,11.48668853140838,91,24,0.0,207,17790364932861,12,32.7,347.60552978515625,0.22990001738071442,0,0.0,0.0,,,,,0,,3,0.0,
Raw,3795293,3774642000000,,,-1329526433789538688,0.08539009094238281,29.404305678326637,2.2581553150785254,11.48668853140838,91,23,0.0,207,17790355112936,24,25.7,642.3458862304688,0.6042999625205994,0,0.0,0.0,,,,,0,,3,0.0,
Raw,3795293,3774642000000,,,-1329526433789538688,0.08539009094238281,29.404305678326637,2.2581553150785254,11.48668853140838,91,17,0.0,207,17790364058595,9,35.0,-265.763427734375,0.22760000824928284,0,0.0,0.0,,,,,0,,3,0.0,
Raw,3795294,3774642000000,,,-1329526433789538688,0.08539009094238281,29.404305678326637,2.2581553150785254,11.48668853140838,91,2,0.0,15,179808361765104,11,33.7,191.88099670410156,0.024400001391768456,0,0.0,0.0,,,,,0,,1,0.0,
Raw,3795294,3774642000000,,,-1329526433789538688,0.08539009094238281,29.404305678326637,2.2581553150785254,11.48668853140838,91,5,0.0,15,179808352408614,7,37.6,-655.5564575195312,0.038600001484155655,0,0.0,0.0,,,,,0,,1,0.0,
Raw,3795294,3774642000000,,,-1329526433789538688,0.08539009094238281,29.404305678326637,2.2581553150785254,11.48668853140838,91,6,0.0,15,179808355110073,24,25.9,593.6265869140625,0.4043000042438507,0,0.0,0.0,,,,,0,,1,0.0,
Raw,3795294,3774642000000,,,-1329526433789538688,0.08539009094238281,29.404305678326637,2.2581553150785254,11.48668853140838,91,12,0.0,15,179808364385103,10,34.7,-33.797462463378906,0.02810000069439411,0,0.0,0.0,,,,,0,,1,0.0,
Raw,3795294,3774642000000,,,-1329526433789538688,0.08539009094238281,29.404305678326637,2.2581553150785254,11.48668853140838,91,19,0.0,15,179808349617942,16,29.0,545.0718994140625,0.04020000249147415,0,0.0,0.0,,,,,0,,1,0.0,
Raw,3795294,3774642000000,,,-1329526433789538688,0.08539009094238281,29.404305678326637,2.2581553150785254,11.48668853140838,91,20,0.0,15,179808357688207,8,36.1,-438.0828857421875,0.04670000076293945,0,0.0,0.0,,,,,0,,1,0.0,
Raw,3795294,3774642000000,,,-1329526433789538688,0.08539009094238281,29.404305678326637,2.2581553150785254,11.48668853140838,91,24,0.0,15,179808353367508,11,33.4,598.77978515625,0.04240000247955322,0,0.0,0.0,,,,,0,,1,0.0,
Raw,3795294,3774642000000,,,-1329526433789538688,0.08539009094238281,29.404305678326637,2.2581553150785254,11.48668853140838,91,25,0.0,15,179808360146820,14,30.1,-457.0221252441406,0.025800000876188278,0,0.0,0.0,,,,,0,,1,0.0,
Raw,3795294,3774642000000,,,-1329526433789538688,0.08539009094238281,29.404305678326637,2.2581553150785254,11.48668853140838,91,29,0.0,15,179808353338991,10,34.2,-447.75384521484375,0.041600000113248825,0,0.0,0.0,,,,,0,,1,0.0,
Raw,3795294,3774642000000,,,-1329526433789538688,0.08539009094238281,29.404305678326637,2.2581553150785254,11.48668853140838,91,31,0.0,15,179808346428390,836,13.3,-480.50103759765625,18.600500106811523,0,0.0,0.0,,,,,0,,1,0.0,
NMEA,$GNGSA,A,3,02,05,06,12,19,20,24,25,29,,,,1.0,0.7,0.7,1*32
,1645494991022
NMEA,$GNGSA,A,3,77,78,79,81,82,87,88,,,,,,1.0,0.7,0.7,2*3E
,1645494991022
NMEA,$GNVTG,,T,,M,0.0,N,0.0,K,A*3D
,1645494991022
NMEA,$GNGGA,015631.00,3725.795022,N,12210.167637,W,1,12,0.7,17.3,M,-27.9,M,,*7A
,1645494991022
NMEA,$GNRMC,015631.00,A,3725.795022,N,12210.167637,W,0.0,,220222,15.0,E,A,V*51
,1645494991022
NMEA,$AIDSTAT,0,0,0,2,-7,23,3*00
,1645494991936
NMEA,$GPGSV,3,1,11,02,78,050,33,05,18,157,38,06,29,043,28,11,00,000,35,1*6C
,1645494992007
NMEA,$GPGSV,3,2,11,12,82,355,35,19,09,071,27,20,36,133,35,24,25,208,34,1*67
,1645494992007
Fix,gps,37.429915,-122.169460,-10.688477,0.000000,3.216000,1645494992000
Raw,3796253,3775642000000,,,-1329526433789538688,0.08539009094238281,33.649790566414595,3.58596965943663,10.904666940187557,91,14,0.0,207,17791366998669,9,35.6,244.7870330810547,0.2305999994277954,0,0.0,0.0,,,,,0,,3,0.0,
Raw,3796253,3775642000000,,,-1329526433789538688,0.08539009094238281,33.649790566414595,3.58596965943663,10.904666940187557,91,18,0.0,207,17791351669522,27,24.4,-597.847412109375,0.8829999566078186,0,0.0,0.0,,,,,0,,3,0.0,
Raw,3796253,3775642000000,,,-1329526433789538688,0.08539009094238281,33.649790566414595,3.58596965943663,10.904666940187557,91,13,0.0,207,17791355805958,21,26.2,808.6651611328125,0.3337000012397766,0,0.0,0.0,,,,,0,,3,0.0,
Raw,3796253,3775642000000,,,-1329526433789538688,0.08539009094238281,33.649790566414595,3.58596965943663,10.904666940187557,91,15,0.0,207,17791362388002,14,30.4,-522.8121948242188,0.2287999987602234,0,0.0,0.0,,,,,0,,3,0.0,
Raw,3796253,3775642000000,,,-1329526433789538688,0.08539009094238281,33.649790566414595,3.58596965943663,10.904666940187557,91,1,0.0,207,17791351362619,53,19.9,-560.1644897460938,1.2130000591278076,0,0.0,0.0,,,,,0,,3,0.0,
Raw,3796253,3775642000000,,,-1329526433789538688,0.08539009094238281,33.649790566414595,3.58596965943663,10.904666940187557,91,24,0.0,207,17791364931676,27,24.9,348.47454833984375,0.872499942779541,0,0.0,0.0,,,,,0,,3,0.0,
Raw,3796253,3775642000000,,,-1329526433789538688,0.08539009094238281,33.649790566414595,3.58596965943663,10.904666940187557,91,23,0.0,207,17791355110893,21,26.7,643.2997436523438,0.3337000012397766,0,0.0,0.0,,,,,0,,3,0.0,
Raw,3796253,3775642000000,,,-1329526433789538688,0.08539009094238281,33.649790566414595,3.58596965943663,10.904666940187557,91,17,0.0,207,17791364059505,8,36.5,-264.8074035644531,0.22720001637935638,0,0.0,0.0,,,,,0,,3,0.0,
Raw,3796253,3775642000000,,,-1329526433789538688,0.08539009094238281,33.649790566414595,3.58596965943663,10.904666940187557,91,2,0.0,15,179809361764491,11,33.3,192.88223266601562,0.024400001391768456,0,0.0,0.0,,,,,0,,1,0.0,
Raw,3796253,3775642000000,,,-1329526433789538688,0.08539009094238281,33.649790566414595,3.58596965943663,10.904666940187557,91,5,0.0,15,179809352410804,7,37.6,-654.595947265625,0.038600001484155655,0,0.0,0.0,,,,,0,,1,0.0,
Raw,3796253,3775642000000,,,-1329526433789538688,0.08539009094238281,33.649790566414595,3.58596965943663,10.904666940187557,91,6,0.0,15,179809355108104,19,27.7,594.5396728515625,0.06379999965429306,0,0.0,0.0,,,,,0,,1,0.0,
Raw,3796253,3775642000000,,,-1329526433789538688,0.08539009094238281,33.649790566414595,3.58596965943663,10.904666940187557,91,12,0.0,15,179809364385237,10,34.6,-32.761497497558594,0.02810000069439411,0,0.0,0.0,,,,,0,,1,0.0,
Raw,3796253,3775642000000,,,-1329526433789538688,0.08539009094238281,33.649790566414595,3.58596965943663,10.904666940187557,91,19,0.0,15,179809349616141,21,26.7,546.0370483398438,0.12470000237226486,0,0.0,0.0,,,,,0,,1,0.0,
Raw,3796253,3775642000000,,,-1329526433789538688,0.08539009094238281,33.649790566414595,3.58596965943663,10.904666940187557,91,20,0.0,15,179809357689652,9,35.4,-437.0791320800781,0.0471000038087368,0,0.0,0.0,,,,,0,,1,0.0,
Raw,3796253,3775642000000,,,-1329526433789538688,0.08539009094238281,33.649790566414595,3.58596965943663,10.904666940187557,91,24,0.0,15,179809353365485,10,34.0,599.7669677734375,0.041600000113248825,0,0.0,0.0,,,,,0,,1,0.0,
Raw,3796254,3775642000000,,,-1329526433789538688,0.08539009094238281,33.649790566414595,3.58596965943663,10.904666940187557,91,25,0.0,15,179809360148366,13,31.5,-456.1473083496094,0.025200000032782555,0,0.0,0.0,,,,,0,,1,0.0,
Raw,3796254,3775642000000,,,-1329526433789538688,0.08539009094238281,33.649790566414595,3.58596965943663,10.904666940187557,91,29,0.0,15,179809353340508,10,34.2,-446.8531494140625,0.041600000113248825,0,0.0,0.0,,,,,0,,1,0.0,
Raw,3796254,3775642000000,,,-1329526433789538688,0.08539009094238281,33.649790566414595,3.58596965943663,10.904666940187557,91,31,0.0,15,179809346429993,960,13.3,-480.50103759765625,20.100500106811523,0,0.0,0.0,,,,,0,,1,0.0,
NMEA,$GPGSV,3,3,11,25,43,313,32,29,23,275,34,31,01,327,13,1*5E
,1645494992008
NMEA,$GLGSV,2,1,08,78,72,205,36,82,05,240,24,77,18,161,26,79,42,320,30,1*75
,1645494992008
NMEA,$GLGSV,2,2,08,65,04,097,20,88,56,011,25,87,17,040,27,81,47,265,37,1*78
,1645494992008
NMEA,$GAGSV,1,1,0,7*43
,1645494992008
NMEA,$PQGSV,1,1,0,0*43
,1645494992008
NMEA,$GBGSV,1,1,0,0*47
,1645494992009
NMEA,$GNGSA,A,3,02,05,06,12,19,20,24,25,29,,,,1.0,0.7,0.7,1*32
,1645494992015
NMEA,$GNGSA,A,3,77,78,79,81,82,87,88,,,,,,1.0,0.7,0.7,2*3E
,1645494992016
NMEA,$GNVTG,,T,,M,0.0,N,0.0,K,A*3D
,1645494992016
NMEA,$GNGGA,015632.00,3725.794907,N,12210.167573,W,1,12,0.7,17.2,M,-27.9,M,,*74
,1645494992016
NMEA,$GNRMC,015632.00,A,3725.794907,N,12210.167573,W,0.0,,220222,15.0,E,A,V*5E
,1645494992016
NMEA,$AIDSTAT,0,0,0,2,-11,23,3*00
,1645494992934
NMEA,$GPGSV,3,1,11,02,78,050,36,05,18,157,38,06,29,043,29,11,00,000,38,1*65
,1645494993013
Raw,3797260,3776642000000,,,-1329526433789538674,0.7779350280761719,32.86164428573102,6.227767654956565,9.963749557022926,91,14,0.0,207,17792366997925,9,35.9,245.3284454345703,0.2305999994277954,0,0.0,0.0,,,,,0,,3,0.0,
Raw,3797261,3776642000000,,,-1329526433789538674,0.7779350280761719,32.86164428573102,6.227767654956565,9.963749557022926,91,18,0.0,207,17792351671527,31,23.7,-597.0887451171875,0.9429999589920044,0,0.0,0.0,,,,,0,,3,0.0,
Raw,3797261,3776642000000,,,-1329526433789538674,0.7779350280761719,32.86164428573102,6.227767654956565,9.963749557022926,91,13,0.0,207,17792355803327,27,24.6,809.03466796875,0.8889999389648438,0,0.0,0.0,,,,,0,,3,0.0,
Raw,3797261,3776642000000,,,-1329526433789538674,0.7779350280761719,32.86164428573102,6.227767654956565,9.963749557022926,91,15,0.0,207,17792362389797,13,31.1,-522.2159423828125,0.2282000035047531,0,0.0,0.0,,,,,0,,3,0.0,
Raw,3797261,3776642000000,,,-1329526433789538674,0.7779350280761719,32.86164428573102,6.227767654956565,9.963749557022926,91,1,0.0,207,17792351364487,62,19.9,-560.1644897460938,2.7130000591278076,0,0.0,0.0,,,,,0,,3,0.0,
Raw,3797261,3776642000000,,,-1329526433789538674,0.7779350280761719,32.86164428573102,6.227767654956565,9.963749557022926,91,24,0.0,207,17792364930640,13,31.2,349.1014404296875,0.23120000958442688,0,0.0,0.0,,,,,0,,3,0.0,
Raw,3797261,3776642000000,,,-1329526433789538674,0.7779350280761719,32.86164428573102,6.227767654956565,9.963749557022926,91,23,0.0,207,17792355108736,21,26.3,643.76220703125,0.3337000012397766,0,0.0,0.0,,,,,0,,3,0.0,
Raw,3797261,3776642000000,,,-1329526433789538674,0.7779350280761719,32.86164428573102,6.227767654956565,9.963749557022926,91,17,0.0,207,17792364060353,6,38.2,-264.2802734375,0.22610001266002655,0,0.0,0.0,,,,,0,,3,0.0,
Raw,3797261,3776642000000,,,-1329526433789538674,0.7779350280761719,32.86164428573102,6.227767654956565,9.963749557022926,91,2,0.0,15,179810361763824,9,35.6,193.39793395996094,0.023100001737475395,0,0.0,0.0,,,,,0,,1,0.0,
Raw,3797261,3776642000000,,,-1329526433789538674,0.7779350280761719,32.86164428573102,6.227767654956565,9.963749557022926,91,5,0.0,15,179810352412980,7,37.9,-654.2169189453125,0.038600001484155655,0,0.0,0.0,,,,,0,,1,0.0,
Raw,3797261,3776642000000,,,-1329526433789538674,0.7779350280761719,32.86164428573102,6.227767654956565,9.963749557022926,91,6,0.0,15,179810355106097,16,29.0,594.986083984375,0.04920000210404396,0,0.0,0.0,,,,,0,,1,0.0,
Raw,3797261,3776642000000,,,-1329526433789538674,0.7779350280761719,32.86164428573102,6.227767654956565,9.963749557022926,91,12,0.0,15,179810364385332,6,38.1,-32.266143798828125,0.026100000366568565,0,0.0,0.0,,,,,0,,1,0.0,
Raw,3797261,3776642000000,,,-1329526433789538674,0.7779350280761719,32.86164428573102,6.227767654956565,9.963749557022926,91,19,0.0,15,179810349614342,19,27.4,546.392578125,0.05480000376701355,0,0.0,0.0,,,,,0,,1,0.0,
Raw,3797262,3776642000000,,,-1329526433789538674,0.7779350280761719,32.86164428573102,6.227767654956565,9.963749557022926,91,20,0.0,15,179810357691091,9,35.0,-436.614013671875,0.0471000038087368,0,0.0,0.0,,,,,0,,1,0.0,
Raw,3797262,3776642000000,,,-1329526433789538674,0.7779350280761719,32.86164428573102,6.227767654956565,9.963749557022926,91,24,0.0,15,179810353363497,12,32.8,600.156982421875,0.04340000078082085,0,0.0,0.0,,,,,0,,1,0.0,
Raw,3797262,3776642000000,,,-1329526433789538674,0.7779350280761719,32.86164428573102,6.227767654956565,9.963749557022926,91,25,0.0,15,179810360149860,13,31.4,-455.67425537109375,0.025200000032782555,0,0.0,0.0,,,,,0,,1,0.0,
Raw,3797262,3776642000000,,,-1329526433789538674,0.7779350280761719,32.86164428573102,6.227767654956565,9.963749557022926,91,29,0.0,15,179810353341971,9,35.5,-446.4354553222656,0.04110000282526016,0,0.0,0.0,,,,,0,,1,0.0,
Raw,3797262,3776642000000,,,-1329526433789538674,0.7779350280761719,32.86164428573102,6.227767654956565,9.963749557022926,91,31,0.0,15,179810346431595,1095,13.3,-480.50103759765625,21.600500106811523,0,0.0,0.0,,,,,0,,1,0.0,
NMEA,$GPGSV,3,2,11,12,82,355,38,19,09,071,27,20,36,133,35,24,25,208,33,1*6D
,1645494993014
NMEA,$GPGSV,3,3,11,25,43,313,31,29,23,275,36,31,01,327,13,1*5F
,1645494993014
NMEA,$GLGSV,2,1,08,78,72,205,36,82,05,240,24,77,18,161,25,79,42,320,31,1*77
,1645494993014
NMEA,$GLGSV,2,2,08,65,04,097,20,88,56,011,31,87,17,040,26,81,47,265,38,1*73
,1645494993014
NMEA,$GAGSV,1,1,0,7*43
,1645494993014
NMEA,$PQGSV,1,1,0,0*43
,1645494993014
NMEA,$GBGSV,1,1,0,0*47
,1645494993015
Fix,gps,37.429915,-122.169458,-10.576874,0.000000,3.216000,1645494993000
NMEA,$GNGSA,A,3,02,05,06,12,19,20,24,25,29,,,,1.0,0.7,0.7,1*32
,1645494993021
NMEA,$GNGSA,A,3,77,78,79,81,82,87,88,,,,,,1.0,0.7,0.7,2*3E
,1645494993021
NMEA,$GNVTG,,T,,M,0.0,N,0.0,K,A*3D
,1645494993021
NMEA,$GNGGA,015633.00,3725.794900,N,12210.167508,W,1,12,0.7,17.4,M,-27.9,M,,*78
,1645494993021
NMEA,$GNRMC,015633.00,A,3725.794900,N,12210.167508,W,0.0,,220222,15.0,E,A,V*54
,1645494993021
NMEA,$AIDSTAT,0,0,0,2,-11,23,3*00
,1645494993935
Fix,gps,37.429914,-122.169458,-10.510559,0.000000,3.216000,1645494994000
Raw,3798281,3777642000000,,,-1329526433789538666,0.9139690399169922,34.697044611675665,7.541659650239441,9.926858960432986,91,14,0.0,207,17793366997094,9,35.9,245.44789123535156,0.2305999994277954,0,0.0,0.0,,,,,0,,3,0.0,
Raw,3798281,3777642000000,,,-1329526433789538666,0.9139690399169922,34.697044611675665,7.541659650239441,9.926858960432986,91,18,0.0,207,17793351673543,27,24.3,-597.5195922851562,0.8829999566078186,0,0.0,0.0,,,,,0,,3,0.0,
Raw,3798282,3777642000000,,,-1329526433789538666,0.9139690399169922,34.697044611675665,7.541659650239441,9.926858960432986,91,13,0.0,207,17793355800602,24,25.5,809.143310546875,0.6042999625205994,0,0.0,0.0,,,,,0,,3,0.0,
Raw,3798282,3777642000000,,,-1329526433789538666,0.9139690399169922,34.697044611675665,7.541659650239441,9.926858960432986,91,15,0.0,207,17793362391526,13,31.3,-522.1748657226562,0.2282000035047531,0,0.0,0.0,,,,,0,,3,0.0,
Raw,3798282,3777642000000,,,-1329526433789538666,0.9139690399169922,34.697044611675665,7.541659650239441,9.926858960432986,91,1,0.0,207,17793351366356,81,19.9,-560.1644897460938,4.213000297546387,0,0.0,0.0,,,,,0,,3,0.0,
Raw,3798282,3777642000000,,,-1329526433789538666,0.9139690399169922,34.697044611675665,7.541659650239441,9.926858960432986,91,24,0.0,207,17793364929542,16,29.3,349.1249084472656,0.23270000517368317,0,0.0,0.0,,,,,0,,3,0.0,
Raw,3798282,3777642000000,,,-1329526433789538666,0.9139690399169922,34.697044611675665,7.541659650239441,9.926858960432986,91,23,0.0,207,17793355106569,21,26.6,643.6219482421875,0.3337000012397766,0,0.0,0.0,,,,,0,,3,0.0,
Raw,3798282,3777642000000,,,-1329526433789538666,0.9139690399169922,34.697044611675665,7.541659650239441,9.926858960432986,91,17,0.0,207,17793364061228,6,38.8,-264.25885009765625,0.22610001266002655,0,0.0,0.0,,,,,0,,3,0.0,
Raw,3798282,3777642000000,,,-1329526433789538666,0.9139690399169922,34.697044611675665,7.541659650239441,9.926858960432986,91,2,0.0,15,179811361763173,7,37.1,193.3944091796875,0.022100001573562622,0,0.0,0.0,,,,,0,,1,0.0,
Raw,3798282,3777642000000,,,-1329526433789538666,0.9139690399169922,34.697044611675665,7.541659650239441,9.926858960432986,91,5,0.0,15,179811352415158,6,38.2,-654.2675170898438,0.038100000470876694,0,0.0,0.0,,,,,0,,1,0.0,
Raw,3798282,3777642000000,,,-1329526433789538666,0.9139690399169922,34.697044611675665,7.541659650239441,9.926858960432986,91,6,0.0,15,179811355104146,16,29.0,594.9476928710938,0.04920000210404396,0,0.0,0.0,,,,,0,,1,0.0,
Raw,3798282,3777642000000,,,-1329526433789538666,0.9139690399169922,34.697044611675665,7.541659650239441,9.926858960432986,91,12,0.0,15,179811364385449,7,37.7,-32.2167854309082,0.026600001379847527,0,0.0,0.0,,,,,0,,1,0.0,
Raw,3798282,3777642000000,,,-1329526433789538666,0.9139690399169922,34.697044611675665,7.541659650239441,9.926858960432986,91,19,0.0,15,179811349612441,19,27.6,546.28515625,0.05480000376701355,0,0.0,0.0,,,,,0,,1,0.0,
Raw,3798282,3777642000000,,,-1329526433789538666,0.9139690399169922,34.697044611675665,7.541659650239441,9.926858960432986,91,20,0.0,15,179811357692546,8,36.3,-436.5648193359375,0.04670000076293945,0,0.0,0.0,,,,,0,,1,0.0,
Raw,3798282,3777642000000,,,-1329526433789538666,0.9139690399169922,34.697044611675665,7.541659650239441,9.926858960432986,91,24,0.0,15,179811353361485,11,33.4,600.1301879882812,0.04240000247955322,0,0.0,0.0,,,,,0,,1,0.0,
Raw,3798283,3777642000000,,,-1329526433789538666,0.9139690399169922,34.697044611675665,7.541659650239441,9.926858960432986,91,25,0.0,15,179811360151376,12,32.6,-455.6299133300781,0.023900000378489494,0,0.0,0.0,,,,,0,,1,0.0,
Raw,3798283,3777642000000,,,-1329526433789538666,0.9139690399169922,34.697044611675665,7.541659650239441,9.926858960432986,91,29,0.0,15,179811353343479,8,36.0,-446.4472961425781,0.04070000350475311,0,0.0,0.0,,,,,0,,1,0.0,
Raw,3798283,3777642000000,,,-1329526433789538666,0.9139690399169922,34.697044611675665,7.541659650239441,9.926858960432986,91,31,0.0,15,179811346433198,1240,13.3,-480.50103759765625,23.100502014160156,0,0.0,0.0,,,,,0,,1,0.0,
NMEA,$GPGSV,3,1,11,02,78,050,37,05,18,157,38,06,29,043,29,11,00,000,36,1*6A
,1645494994007
NMEA,$GPGSV,3,2,11,12,82,355,38,19,09,071,28,20,36,133,36,24,25,208,33,1*61
,1645494994007
NMEA,$GPGSV,3,3,11,25,43,313,33,29,23,275,36,31,01,327,13,1*5D
,1645494994007
NMEA,$GLGSV,2,1,08,78,72,205,36,82,05,240,24,77,18,161,26,79,42,320,31,1*74
,1645494994007
NMEA,$GLGSV,2,2,08,65,04,097,20,88,56,011,29,87,17,040,27,81,47,265,39,1*7A
,1645494994008
NMEA,$GAGSV,1,1,0,7*43
,1645494994009
NMEA,$PQGSV,1,1,0,0*43
,1645494994009
NMEA,$GBGSV,1,1,0,0*47
,1645494994009
NMEA,$GNGSA,A,3,02,05,06,12,19,20,24,25,29,,,,1.0,0.7,0.7,1*32
,1645494994016
NMEA,$GNGSA,A,3,77,78,79,81,82,87,88,,,,,,1.0,0.7,0.7,2*3E
,1645494994016
NMEA,$GNVTG,,T,,M,0.0,N,0.0,K,A*3D
,1645494994016
NMEA,$GNGGA,015634.00,3725.794866,N,12210.167453,W,1,12,0.7,17.4,M,-27.9,M,,*71
,1645494994016
NMEA,$GNRMC,015634.00,A,3725.794866,N,12210.167453,W,0.0,,220222,15.0,E,A,V*5D
,1645494994016
NMEA,$AIDSTAT,0,0,0,2,,23,3*00
,1645494994935
NMEA,$GPGSV,3,1,11,02,78,050,37,05,18,157,38,06,29,043,30,11,00,000,36,1*62
,1645494995011
NMEA,$GPGSV,3,2,11,12,82,355,38,19,09,071,27,20,36,133,37,24,25,208,34,1*68
,1645494995011
NMEA,$GPGSV,3,3,11,25,43,313,33,29,23,275,36,31,01,327,13,1*5D
,1645494995012
NMEA,$GLGSV,2,1,08,78,72,205,37,82,05,240,26,77,18,161,26,79,42,320,31,1*77
,1645494995014
Raw,3799258,3778642000000,,,-1329526433789538651,0.4277000427246094,35.09350790409371,7.50770760872743,9.933701539023104,91,14,0.0,207,17794366996198,8,36.5,245.81019592285156,0.23020000755786896,0,0.0,0.0,,,,,0,,3,0.0,
Raw,3799258,3778642000000,,,-1329526433789538651,0.4277000427246094,35.09350790409371,7.50770760872743,9.933701539023104,91,18,0.0,207,17794351675492,24,25.7,-597.2335205078125,0.5982999801635742,0,0.0,0.0,,,,,0,,3,0.0,
Raw,3799258,3778642000000,,,-1329526433789538651,0.4277000427246094,35.09350790409371,7.50770760872743,9.933701539023104,91,13,0.0,207,17794355797821,24,25.6,809.3707275390625,0.6042999625205994,0,0.0,0.0,,,,,0,,3,0.0,
Raw,3799258,3778642000000,,,-1329526433789538651,0.4277000427246094,35.09350790409371,7.50770760872743,9.933701539023104,91,15,0.0,207,17794362393254,14,30.7,-521.8928833007812,0.2287999987602234,0,0.0,0.0,,,,,0,,3,0.0,
Raw,3799258,3778642000000,,,-1329526433789538651,0.4277000427246094,35.09350790409371,7.50770760872743,9.933701539023104,91,1,0.0,207,17794351368224,110,19.9,-560.1644897460938,5.713000297546387,0,0.0,0.0,,,,,0,,3,0.0,
Raw,3799258,3778642000000,,,-1329526433789538651,0.4277000427246094,35.09350790409371,7.50770760872743,9.933701539023104,91,24,0.0,207,17794364928383,16,29.6,349.39752197265625,0.23270000517368317,0,0.0,0.0,,,,,0,,3,0.0,
Raw,3799258,3778642000000,,,-1329526433789538651,0.4277000427246094,35.09350790409371,7.50770760872743,9.933701539023104,91,23,0.0,207,17794355104459,27,24.9,643.4269409179688,0.8889999389648438,0,0.0,0.0,,,,,0,,3,0.0,
Raw,3799258,3778642000000,,,-1329526433789538651,0.4277000427246094,35.09350790409371,7.50770760872743,9.933701539023104,91,17,0.0,207,17794364062115,6,38.6,-263.93267822265625,0.22610001266002655,0,0.0,0.0,,,,,0,,3,0.0,
Raw,3799258,3778642000000,,,-1329526433789538651,0.4277000427246094,35.09350790409371,7.50770760872743,9.933701539023104,91,2,0.0,15,179812361762526,8,36.7,193.68789672851562,0.022700000554323196,0,0.0,0.0,,,,,0,,1,0.0,
Raw,3799259,3778642000000,,,-1329526433789538651,0.4277000427246094,35.09350790409371,7.50770760872743,9.933701539023104,91,5,0.0,15,179812352417346,6,38.2,-654.0375366210938,0.038100000470876694,0,0.0,0.0,,,,,0,,1,0.0,
Raw,3799259,3778642000000,,,-1329526433789538651,0.4277000427246094,35.09350790409371,7.50770760872743,9.933701539023104,91,6,0.0,15,179812355102153,14,30.3,595.13623046875,0.04830000177025795,0,0.0,0.0,,,,,0,,1,0.0,
Raw,3799259,3778642000000,,,-1329526433789538651,0.4277000427246094,35.09350790409371,7.50770760872743,9.933701539023104,91,12,0.0,15,179812364385576,7,37.6,-31.879724502563477,0.026600001379847527,0,0.0,0.0,,,,,0,,1,0.0,
Raw,3799259,3778642000000,,,-1329526433789538651,0.4277000427246094,35.09350790409371,7.50770760872743,9.933701539023104,91,19,0.0,15,179812349610632,19,27.3,546.519287109375,0.05480000376701355,0,0.0,0.0,,,,,0,,1,0.0,
Raw,3799259,3778642000000,,,-1329526433789538651,0.4277000427246094,35.09350790409371,7.50770760872743,9.933701539023104,91,20,0.0,15,179812357694005,7,37.0,-436.30645751953125,0.04610000178217888,0,0.0,0.0,,,,,0,,1,0.0,
Raw,3799259,3778642000000,,,-1329526433789538651,0.4277000427246094,35.09350790409371,7.50770760872743,9.933701539023104,91,24,0.0,15,179812353359484,10,34.0,600.3322143554688,0.041600000113248825,0,0.0,0.0,,,,,0,,1,0.0,
Raw,3799259,3778642000000,,,-1329526433789538651,0.4277000427246094,35.09350790409371,7.50770760872743,9.933701539023104,91,25,0.0,15,179812360152915,12,32.9,-455.34356689453125,0.023900000378489494,0,0.0,0.0,,,,,0,,1,0.0,
Raw,3799259,3778642000000,,,-1329526433789538651,0.4277000427246094,35.09350790409371,7.50770760872743,9.933701539023104,91,29,0.0,15,179812353344964,8,36.0,-446.2081298828125,0.04070000350475311,0,0.0,0.0,,,,,0,,1,0.0,
Raw,3799259,3778642000000,,,-1329526433789538651,0.4277000427246094,35.09350790409371,7.50770760872743,9.933701539023104,91,31,0.0,15,179812346434801,1394,13.3,-480.50103759765625,24.600502014160156,0,0.0,0.0,,,,,0,,1,0.0,
Fix,gps,37.429914,-122.169456,-10.639252,0.000000,3.216000,1645494995000
NMEA,$GLGSV,2,2,08,65,04,097,20,88,56,011,30,87,17,040,25,81,48,267,39,1*7D
,1645494995017
NMEA,$GAGSV,1,1,0,7*43
,1645494995017
NMEA,$PQGSV,1,1,0,0*43
,1645494995017
NMEA,$GBGSV,1,1,0,0*47
,1645494995017
NMEA,$GNGSA,A,3,02,05,06,12,19,20,24,25,29,,,,1.0,0.7,0.7,1*32
,1645494995028
NMEA,$GNGSA,A,3,77,78,79,81,82,87,88,,,,,,1.0,0.7,0.7,2*3E
,1645494995029
NMEA,$GNVTG,,T,,M,0.0,N,0.0,K,A*3D
,1645494995029
NMEA,$GNGGA,015635.00,3725.794823,N,12210.167367,W,1,12,0.7,17.3,M,-27.9,M,,*76
,1645494995029
NMEA,$GNRMC,015635.00,A,3725.794823,N,12210.167367,W,0.0,,220222,15.0,E,A,V*5D
,1645494995029
NMEA,$AIDSTAT,0,0,0,2,-11,23,3*00
,1645494995935
NMEA,$GPGSV,3,1,11,02,78,050,37,05,18,157,38,06,29,043,30,11,00,000,36,1*62
,1645494996005
NMEA,$GPGSV,3,2,11,12,82,355,38,19,09,071,28,20,36,133,38,24,25,208,34,1*68
,1645494996006
Fix,gps,37.429913,-122.169455,-10.397583,0.000000,3.216000,1645494996000
NMEA,$GPGSV,3,3,11,25,43,313,34,29,23,275,37,31,01,327,13,1*5B
,1645494996006
Raw,3800267,3779642000000,,,-1329526433789538638,0.7791404724121094,34.54082616372034,8.051008666894361,10.579222959405554,91,14,0.0,207,17795366995460,8,36.6,246.26565551757812,0.23020000755786896,0,0.0,0.0,,,,,0,,3,0.0,
Raw,3800267,3779642000000,,,-1329526433789538638,0.7791404724121094,34.54082616372034,8.051008666894361,10.579222959405554,91,18,0.0,207,17795351677466,21,26.7,-596.9483032226562,0.3276999890804291,0,0.0,0.0,,,,,0,,3,0.0,
Raw,3800267,3779642000000,,,-1329526433789538638,0.7791404724121094,34.54082616372034,8.051008666894361,10.579222959405554,91,13,0.0,207,17795355795111,21,26.8,809.6827392578125,0.3337000012397766,0,0.0,0.0,,,,,0,,3,0.0,
Raw,3800267,3779642000000,,,-1329526433789538638,0.7791404724121094,34.54082616372034,8.051008666894361,10.579222959405554,91,15,0.0,207,17795362394997,14,30.9,-521.4937744140625,0.2287999987602234,0,0.0,0.0,,,,,0,,3,0.0,
Raw,3800267,3779642000000,,,-1329526433789538638,0.7791404724121094,34.54082616372034,8.051008666894361,10.579222959405554,91,1,0.0,207,17795351370373,126,14.4,-559.4816284179688,3.943000078201294,0,0.0,0.0,,,,,0,,3,0.0,
Raw,3800268,3779642000000,,,-1329526433789538638,0.7791404724121094,34.54082616372034,8.051008666894361,10.579222959405554,91,24,0.0,207,17795364927214,16,29.8,349.6684875488281,0.23270000517368317,0,0.0,0.0,,,,,0,,3,0.0,
Raw,3800268,3779642000000,,,-1329526433789538638,0.7791404724121094,34.54082616372034,8.051008666894361,10.579222959405554,91,23,0.0,207,17795355102286,27,24.6,644.0718383789062,0.8889999389648438,0,0.0,0.0,,,,,0,,3,0.0,
Raw,3800268,3779642000000,,,-1329526433789538638,0.7791404724121094,34.54082616372034,8.051008666894361,10.579222959405554,91,17,0.0,207,17795364062981,6,38.9,-263.5626525878906,0.22610001266002655,0,0.0,0.0,,,,,0,,3,0.0,
Raw,3800268,3779642000000,,,-1329526433789538638,0.7791404724121094,34.54082616372034,8.051008666894361,10.579222959405554,91,2,0.0,15,179813361761888,8,36.7,194.06895446777344,0.022700000554323196,0,0.0,0.0,,,,,0,,1,0.0,
Raw,3800268,3779642000000,,,-1329526433789538638,0.7791404724121094,34.54082616372034,8.051008666894361,10.579222959405554,91,5,0.0,15,179813352419519,6,38.2,-653.730224609375,0.038100000470876694,0,0.0,0.0,,,,,0,,1,0.0,
Raw,3800268,3779642000000,,,-1329526433789538638,0.7791404724121094,34.54082616372034,8.051008666894361,10.579222959405554,91,6,0.0,15,179813355100174,14,30.3,595.4776000976562,0.04830000177025795,0,0.0,0.0,,,,,0,,1,0.0,
Raw,3800268,3779642000000,,,-1329526433789538638,0.7791404724121094,34.54082616372034,8.051008666894361,10.579222959405554,91,12,0.0,15,179813364385693,7,37.6,-31.483015060424805,0.026600001379847527,0,0.0,0.0,,,,,0,,1,0.0,
Raw,3800268,3779642000000,,,-1329526433789538638,0.7791404724121094,34.54082616372034,8.051008666894361,10.579222959405554,91,19,0.0,15,179813349608858,17,28.0,546.7722778320312,0.046800002455711365,0,0.0,0.0,,,,,0,,1,0.0,
Raw,3800268,3779642000000,,,-1329526433789538638,0.7791404724121094,34.54082616372034,8.051008666894361,10.579222959405554,91,20,0.0,15,179813357695463,6,38.1,-435.93316650390625,0.04560000076889992,0,0.0,0.0,,,,,0,,1,0.0,
Raw,3800268,3779642000000,,,-1329526433789538638,0.7791404724121094,34.54082616372034,8.051008666894361,10.579222959405554,91,24,0.0,15,179813353357487,10,34.1,600.7179565429688,0.041600000113248825,0,0.0,0.0,,,,,0,,1,0.0,
Raw,3800268,3779642000000,,,-1329526433789538638,0.7791404724121094,34.54082616372034,8.051008666894361,10.579222959405554,91,25,0.0,15,179813360154426,11,33.8,-455.0275573730469,0.02290000021457672,0,0.0,0.0,,,,,0,,1,0.0,
Raw,3800268,3779642000000,,,-1329526433789538638,0.7791404724121094,34.54082616372034,8.051008666894361,10.579222959405554,91,29,0.0,15,179813353346449,8,36.6,-445.9036865234375,0.04070000350475311,0,0.0,0.0,,,,,0,,1,0.0,
Raw,3800268,3779642000000,,,-1329526433789538638,0.7791404724121094,34.54082616372034,8.051008666894361,10.579222959405554,91,31,0.0,15,179813346436404,1559,13.3,-480.50103759765625,26.100502014160156,0,0.0,0.0,,,,,0,,1,0.0,
NMEA,$GLGSV,2,1,08,78,72,205,37,82,05,240,27,77,18,161,27,79,42,320,31,1*77
,1645494996007
NMEA,$GLGSV,2,2,08,65,04,097,14,88,56,011,30,87,17,040,25,81,48,267,39,1*7A
,1645494996007
NMEA,$GAGSV,1,1,0,7*43
,1645494996007
NMEA,$PQGSV,1,1,0,0*43
,1645494996007
NMEA,$GBGSV,1,1,0,0*47
,1645494996007
NMEA,$GNGSA,A,3,02,05,06,12,19,20,24,25,29,,,,1.0,0.7,0.7,1*32
,1645494996015
NMEA,$GNGSA,A,3,77,78,79,81,82,87,88,,,,,,1.0,0.7,0.7,2*3E
,1645494996015
NMEA,$GNVTG,,T,,M,0.0,N,0.0,K,A*3D
,1645494996015
NMEA,$GNGGA,015636.00,3725.794775,N,12210.167284,W,1,12,0.7,17.5,M,-27.9,M,,*73
,1645494996015
NMEA,$GNRMC,015636.00,A,3725.794775,N,12210.167284,W,0.0,,220222,15.0,E,A,V*5E
,1645494996016
NMEA,$AIDSTAT,0,0,0,2,-13,23,3*00
,1645494996937
Raw,3801256,3780642000000,,,-1329526433789538631,0.8720932006835938,32.93238842161372,9.04025593656528,9.601921572231399,91,14,0.0,207,17796366994638,8,36.3,246.0592803955078,0.23020000755786896,0,0.0,0.0,,,,,0,,3,0.0,
Raw,3801256,3780642000000,,,-1329526433789538631,0.8720932006835938,32.93238842161372,9.04025593656528,9.601921572231399,91,18,0.0,207,17796351679549,31,23.8,-597.435302734375,0.9429999589920044,0,0.0,0.0,,,,,0,,3,0.0,
Raw,3801256,3780642000000,,,-1329526433789538631,0.8720932006835938,32.93238842161372,9.04025593656528,9.601921572231399,91,13,0.0,207,17796355792413,24,25.4,809.3453979492188,0.6042999625205994,0,0.0,0.0,,,,,0,,3,0.0,
Raw,3801256,3780642000000,,,-1329526433789538631,0.8720932006835938,32.93238842161372,9.04025593656528,9.601921572231399,91,15,0.0,207,17796362396782,16,29.1,-521.736083984375,0.2296999990940094,0,0.0,0.0,,,,,0,,3,0.0,
Raw,3801257,3780642000000,,,-1329526433789538631,0.8720932006835938,32.93238842161372,9.04025593656528,9.601921572231399,91,1,0.0,207,17796351372240,152,14.4,-559.4816284179688,5.443000316619873,0,0.0,0.0,,,,,0,,3,0.0,
Raw,3801257,3780642000000,,,-1329526433789538631,0.8720932006835938,32.93238842161372,9.04025593656528,9.601921572231399,91,24,0.0,207,17796364926165,24,25.2,349.00128173828125,0.5877999663352966,0,0.0,0.0,,,,,0,,3,0.0,
Raw,3801257,3780642000000,,,-1329526433789538631,0.8720932006835938,32.93238842161372,9.04025593656528,9.601921572231399,91,23,0.0,207,17796355100086,24,25.2,643.80322265625,0.6042999625205994,0,0.0,0.0,,,,,0,,3,0.0,
Raw,3801258,3780642000000,,,-1329526433789538631,0.8720932006835938,32.93238842161372,9.04025593656528,9.601921572231399,91,17,0.0,207,17796364063902,7,37.4,-263.8392333984375,0.22660000622272491,0,0.0,0.0,,,,,0,,3,0.0,
Raw,3801258,3780642000000,,,-1329526433789538631,0.8720932006835938,32.93238842161372,9.04025593656528,9.601921572231399,91,2,0.0,15,179814361761237,9,35.8,193.7698211669922,0.023100001737475395,0,0.0,0.0,,,,,0,,1,0.0,
Raw,3801258,3780642000000,,,-1329526433789538631,0.8720932006835938,32.93238842161372,9.04025593656528,9.601921572231399,91,5,0.0,15,179814352421707,7,37.6,-654.0399169921875,0.038600001484155655,0,0.0,0.0,,,,,0,,1,0.0,
Raw,3801259,3780642000000,,,-1329526433789538631,0.8720932006835938,32.93238842161372,9.04025593656528,9.601921572231399,91,6,0.0,15,179814355098219,16,29.7,595.13623046875,0.04920000210404396,0,0.0,0.0,,,,,0,,1,0.0,
Raw,3801260,3780642000000,,,-1329526433789538631,0.8720932006835938,32.93238842161372,9.04025593656528,9.601921572231399,91,12,0.0,15,179814364385815,7,37.4,-31.745912551879883,0.026600001379847527,0,0.0,0.0,,,,,0,,1,0.0,
Raw,3801260,3780642000000,,,-1329526433789538631,0.8720932006835938,32.93238842161372,9.04025593656528,9.601921572231399,91,19,0.0,15,179814349607046,19,27.8,546.486572265625,0.05480000376701355,0,0.0,0.0,,,,,0,,1,0.0,
Raw,3801261,3780642000000,,,-1329526433789538631,0.8720932006835938,32.93238842161372,9.04025593656528,9.601921572231399,91,20,0.0,15,179814357696919,7,37.4,-436.200439453125,0.04610000178217888,0,0.0,0.0,,,,,0,,1,0.0,
Raw,3801262,3780642000000,,,-1329526433789538631,0.8720932006835938,32.93238842161372,9.04025593656528,9.601921572231399,91,24,0.0,15,179814353355487,11,33.8,600.3980102539062,0.04240000247955322,0,0.0,0.0,,,,,0,,1,0.0,
Raw,3801262,3780642000000,,,-1329526433789538631,0.8720932006835938,32.93238842161372,9.04025593656528,9.601921572231399,91,25,0.0,15,179814360155977,11,33.3,-455.2966613769531,0.02290000021457672,0,0.0,0.0,,,,,0,,1,0.0,
Raw,3801263,3780642000000,,,-1329526433789538631,0.8720932006835938,32.93238842161372,9.04025593656528,9.601921572231399,91,29,0.0,15,179814353347957,7,37.2,-446.2367858886719,0.04010000079870224,0,0.0,0.0,,,,,0,,1,0.0,
Raw,3801263,3780642000000,,,-1329526433789538631,0.8720932006835938,32.93238842161372,9.04025593656528,9.601921572231399,91,31,0.0,15,179814346438007,1733,13.3,-480.50103759765625,27.600502014160156,0,0.0,0.0,,,,,0,,1,0.0,
NMEA,$GPGSV,3,1,11,02,78,050,36,05,18,157,38,06,29,043,30,11,00,000,36,1*63
,1645494997015
NMEA,$GPGSV,3,2,11,12,82,355,37,19,09,071,28,20,36,133,37,24,25,208,34,1*68
,1645494997016
NMEA,$GPGSV,3,3,11,25,43,313,33,29,23,275,37,31,01,327,13,1*5C
,1645494997016
NMEA,$GLGSV,2,1,08,78,71,202,36,82,05,240,24,77,18,161,25,79,42,320,29,1*7A
,1645494997016
NMEA,$GLGSV,2,2,08,65,04,097,14,88,56,011,25,87,17,040,25,81,48,267,37,1*70
,1645494997017
NMEA,$GAGSV,1,1,0,7*43
,1645494997017
NMEA,$PQGSV,1,1,0,0*43
,1645494997017
NMEA,$GBGSV,1,1,0,0*47
,1645494997018
Fix,gps,37.429912,-122.169454,-10.187744,0.000000,3.216000,1645494997000
NMEA,$GNGSA,A,3,02,05,06,12,19,20,24,25,29,,,,1.0,0.7,0.7,1*32
,1645494997021
NMEA,$GNGSA,A,3,77,78,79,81,82,87,88,,,,,,1.0,0.7,0.7,2*3E
,1645494997022
NMEA,$GNVTG,,T,,M,0.0,N,0.0,K,A*3D
,1645494997022
NMEA,$GNGGA,015637.00,3725.794728,N,12210.167257,W,1,12,0.7,17.7,M,-27.9,M,,*76
,1645494997022
NMEA,$GNRMC,015637.00,A,3725.794728,N,12210.167257,W,0.0,,220222,15.0,E,A,V*59
,1645494997022
NMEA,$AIDSTAT,0,0,0,2,-13,23,3*00
,1645494997934
NMEA,$GPGSV,3,1,11,02,78,050,37,05,18,157,37,06,29,043,30,11,00,000,36,1*6D
,1645494998005
Raw,3802245,3781642000000,,,-1329526433789538628,0.7331161499023438,33.222720958292484,7.874044028901031,9.939794965006076,91,14,0.0,207,17797366993748,8,36.5,246.3671875,0.23020000755786896,0,0.0,0.0,,,,,0,,3,0.0,
Raw,3802246,3781642000000,,,-1329526433789538628,0.7331161499023438,33.222720958292484,7.874044028901031,9.939794965006076,91,18,0.0,207,17797351681468,27,24.9,-597.1636352539062,0.8829999566078186,0,0.0,0.0,,,,,0,,3,0.0,
Raw,3802246,3781642000000,,,-1329526433789538628,0.7331161499023438,33.222720958292484,7.874044028901031,9.939794965006076,91,13,0.0,207,17797355789626,21,26.6,809.6380004882812,0.3337000012397766,0,0.0,0.0,,,,,0,,3,0.0,
Raw,3802246,3781642000000,,,-1329526433789538628,0.7331161499023438,33.222720958292484,7.874044028901031,9.939794965006076,91,15,0.0,207,17797362398456,24,25.6,-521.4771118164062,0.5848000049591064,0,0.0,0.0,,,,,0,,3,0.0,
Raw,3802246,3781642000000,,,-1329526433789538628,0.7331161499023438,33.222720958292484,7.874044028901031,9.939794965006076,91,1,0.0,207,17797351373896,96,15.0,-560.2766723632812,2.323000192642212,0,0.0,0.0,,,,,0,,3,0.0,
Raw,3802246,3781642000000,,,-1329526433789538628,0.7331161499023438,33.222720958292484,7.874044028901031,9.939794965006076,91,24,0.0,207,17797364924924,19,27.3,349.6662902832031,0.24730001389980316,0,0.0,0.0,,,,,0,,3,0.0,
Raw,3802247,3781642000000,,,-1329526433789538628,0.7331161499023438,33.222720958292484,7.874044028901031,9.939794965006076,91,23,0.0,207,17797355098057,24,25.2,643.9932861328125,0.6042999625205994,0,0.0,0.0,,,,,0,,3,0.0,
Raw,3802247,3781642000000,,,-1329526433789538628,0.7331161499023438,33.222720958292484,7.874044028901031,9.939794965006076,91,17,0.0,207,17797364064808,7,37.1,-263.5828552246094,0.22660000622272491,0,0.0,0.0,,,,,0,,3,0.0,
Raw,3802247,3781642000000,,,-1329526433789538628,0.7331161499023438,33.222720958292484,7.874044028901031,9.939794965006076,91,2,0.0,15,179815361760575,8,36.7,194.038818359375,0.022700000554323196,0,0.0,0.0,,,,,0,,1,0.0,
Raw,3802247,3781642000000,,,-1329526433789538628,0.7331161499023438,33.222720958292484,7.874044028901031,9.939794965006076,91,5,0.0,15,179815352423889,7,37.4,-653.9041748046875,0.038600001484155655,0,0.0,0.0,,,,,0,,1,0.0,
Raw,3802247,3781642000000,,,-1329526433789538628,0.7331161499023438,33.222720958292484,7.874044028901031,9.939794965006076,91,6,0.0,15,179815355096220,14,30.1,595.39892578125,0.04830000177025795,0,0.0,0.0,,,,,0,,1,0.0,
Raw,3802248,3781642000000,,,-1329526433789538628,0.7331161499023438,33.222720958292484,7.874044028901031,9.939794965006076,91,12,0.0,15,179815364385930,7,37.9,-31.500452041625977,0.026600001379847527,0,0.0,0.0,,,,,0,,1,0.0,
Raw,3802248,3781642000000,,,-1329526433789538628,0.7331161499023438,33.222720958292484,7.874044028901031,9.939794965006076,91,19,0.0,15,179815349605207,17,28.3,546.5938110351562,0.046800002455711365,0,0.0,0.0,,,,,0,,1,0.0,
Raw,3802248,3781642000000,,,-1329526433789538628,0.7331161499023438,33.222720958292484,7.874044028901031,9.939794965006076,91,20,0.0,15,179815357698364,7,37.6,-435.9890441894531,0.04610000178217888,0,0.0,0.0,,,,,0,,1,0.0,
Raw,3802248,3781642000000,,,-1329526433789538628,0.7331161499023438,33.222720958292484,7.874044028901031,9.939794965006076,91,24,0.0,15,179815353353476,10,34.6,600.5399780273438,0.041600000113248825,0,0.0,0.0,,,,,0,,1,0.0,
Raw,3802248,3781642000000,,,-1329526433789538628,0.7331161499023438,33.222720958292484,7.874044028901031,9.939794965006076,91,25,0.0,15,179815360157492,12,32.6,-455.08056640625,0.023900000378489494,0,0.0,0.0,,,,,0,,1,0.0,
Raw,3802249,3781642000000,,,-1329526433789538628,0.7331161499023438,33.222720958292484,7.874044028901031,9.939794965006076,91,29,0.0,15,179815353349444,8,36.3,-446.05908203125,0.04070000350475311,0,0.0,0.0,,,,,0,,1,0.0,
Raw,3802249,3781642000000,,,-1329526433789538628,0.7331161499023438,33.222720958292484,7.874044028901031,9.939794965006076,91,31,0.0,15,179815346439609,1918,13.3,-480.50103759765625,29.100502014160156,0,0.0,0.0,,,,,0,,1,0.0,
NMEA,$GPGSV,3,2,11,12,82,355,38,19,09,071,28,20,36,133,38,24,25,208,35,1*69
,1645494998005
NMEA,$GPGSV,3,3,11,25,43,313,33,29,23,275,36,31,01,327,13,1*5D
,1645494998005
NMEA,$GLGSV,2,1,08,78,71,202,37,82,05,240,25,77,18,161,27,79,42,320,26,1*77
,1645494998005
Fix,gps,37.429912,-122.169454,-10.108276,0.000000,3.216000,1645494998000
NMEA,$GLGSV,2,2,08,65,04,097,15,88,56,011,27,87,17,040,25,81,48,267,37,1*73
,1645494998007
NMEA,$GAGSV,1,1,0,7*43
,1645494998008
NMEA,$PQGSV,1,1,0,0*43
,1645494998008
NMEA,$GBGSV,1,1,0,0*47
,1645494998008
NMEA,$GNGSA,A,3,02,05,06,12,19,20,24,25,29,,,,1.0,0.7,0.7,1*32
,1645494998013
NMEA,$GNGSA,A,3,77,78,79,81,82,87,88,,,,,,1.0,0.7,0.7,2*3E
,1645494998014
NMEA,$GNVTG,,T,,M,0.0,N,0.0,K,A*3D
,1645494998014
NMEA,$GNGGA,015638.00,3725.794742,N,12210.167224,W,1,12,0.7,17.8,M,-27.9,M,,*7E
,1645494998014
NMEA,$GNRMC,015638.00,A,3725.794742,N,12210.167224,W,0.0,,220222,15.0,E,A,V*5E
,1645494998014
NMEA,$AIDSTAT,0,0,0,2,,23,3*00
,1645494998934
NMEA,$GPGSV,3,1,11,02,78,050,37,05,18,157,38,06,29,043,31,11,00,000,37,1*62
,1645494999010
NMEA,$GPGSV,3,2,11,12,82,355,39,19,09,071,29,20,36,133,39,24,25,208,35,1*68
,1645494999010
NMEA,$GPGSV,3,3,11,25,43,313,33,29,23,275,36,31,01,327,13,1*5D
,1645494999015
Raw,3803283,3782642000000,,,-1329526433789538623,0.05445289611816406,34.92732503218576,8.483723030120526,9.602273085450465,91,14,0.0,207,17798366993010,8,36.7,246.61106872558594,0.23020000755786896,0,0.0,0.0,,,,,0,,3,0.0,
Raw,3803284,3782642000000,,,-1329526433789538623,0.05445289611816406,34.92732503218576,8.483723030120526,9.602273085450465,91,18,0.0,207,17798351683469,21,26.3,-596.8825073242188,0.3276999890804291,0,0.0,0.0,,,,,0,,3,0.0,
Raw,3803284,3782642000000,,,-1329526433789538623,0.05445289611816406,34.92732503218576,8.483723030120526,9.602273085450465,91,13,0.0,207,17798355786981,21,26.1,809.7279663085938,0.3337000012397766,0,0.0,0.0,,,,,0,,3,0.0,
Raw,3803284,3782642000000,,,-1329526433789538623,0.05445289611816406,34.92732503218576,8.483723030120526,9.602273085450465,91,15,0.0,207,17798362400074,21,26.6,-521.2156372070312,0.3141999840736389,0,0.0,0.0,,,,,0,,3,0.0,
Raw,3803284,3782642000000,,,-1329526433789538623,0.05445289611816406,34.92732503218576,8.483723030120526,9.602273085450465,91,1,0.0,207,17798351375765,112,15.0,-560.2766723632812,3.823000192642212,0,0.0,0.0,,,,,0,,3,0.0,
Raw,3803284,3782642000000,,,-1329526433789538623,0.05445289611816406,34.92732503218576,8.483723030120526,9.602273085450465,91,24,0.0,207,17798364923621,14,30.2,349.8262939453125,0.23180000483989716,0,0.0,0.0,,,,,0,,3,0.0,
Raw,3803284,3782642000000,,,-1329526433789538623,0.05445289611816406,34.92732503218576,8.483723030120526,9.602273085450465,91,23,0.0,207,17798355095796,24,25.3,644.1327514648438,0.6042999625205994,0,0.0,0.0,,,,,0,,3,0.0,
Raw,3803284,3782642000000,,,-1329526433789538623,0.05445289611816406,34.92732503218576,8.483723030120526,9.602273085450465,91,17,0.0,207,17798364065704,6,38.4,-263.4151916503906,0.22610001266002655,0,0.0,0.0,,,,,0,,3,0.0,
Raw,3803284,3782642000000,,,-1329526433789538623,0.05445289611816406,34.92732503218576,8.483723030120526,9.602273085450465,91,2,0.0,15,179816361759941,7,37.1,194.21133422851562,0.022100001573562622,0,0.0,0.0,,,,,0,,1,0.0,
Raw,3803284,3782642000000,,,-1329526433789538623,0.05445289611816406,34.92732503218576,8.483723030120526,9.602273085450465,91,5,0.0,15,179816352426075,7,37.6,-653.7771606445312,0.038600001484155655,0,0.0,0.0,,,,,0,,1,0.0,
Raw,3803284,3782642000000,,,-1329526433789538623,0.05445289611816406,34.92732503218576,8.483723030120526,9.602273085450465,91,6,0.0,15,179816355094226,14,30.9,595.5272216796875,0.04830000177025795,0,0.0,0.0,,,,,0,,1,0.0,
Raw,3803285,3782642000000,,,-1329526433789538623,0.05445289611816406,34.92732503218576,8.483723030120526,9.602273085450465,91,12,0.0,15,179816364386027,6,38.9,-31.318254470825195,0.026100000366568565,0,0.0,0.0,,,,,0,,1,0.0,
Raw,3803285,3782642000000,,,-1329526433789538623,0.05445289611816406,34.92732503218576,8.483723030120526,9.602273085450465,91,19,0.0,15,179816349603373,17,28.7,546.69140625,0.046800002455711365,0,0.0,0.0,,,,,0,,1,0.0,
Raw,3803285,3782642000000,,,-1329526433789538623,0.05445289611816406,34.92732503218576,8.483723030120526,9.602273085450465,91,20,0.0,15,179816357699827,6,38.8,-435.8252868652344,0.04560000076889992,0,0.0,0.0,,,,,0,,1,0.0,
Raw,3803285,3782642000000,,,-1329526433789538623,0.05445289611816406,34.92732503218576,8.483723030120526,9.602273085450465,91,24,0.0,15,179816353351480,9,35.1,600.63037109375,0.04110000282526016,0,0.0,0.0,,,,,0,,1,0.0,
Raw,3803285,3782642000000,,,-1329526433789538623,0.05445289611816406,34.92732503218576,8.483723030120526,9.602273085450465,91,25,0.0,15,179816360159039,12,32.9,-454.8821105957031,0.023900000378489494,0,0.0,0.0,,,,,0,,1,0.0,
Raw,3803285,3782642000000,,,-1329526433789538623,0.05445289611816406,34.92732503218576,8.483723030120526,9.602273085450465,91,29,0.0,15,179816353350913,9,35.9,-445.9193115234375,0.04110000282526016,0,0.0,0.0,,,,,0,,1,0.0,
Raw,3803285,3782642000000,,,-1329526433789538623,0.05445289611816406,34.92732503218576,8.483723030120526,9.602273085450465,91,31,0.0,15,179816346441212,2113,13.3,-480.50103759765625,30.600502014160156,0,0.0,0.0,,,,,0,,1,0.0,
NMEA,$GLGSV,2,1,08,78,71,202,37,82,05,240,26,77,18,161,26,79,42,320,27,1*74
,1645494999015
NMEA,$GLGSV,2,2,08,65,04,097,15,88,56,011,30,87,17,040,25,81,48,267,38,1*7A
,1645494999019
NMEA,$GAGSV,1,1,0,7*43
,1645494999019
NMEA,$PQGSV,1,1,0,0*43
,1645494999019
NMEA,$GBGSV,1,1,0,0*47
,1645494999020
Fix,gps,37.429913,-122.169453,-9.943359,0.000000,3.216000,1645494999000
NMEA,$GNGSA,A,3,02,05,06,12,19,20,24,25,29,,,,1.0,0.7,0.7,1*32
,1645494999025
NMEA,$GNGSA,A,3,77,78,79,81,82,87,88,,,,,,1.0,0.7,0.7,2*3E
,1645494999025
NMEA,$GNVTG,,T,,M,0.0,N,0.0,K,A*3D
,1645494999025
NMEA,$GNGGA,015639.00,3725.794761,N,12210.167208,W,1,12,0.7,18.0,M,-27.9,M,,*77
,1645494999026
NMEA,$GNRMC,015639.00,A,3725.794761,N,12210.167208,W,0.0,,220222,15.0,E,A,V*50
,1645494999026
NMEA,$AIDSTAT,0,0,0,2,-16,23,3*00
,1645494999936
Raw,3804246,3783642000000,,,-1329526433789538621,0.17041778564453125,34.02495349291712,8.870890982556977,9.602215030099805,91,14,0.0,207,17799366992265,9,35.0,246.08404541015625,0.2305999994277954,0,0.0,0.0,,,,,0,,3,0.0,
Raw,3804246,3783642000000,,,-1329526433789538621,0.17041778564453125,34.02495349291712,8.870890982556977,9.602215030099805,91,18,0.0,207,17799351685525,24,25.5,-597.575439453125,0.5982999801635742,0,0.0,0.0,,,,,0,,3,0.0,
Raw,3804246,3783642000000,,,-1329526433789538621,0.17041778564453125,34.02495349291712,8.870890982556977,9.602215030099805,91,13,0.0,207,17799355784319,24,25.0,809.0667114257812,0.6042999625205994,0,0.0,0.0,,,,,0,,3,0.0,
Raw,3804246,3783642000000,,,-1329526433789538621,0.17041778564453125,34.02495349291712,8.870890982556977,9.602215030099805,91,15,0.0,207,17799362401932,19,27.4,-521.8369140625,0.2443000078201294,0,0.0,0.0,,,,,0,,3,0.0,
Raw,3804246,3783642000000,,,-1329526433789538621,0.17041778564453125,34.02495349291712,8.870890982556977,9.602215030099805,91,1,0.0,207,17799351377582,96,15.7,-559.0233154296875,2.323000192642212,0,0.0,0.0,,,,,0,,3,0.0,
Raw,3804247,3783642000000,,,-1329526433789538621,0.17041778564453125,34.02495349291712,8.870890982556977,9.602215030099805,91,24,0.0,207,17799364922394,12,32.2,349.151123046875,0.22990001738071442,0,0.0,0.0,,,,,0,,3,0.0,
Raw,3804247,3783642000000,,,-1329526433789538621,0.17041778564453125,34.02495349291712,8.870890982556977,9.602215030099805,91,23,0.0,207,17799355093648,24,25.0,643.1687622070312,0.6042999625205994,0,0.0,0.0,,,,,0,,3,0.0,
Raw,3804247,3783642000000,,,-1329526433789538621,0.17041778564453125,34.02495349291712,8.870890982556977,9.602215030099805,91,17,0.0,207,17799364066558,7,37.4,-264.01788330078125,0.22660000622272491,0,0.0,0.0,,,,,0,,3,0.0,
Raw,3804247,3783642000000,,,-1329526433789538621,0.17041778564453125,34.02495349291712,8.870890982556977,9.602215030099805,91,2,0.0,15,179817361759305,7,37.6,193.5670166015625,0.022100001573562622,0,0.0,0.0,,,,,0,,1,0.0,
Raw,3804247,3783642000000,,,-1329526433789538621,0.17041778564453125,34.02495349291712,8.870890982556977,9.602215030099805,91,5,0.0,15,179817352428264,8,36.3,-654.476318359375,0.03920000046491623,0,0.0,0.0,,,,,0,,1,0.0,
Raw,3804248,3783642000000,,,-1329526433789538621,0.17041778564453125,34.02495349291712,8.870890982556977,9.602215030099805,91,6,0.0,15,179817355092227,13,31.9,594.793212890625,0.047700002789497375,0,0.0,0.0,,,,,0,,1,0.0,
Raw,3804248,3783642000000,,,-1329526433789538621,0.17041778564453125,34.02495349291712,8.870890982556977,9.602215030099805,91,12,0.0,15,179817364386124,6,38.0,-31.94402313232422,0.026100000366568565,0,0.0,0.0,,,,,0,,1,0.0,
Raw,3804248,3783642000000,,,-1329526433789538621,0.17041778564453125,34.02495349291712,8.870890982556977,9.602215030099805,91,19,0.0,15,179817349601554,17,28.5,545.935791015625,0.046800002455711365,0,0.0,0.0,,,,,0,,1,0.0,
Raw,3804248,3783642000000,,,-1329526433789538621,0.17041778564453125,34.02495349291712,8.870890982556977,9.602215030099805,91,20,0.0,15,179817357701281,6,38.6,-436.4528503417969,0.04560000076889992,0,0.0,0.0,,,,,0,,1,0.0,
Raw,3804248,3783642000000,,,-1329526433789538621,0.17041778564453125,34.02495349291712,8.870890982556977,9.602215030099805,91,24,0.0,15,179817353349500,10,34.4,599.97509765625,0.041600000113248825,0,0.0,0.0,,,,,0,,1,0.0,
Raw,3804249,3783642000000,,,-1329526433789538621,0.17041778564453125,34.02495349291712,8.870890982556977,9.602215030099805,91,25,0.0,15,179817360160558,12,32.3,-455.61962890625,0.023900000378489494,0,0.0,0.0,,,,,0,,1,0.0,
Raw,3804249,3783642000000,,,-1329526433789538621,0.17041778564453125,34.02495349291712,8.870890982556977,9.602215030099805,91,29,0.0,15,179817353352405,9,35.1,-446.5989074707031,0.04110000282526016,0,0.0,0.0,,,,,0,,1,0.0,
Raw,3804249,3783642000000,,,-1329526433789538621,0.17041778564453125,34.02495349291712,8.870890982556977,9.602215030099805,91,31,0.0,15,179817346442815,2317,13.3,-480.50103759765625,32.100502014160156,0,0.0,0.0,,,,,0,,1,0.0,
Fix,gps,37.429913,-122.169453,-9.805847,0.000000,3.216000,1645495000000
NMEA,$GPGSV,3,1,11,02,78,050,38,05,18,157,36,06,29,043,32,11,00,000,36,1*61
,1645495000012
NMEA,$GPGSV,3,2,11,12,82,355,38,19,09,071,29,20,36,133,39,24,25,208,34,1*68
,1645495000012
NMEA,$GPGSV,3,3,11,25,43,313,32,29,23,275,35,31,01,327,13,1*5F
,1645495000012
NMEA,$GLGSV,2,1,08,78,71,202,35,82,05,240,26,77,18,161,25,79,42,320,27,1*75
,1645495000013
NMEA,$GLGSV,2,2,08,65,04,097,16,88,56,011,32,87,17,040,25,81,48,267,37,1*74
,1645495000013
NMEA,$GAGSV,1,1,0,7*43
,1645495000013
NMEA,$PQGSV,1,1,0,0*43
,1645495000013
NMEA,$GBGSV,1,1,0,0*47
,1645495000014
NMEA,$GNGSA,A,3,02,05,06,12,19,20,24,25,29,,,,1.0,0.7,0.7,1*32
,1645495000015
NMEA,$GNGSA,A,3,77,78,79,81,82,87,88,,,,,,1.0,0.7,0.7,2*3E
,1645495000016
NMEA,$GNVTG,,T,,M,0.0,N,0.0,K,A*3D
,1645495000016
NMEA,$GNGGA,015640.00,3725.794751,N,12210.167209,W,1,12,0.7,18.1,M,-27.9,M,,*7A
,1645495000016
NMEA,$GNRMC,015640.00,A,3725.794751,N,12210.167209,W,0.0,,220222,15.0,E,A,V*5C
,1645495000017
