# 
# Header Description:
# 
# Version: v2.0.0.1 Platform: 9 Manufacturer: samsung Model: SM-G960U
# 
# Raw,ElapsedRealtimeMillis,TimeNanos,LeapSecond,TimeUncertaintyNanos,FullBiasNanos,BiasNanos,BiasUncertaintyNanos,DriftNanosPerSecond,DriftUncertaintyNanosPerSecond,HardwareClockDiscontinuityCount,Svid,TimeOffsetNanos,State,ReceivedSvTimeNanos,ReceivedSvTimeUncertaintyNanos,Cn0DbHz,PseudorangeRateMetersPerSecond,PseudorangeRateUncertaintyMetersPerSecond,AccumulatedDeltaRangeState,AccumulatedDeltaRangeMeters,AccumulatedDeltaRangeUncertaintyMeters,CarrierFrequencyHz,CarrierCycles,CarrierPhase,CarrierPhaseUncertainty,MultipathIndicator,SnrInDb,ConstellationType,AgcDb,CarrierFrequencyHz
# 
# Fix,Provider,Latitude,Longitude,Altitude,Speed,Accuracy,(UTC)TimeInMs
# 
# Nav,Svid,Type,Status,MessageId,Sub-messageId,Data(Bytes)
# 
Raw,944255,923656000000,,,-1329526433790240091,-0.44306182861328125,53.29937266651541,-61.432925071293596,22.827656542102602,68,14,0.0,207,14939381846889,10,34.1,-226.74867248535156,0.22360001504421234,0,0.0,0.0,,,,,0,,3,0.0,
Raw,944256,923656000000,,,-1329526433790240091,-0.44306182861328125,53.29937266651541,-61.432925071293596,22.827656542102602,68,13,0.0,207,14939377272758,40,21.8,563.0302124023438,1.0720000267028809,0,0.0,0.0,,,,,0,,3,0.0,
Raw,944257,923656000000,,,-1329526433790240091,-0.44306182861328125,53.29937266651541,-61.432925071293596,22.827656542102602,68,15,0.0,207,14939370907281,27,24.2,-760.578369140625,0.8814999461174011,0,0.0,0.0,,,,,0,,3,0.0,
Raw,944257,923656000000,,,-1329526433790240091,-0.44306182861328125,53.29937266651541,-61.432925071293596,22.827656542102602,68,24,0.0,207,14939381824084,11,33.7,67.6371841430664,0.22440001368522644,0,0.0,0.0,,,,,0,,3,0.0,
Raw,944257,923656000000,,,-1329526433790240091,-0.44306182861328125,53.29937266651541,-61.432925071293596,22.827656542102602,68,23,0.0,207,14939375805788,10,34.1,573.1329345703125,0.24460001289844513,0,0.0,0.0,,,,,0,,3,0.0,
Raw,944257,923656000000,,,-1329526433790240091,-0.44306182861328125,53.29937266651541,-61.432925071293596,22.827656542102602,68,17,0.0,207,14939374992859,17,28.6,-546.0974731445312,0.25429999828338623,0,0.0,0.0,,,,,0,,3,0.0,
Raw,944257,923656000000,,,-1329526433790240091,-0.44306182861328125,53.29937266651541,-61.432925071293596,22.827656542102602,68,2,0.0,15,176957377016775,11,33.9,-109.12644958496094,0.04840000346302986,0,0.0,0.0,,,,,0,,1,0.0,
Raw,944258,923656000000,,,-1329526433790240091,-0.44306182861328125,53.29937266651541,-61.432925071293596,22.827656542102602,68,6,0.0,15,176957374673375,12,32.8,383.03179931640625,0.04490000009536743,0,0.0,0.0,,,,,0,,1,0.0,
Raw,944258,923656000000,,,-1329526433790240091,-0.44306182861328125,53.29937266651541,-61.432925071293596,22.827656542102602,68,12,0.0,15,176957377493168,10,34.3,-307.6300048828125,0.047600001096725464,0,0.0,0.0,,,,,0,,1,0.0,
Raw,944258,923656000000,,,-1329526433790240091,-0.44306182861328125,53.29937266651541,-61.432925071293596,22.827656542102602,68,17,0.0,15,176957362467690,47,21.5,468.1795349121094,2.2295000553131104,0,0.0,0.0,,,,,0,,1,0.0,
Raw,944258,923656000000,,,-1329526433790240091,-0.44306182861328125,53.29937266651541,-61.432925071293596,22.827656542102602,68,19,0.0,15,176957369429308,17,28.8,503.051025390625,0.046800002455711365,0,0.0,0.0,,,,,0,,1,0.0,
Raw,944258,923656000000,,,-1329526433790240091,-0.44306182861328125,53.29937266651541,-61.432925071293596,22.827656542102602,68,20,0.0,15,176957367451939,17,28.5,-594.31298828125,0.043800000101327896,0,0.0,0.0,,,,,0,,1,0.0,
Raw,944259,923656000000,,,-1329526433790240091,-0.44306182861328125,53.29937266651541,-61.432925071293596,22.827656542102602,68,24,0.0,15,176957373174831,21,26.0,425.7286682128906,0.1307000070810318,0,0.0,0.0,,,,,0,,1,0.0,
Raw,944259,923656000000,,,-1329526433790240091,-0.44306182861328125,53.29937266651541,-61.432925071293596,22.827656542102602,68,25,0.0,15,176957369776893,124,14.8,-602.1082153320312,3.5200002193450928,0,0.0,0.0,,,,,0,,1,0.0,
NMEA,$GPGSV,3,1,10,02,74,172,34,06,49,050,33,12,60,324,34,17,07,066,22,1*6D
,1645492140000
NMEA,$GPGSV,3,2,10,19,24,057,29,20,19,147,29,24,43,224,26,25,23,309,15,1*69
,1645492140001
NMEA,$GPGSV,3,3,10,05,01,168,,29,09,258,,1*63
,1645492140001
NMEA,$GLGSV,2,1,07,78,72,320,34,77,45,150,22,79,18,326,24,88,74,314,34,1*71
,1645492140001
NMEA,$GLGSV,2,2,07,87,38,028,34,81,31,236,29,71,00,000,,1*47
,1645492140001
NMEA,$GAGSV,1,1,0,7*43
,1645492140001
NMEA,$PQGSV,1,1,0,0*43
,1645492140001
NMEA,$GBGSV,1,1,0,0*47
,1645492140001
NMEA,$GNGSA,A,3,02,06,12,17,19,20,24,25,,,,,1.1,0.8,0.7,1*34
,1645492140001
NMEA,$GNGSA,A,3,78,79,81,87,88,,,,,,,,1.1,0.8,0.7,2*3A
,1645492140002
NMEA,$GNVTG,,T,,M,0.0,N,0.0,K,A*3D
,1645492140002
NMEA,$GNGGA,010900.00,3725.459403,N,12210.236467,W,1,12,0.8,34.5,M,-27.9,M,,*7E
,1645492140002
NMEA,$GNRMC,010900.00,A,3725.459403,N,12210.236467,W,0.0,,220222,15.0,E,A,V*5D
,1645492140002
NMEA,$AIDSTAT,0,0,0,2,146,23,3*00
,1645492140942
NMEA,$GPGSV,3,1,10,02,74,172,36,06,49,050,33,12,60,324,33,17,07,066,21,1*6B
,1645492140999
NMEA,$GPGSV,3,2,10,19,24,057,32,20,19,147,28,24,43,224,29,25,23,309,15,1*6D
,1645492141000
NMEA,$GPGSV,3,3,10,05,01,168,,29,09,258,,1*63
,1645492141000
NMEA,$GLGSV,2,1,07,78,72,320,32,77,45,150,23,79,18,326,25,88,74,314,33,1*70
,1645492141000
NMEA,$GLGSV,2,2,07,87,38,028,35,81,31,236,28,71,00,000,,1*47
,1645492141000
NMEA,$GAGSV,1,1,0,7*43
,1645492141000
NMEA,$PQGSV,1,1,0,0*43
,1645492141000
NMEA,$GBGSV,1,1,0,0*47
,1645492141000
NMEA,$GNGSA,A,3,02,06,12,17,19,20,24,25,,,,,1.1,0.8,0.7,1*34
,1645492141001
NMEA,$GNGSA,A,3,78,79,81,87,88,,,,,,,,1.1,0.8,0.7,2*3A
,1645492141002
NMEA,$GNVTG,,T,,M,0.0,N,0.0,K,A*3D
,1645492141002
NMEA,$GNGGA,010901.00,3725.459308,N,12210.236456,W,1,12,0.8,34.9,M,-27.9,M,,*7D
,1645492141002
NMEA,$GNRMC,010901.00,A,3725.459308,N,12210.236456,W,0.0,,220222,15.0,E,A,V*52
,1645492141003
Raw,945250,924656000000,,,-1329526433790240175,-0.9922504425048828,49.43787644151598,-73.99407976491156,22.767646396210786,68,14,0.0,207,14940381847586,12,32.3,-228.5652313232422,0.22540001571178436,0,0.0,0.0,,,,,0,,3,0.0,
Raw,945250,924656000000,,,-1329526433790240175,-0.9922504425048828,49.43787644151598,-73.99407976491156,22.767646396210786,68,13,0.0,207,14940377270992,31,23.4,561.3635864257812,0.9519999623298645,0,0.0,0.0,,,,,0,,3,0.0,
Raw,945250,924656000000,,,-1329526433790240175,-0.9922504425048828,49.43787644151598,-73.99407976491156,22.767646396210786,68,15,0.0,207,14940370909796,27,24.6,-762.6087646484375,0.8814999461174011,0,0.0,0.0,,,,,0,,3,0.0,
Raw,945250,924656000000,,,-1329526433790240175,-0.9922504425048828,49.43787644151598,-73.99407976491156,22.767646396210786,68,24,0.0,207,14940381823864,12,32.9,65.88246154785156,0.22540001571178436,0,0.0,0.0,,,,,0,,3,0.0,
Raw,945250,924656000000,,,-1329526433790240175,-0.9922504425048828,49.43787644151598,-73.99407976491156,22.767646396210786,68,23,0.0,207,14940375803867,10,34.8,571.2274780273438,0.24460001289844513,0,0.0,0.0,,,,,0,,3,0.0,
Raw,945250,924656000000,,,-1329526433790240175,-0.9922504425048828,49.43787644151598,-73.99407976491156,22.767646396210786,68,17,0.0,207,14940374994713,17,28.1,-547.9674682617188,0.25429999828338623,0,0.0,0.0,,,,,0,,3,0.0,
Raw,945250,924656000000,,,-1329526433790240175,-0.9922504425048828,49.43787644151598,-73.99407976491156,22.767646396210786,68,2,0.0,15,176958377017156,9,35.5,-110.93571472167969,0.0471000038087368,0,0.0,0.0,,,,,0,,1,0.0,
Raw,945250,924656000000,,,-1329526433790240175,-0.9922504425048828,49.43787644151598,-73.99407976491156,22.767646396210786,68,6,0.0,15,176958374672079,11,33.0,381.1690979003906,0.04390000179409981,0,0.0,0.0,,,,,0,,1,0.0,
Raw,945250,924656000000,,,-1329526433790240175,-0.9922504425048828,49.43787644151598,-73.99407976491156,22.767646396210786,68,12,0.0,15,176958377494194,11,33.2,-309.515869140625,0.04840000346302986,0,0.0,0.0,,,,,0,,1,0.0,
Raw,945250,924656000000,,,-1329526433790240175,-0.9922504425048828,49.43787644151598,-73.99407976491156,22.767646396210786,68,17,0.0,15,176958362466106,48,20.6,461.4336242675781,1.5394999980926514,0,0.0,0.0,,,,,0,,1,0.0,
Raw,945251,924656000000,,,-1329526433790240175,-0.9922504425048828,49.43787644151598,-73.99407976491156,22.767646396210786,68,19,0.0,15,176958369427640,12,32.1,501.0601806640625,0.03739999979734421,0,0.0,0.0,,,,,0,,1,0.0,
Raw,945252,924656000000,,,-1329526433790240175,-0.9922504425048828,49.43787644151598,-73.99407976491156,22.767646396210786,68,20,0.0,15,176958367453901,17,28.0,-596.33349609375,0.043800000101327896,0,0.0,0.0,,,,,0,,1,0.0,
Raw,945252,924656000000,,,-1329526433790240175,-0.9922504425048828,49.43787644151598,-73.99407976491156,22.767646396210786,68,24,0.0,15,176958373173402,17,28.5,423.8265686035156,0.052799999713897705,0,0.0,0.0,,,,,0,,1,0.0,
Raw,945252,924656000000,,,-1329526433790240175,-0.9922504425048828,49.43787644151598,-73.99407976491156,22.767646396210786,68,25,0.0,15,176958369778901,148,14.8,-602.1082153320312,5.019999980926514,0,0.0,0.0,,,,,0,,1,0.0,
NMEA,$AIDSTAT,0,0,0,2,,23,3*00
,1645492141942
Raw,946217,925656000000,,,-1329526433790240260,-0.45203208923339844,52.12540054344572,-80.86436586759179,22.649871971691045,68,14,0.0,207,14941381848429,12,32.7,-227.0509490966797,0.22540001571178436,0,0.0,0.0,,,,,0,,3,0.0,
Raw,946217,925656000000,,,-1329526433790240260,-0.45203208923339844,52.12540054344572,-80.86436586759179,22.649871971691045,68,13,0.0,207,14941377269140,31,23.2,562.693115234375,0.9519999623298645,0,0.0,0.0,,,,,0,,3,0.0,
Raw,946217,925656000000,,,-1329526433790240260,-0.45203208923339844,52.12540054344572,-80.86436586759179,22.649871971691045,68,15,0.0,207,14941370912432,31,23.1,-760.924560546875,0.9414999485015869,0,0.0,0.0,,,,,0,,3,0.0,
Raw,946217,925656000000,,,-1329526433790240260,-0.45203208923339844,52.12540054344572,-80.86436586759179,22.649871971691045,68,24,0.0,207,14941381823640,11,33.8,67.33062744140625,0.22440001368522644,0,0.0,0.0,,,,,0,,3,0.0,
Raw,946217,925656000000,,,-1329526433790240260,-0.45203208923339844,52.12540054344572,-80.86436586759179,22.649871971691045,68,23,0.0,207,14941375801975,10,34.7,572.5785522460938,0.24460001289844513,0,0.0,0.0,,,,,0,,3,0.0,
Raw,946217,925656000000,,,-1329526433790240260,-0.45203208923339844,52.12540054344572,-80.86436586759179,22.649871971691045,68,17,0.0,207,14941374996510,16,29.0,-546.6004638671875,0.24770000576972961,0,0.0,0.0,,,,,0,,3,0.0,
Raw,946217,925656000000,,,-1329526433790240260,-0.45203208923339844,52.12540054344572,-80.86436586759179,22.649871971691045,68,2,0.0,15,176959377017514,9,35.8,-109.5400619506836,0.0471000038087368,0,0.0,0.0,,,,,0,,1,0.0,
Raw,946217,925656000000,,,-1329526433790240260,-0.45203208923339844,52.12540054344572,-80.86436586759179,22.649871971691045,68,6,0.0,15,176959374670835,12,32.2,382.6133117675781,0.04490000009536743,0,0.0,0.0,,,,,0,,1,0.0,
Raw,946217,925656000000,,,-1329526433790240260,-0.45203208923339844,52.12540054344572,-80.86436586759179,22.649871971691045,68,12,0.0,15,176959377495212,11,33.9,-308.19989013671875,0.04840000346302986,0,0.0,0.0,,,,,0,,1,0.0,
Raw,946217,925656000000,,,-1329526433790240260,-0.45203208923339844,52.12540054344572,-80.86436586759179,22.649871971691045,68,17,0.0,15,176959362464567,35,22.7,462.87982177734375,0.6694999933242798,0,0.0,0.0,,,,,0,,1,0.0,
Raw,946217,925656000000,,,-1329526433790240260,-0.45203208923339844,52.12540054344572,-80.86436586759179,22.649871971691045,68,19,0.0,15,176959369425973,11,33.3,502.4035949707031,0.036400001496076584,0,0.0,0.0,,,,,0,,1,0.0,
Raw,946217,925656000000,,,-1329526433790240260,-0.45203208923339844,52.12540054344572,-80.86436586759179,22.649871971691045,68,20,0.0,15,176959367455901,17,28.4,-594.9281616210938,0.043800000101327896,0,0.0,0.0,,,,,0,,1,0.0,
Raw,946218,925656000000,,,-1329526433790240260,-0.45203208923339844,52.12540054344572,-80.86436586759179,22.649871971691045,68,24,0.0,15,176959373171966,17,28.8,425.25946044921875,0.052799999713897705,0,0.0,0.0,,,,,0,,1,0.0,
Raw,946218,925656000000,,,-1329526433790240260,-0.45203208923339844,52.12540054344572,-80.86436586759179,22.649871971691045,68,25,0.0,15,176959369780910,183,14.8,-602.1082153320312,6.520000457763672,0,0.0,0.0,,,,,0,,1,0.0,
NMEA,$GPGSV,3,1,10,02,74,172,36,06,49,050,32,12,60,324,34,17,07,066,23,1*6F
,1645492141999
NMEA,$GPGSV,3,2,10,19,24,057,33,20,19,147,28,24,43,224,29,25,23,309,15,1*6C
,1645492141999
NMEA,$GPGSV,3,3,10,05,01,168,,29,09,258,,1*63
,1645492142000
NMEA,$GLGSV,2,1,07,78,72,320,33,77,43,150,23,79,18,326,23,88,74,314,34,1*76
,1645492142000
NMEA,$GLGSV,2,2,07,87,38,028,35,81,31,236,29,71,00,000,,1*46
,1645492142000
NMEA,$GAGSV,1,1,0,7*43
,1645492142000
NMEA,$PQGSV,1,1,0,0*43
,1645492142000
NMEA,$GBGSV,1,1,0,0*47
,1645492142000
NMEA,$GNGSA,A,3,02,06,12,17,19,20,24,25,,,,,1.1,0.8,0.7,1*34
,1645492142000
NMEA,$GNGSA,A,3,78,79,81,87,88,,,,,,,,1.1,0.8,0.7,2*3A
,1645492142000
NMEA,$GNVTG,,T,,M,0.0,N,0.0,K,A*3D
,1645492142000
NMEA,$GNGGA,010902.00,3725.459240,N,12210.236404,W,1,12,0.8,35.1,M,-27.9,M,,*7D
,1645492142000
NMEA,$GNRMC,010902.00,A,3725.459240,N,12210.236404,W,0.0,,220222,15.0,E,A,V*5B
,1645492142000
NMEA,$AIDSTAT,0,0,0,2,85,23,3*00
,1645492142942
Raw,947223,926656000000,,,-1329526433790240338,-0.6235237121582031,50.90433842269704,-77.16883263935992,22.6594693959618,68,14,0.0,207,14942381849197,11,33.0,-225.20639038085938,0.22440001368522644,0,0.0,0.0,,,,,0,,3,0.0,
Raw,947223,926656000000,,,-1329526433790240338,-0.6235237121582031,50.90433842269704,-77.16883263935992,22.6594693959618,68,13,0.0,207,14942377267366,31,23.0,564.63134765625,0.9519999623298645,0,0.0,0.0,,,,,0,,3,0.0,
Raw,947223,926656000000,,,-1329526433790240338,-0.6235237121582031,50.90433842269704,-77.16883263935992,22.6594693959618,68,15,0.0,207,14942370915069,31,23.8,-759.1560668945312,0.9414999485015869,0,0.0,0.0,,,,,0,,3,0.0,
Raw,947224,926656000000,,,-1329526433790240338,-0.6235237121582031,50.90433842269704,-77.16883263935992,22.6594693959618,68,24,0.0,207,14942381823394,10,34.3,69.18477630615234,0.22360001504421234,0,0.0,0.0,,,,,0,,3,0.0,
Raw,947224,926656000000,,,-1329526433790240338,-0.6235237121582031,50.90433842269704,-77.16883263935992,22.6594693959618,68,23,0.0,207,14942375800039,10,34.3,574.3303833007812,0.24460001289844513,0,0.0,0.0,,,,,0,,3,0.0,
Raw,947224,926656000000,,,-1329526433790240338,-0.6235237121582031,50.90433842269704,-77.16883263935992,22.6594693959618,68,17,0.0,207,14942374998357,14,30.1,-544.7191162109375,0.2468000054359436,0,0.0,0.0,,,,,0,,3,0.0,
Raw,947224,926656000000,,,-1329526433790240338,-0.6235237121582031,50.90433842269704,-77.16883263935992,22.6594693959618,68,2,0.0,15,176960377017883,10,34.7,-107.69984436035156,0.047600001096725464,0,0.0,0.0,,,,,0,,1,0.0,
Raw,947224,926656000000,,,-1329526433790240338,-0.6235237121582031,50.90433842269704,-77.16883263935992,22.6594693959618,68,6,0.0,15,176960374669555,12,32.1,384.388671875,0.04490000009536743,0,0.0,0.0,,,,,0,,1,0.0,
Raw,947224,926656000000,,,-1329526433790240338,-0.6235237121582031,50.90433842269704,-77.16883263935992,22.6594693959618,68,12,0.0,15,176960377496259,11,33.9,-306.3327941894531,0.04840000346302986,0,0.0,0.0,,,,,0,,1,0.0,
Raw,947225,926656000000,,,-1329526433790240338,-0.6235237121582031,50.90433842269704,-77.16883263935992,22.6594693959618,68,17,0.0,15,176960362463061,40,21.8,464.7161865234375,0.7294999957084656,0,0.0,0.0,,,,,0,,1,0.0,
Raw,947225,926656000000,,,-1329526433790240338,-0.6235237121582031,50.90433842269704,-77.16883263935992,22.6594693959618,68,19,0.0,15,176960369424287,13,31.9,504.1255187988281,0.038700003176927567,0,0.0,0.0,,,,,0,,1,0.0,
Raw,947225,926656000000,,,-1329526433790240338,-0.6235237121582031,50.90433842269704,-77.16883263935992,22.6594693959618,68,20,0.0,15,176960367457862,19,27.9,-593.2136840820312,0.05180000141263008,0,0.0,0.0,,,,,0,,1,0.0,
Raw,947225,926656000000,,,-1329526433790240338,-0.6235237121582031,50.90433842269704,-77.16883263935992,22.6594693959618,68,24,0.0,15,176960373170554,16,29.3,427.0416259765625,0.04620000347495079,0,0.0,0.0,,,,,0,,1,0.0,
Raw,947225,926656000000,,,-1329526433790240338,-0.6235237121582031,50.90433842269704,-77.16883263935992,22.6594693959618,68,25,0.0,15,176960369782918,227,14.8,-602.1082153320312,8.020000457763672,0,0.0,0.0,,,,,0,,1,0.0,
NMEA,$GPGSV,3,1,10,02,74,172,35,06,49,050,32,12,60,324,34,17,07,066,22,1*6D
,1645492142999
NMEA,$GPGSV,3,2,10,19,24,057,32,20,19,147,28,24,43,224,29,25,23,309,15,1*6D
,1645492143001
NMEA,$GPGSV,3,3,10,05,01,168,,29,09,258,,1*63
,1645492143001
NMEA,$GLGSV,2,1,07,78,72,320,33,77,43,150,23,79,18,326,24,88,74,314,34,1*71
,1645492143001
NMEA,$GLGSV,2,2,07,87,38,028,34,81,31,236,30,71,00,000,,1*4F
,1645492143001
NMEA,$GAGSV,1,1,0,7*43
,1645492143002
NMEA,$PQGSV,1,1,0,0*43
,1645492143002
NMEA,$GBGSV,1,1,0,0*47
,1645492143002
NMEA,$GNGSA,A,3,02,06,12,17,19,20,24,25,,,,,1.1,0.8,0.7,1*34
,1645492143003
NMEA,$GNGSA,A,3,78,79,81,87,88,,,,,,,,1.1,0.8,0.7,2*3A
,1645492143005
NMEA,$GNVTG,,T,,M,0.0,N,0.0,K,A*3D
,1645492143006
NMEA,$GNGGA,010903.00,3725.459328,N,12210.236622,W,1,12,0.8,34.7,M,-27.9,M,,*72
,1645492143006
NMEA,$GNRMC,010903.00,A,3725.459328,N,12210.236622,W,0.0,,220222,15.0,E,A,V*53
,1645492143006
NMEA,$AIDSTAT,0,0,0,2,100,23,3*00
,1645492143942
Raw,948218,927656000000,,,-1329526433790240413,-0.710474967956543,49.18163176625967,-70.82712698469983,19.696168423635143,68,14,0.0,207,14943381849933,11,33.5,-222.14791870117188,0.22440001368522644,0,0.0,0.0,,,,,0,,3,0.0,
Raw,948218,927656000000,,,-1329526433790240413,-0.710474967956543,49.18163176625967,-70.82712698469983,19.696168423635143,68,13,0.0,207,14943377265321,35,22.1,567.8523559570312,1.0119999647140503,0,0.0,0.0,,,,,0,,3,0.0,
Raw,948218,927656000000,,,-1329526433790240413,-0.710474967956543,49.18163176625967,-70.82712698469983,19.696168423635143,68,15,0.0,207,14943370917452,35,22.9,-755.7689208984375,1.0015000104904175,0,0.0,0.0,,,,,0,,3,0.0,
Raw,948218,927656000000,,,-1329526433790240413,-0.710474967956543,49.18163176625967,-70.82712698469983,19.696168423635143,68,24,0.0,207,14943381823159,10,34.1,72.23348999023438,0.22360001504421234,0,0.0,0.0,,,,,0,,3,0.0,
Raw,948219,927656000000,,,-1329526433790240413,-0.710474967956543,49.18163176625967,-70.82712698469983,19.696168423635143,68,23,0.0,207,14943375798128,10,34.8,577.263916015625,0.24460001289844513,0,0.0,0.0,,,,,0,,3,0.0,
Raw,948219,927656000000,,,-1329526433790240413,-0.710474967956543,49.18163176625967,-70.82712698469983,19.696168423635143,68,17,0.0,207,14943375000136,14,30.4,-541.77734375,0.2483000010251999,0,0.0,0.0,,,,,0,,3,0.0,
Raw,948219,927656000000,,,-1329526433790240413,-0.710474967956543,49.18163176625967,-70.82712698469983,19.696168423635143,68,2,0.0,15,176961377018233,10,34.3,-104.72896575927734,0.047600001096725464,0,0.0,0.0,,,,,0,,1,0.0,
Raw,948219,927656000000,,,-1329526433790240413,-0.710474967956543,49.18163176625967,-70.82712698469983,19.696168423635143,68,6,0.0,15,176961374668289,13,31.7,387.4016418457031,0.04620000347495079,0,0.0,0.0,,,,,0,,1,0.0,
Raw,948219,927656000000,,,-1329526433790240413,-0.710474967956543,49.18163176625967,-70.82712698469983,19.696168423635143,68,12,0.0,15,176961377497254,11,33.2,-303.4254150390625,0.04840000346302986,0,0.0,0.0,,,,,0,,1,0.0,
Raw,948219,927656000000,,,-1329526433790240413,-0.710474967956543,49.18163176625967,-70.82712698469983,19.696168423635143,68,17,0.0,15,176961362461495,46,20.3,467.0948486328125,0.7894999980926514,0,0.0,0.0,,,,,0,,1,0.0,
Raw,948219,927656000000,,,-1329526433790240413,-0.710474967956543,49.18163176625967,-70.82712698469983,19.696168423635143,68,19,0.0,15,176961369422595,13,31.3,507.08319091796875,0.038700003176927567,0,0.0,0.0,,,,,0,,1,0.0,
Raw,948219,927656000000,,,-1329526433790240413,-0.710474967956543,49.18163176625967,-70.82712698469983,19.696168423635143,68,20,0.0,15,176961367459851,17,28.5,-590.3132934570312,0.043800000101327896,0,0.0,0.0,,,,,0,,1,0.0,
Raw,948219,927656000000,,,-1329526433790240413,-0.710474967956543,49.18163176625967,-70.82712698469983,19.696168423635143,68,24,0.0,15,176961373169110,16,29.2,430.018310546875,0.04620000347495079,0,0.0,0.0,,,,,0,,1,0.0,
Raw,948219,927656000000,,,-1329526433790240413,-0.710474967956543,49.18163176625967,-70.82712698469983,19.696168423635143,68,25,0.0,15,176961369784926,281,14.8,-602.1082153320312,9.520000457763672,0,0.0,0.0,,,,,0,,1,0.0,
NMEA,$GPGSV,3,1,10,02,74,172,34,06,49,050,32,12,60,324,33,17,07,066,20,1*69
,1645492143999
NMEA,$GPGSV,3,2,10,19,24,057,31,20,19,147,29,24,43,224,29,25,23,309,15,1*6F
,1645492144000
NMEA,$GPGSV,3,3,10,05,01,168,,29,09,258,,1*63
,1645492144000
NMEA,$GLGSV,2,1,07,78,72,320,34,77,43,150,22,79,18,326,23,88,74,314,34,1*70
,1645492144000
NMEA,$GLGSV,2,2,07,87,38,028,35,81,31,236,30,71,00,000,,1*4E
,1645492144000
NMEA,$GAGSV,1,1,0,7*43
,1645492144000
NMEA,$PQGSV,1,1,0,0*43
,1645492144002
NMEA,$GBGSV,1,1,0,0*47
,1645492144002
NMEA,$GNGSA,A,3,02,06,12,17,19,20,24,25,,,,,1.1,0.8,0.7,1*34
,1645492144005
NMEA,$GNGSA,A,3,78,79,81,87,88,,,,,,,,1.1,0.8,0.7,2*3A
,1645492144005
NMEA,$GNVTG,,T,,M,0.0,N,0.0,K,A*3D
,1645492144005
NMEA,$GNGGA,010904.00,3725.459373,N,12210.236674,W,1,12,0.8,35.3,M,-27.9,M,,*7D
,1645492144006
NMEA,$GNRMC,010904.00,A,3725.459373,N,12210.236674,W,0.0,,220222,15.0,E,A,V*59
,1645492144006
