# 
# Header Description:
# 
# Version: v2.0.0.1 Platform: 9 Manufacturer: samsung Model: SM-G960U
# 
# Raw,ElapsedRealtimeMillis,TimeNanos,LeapSecond,TimeUncertaintyNanos,FullBiasNanos,BiasNanos,BiasUncertaintyNanos,DriftNanosPerSecond,DriftUncertaintyNanosPerSecond,HardwareClockDiscontinuityCount,Svid,TimeOffsetNanos,State,ReceivedSvTimeNanos,ReceivedSvTimeUncertaintyNanos,Cn0DbHz,PseudorangeRateMetersPerSecond,PseudorangeRateUncertaintyMetersPerSecond,AccumulatedDeltaRangeState,AccumulatedDeltaRangeMeters,AccumulatedDeltaRangeUncertaintyMeters,CarrierFrequencyHz,CarrierCycles,CarrierPhase,CarrierPhaseUncertainty,MultipathIndicator,SnrInDb,ConstellationType,AgcDb,CarrierFrequencyHz
# 
# Fix,Provider,Latitude,Longitude,Altitude,Speed,Accuracy,(UTC)TimeInMs
# 
# Nav,Svid,Type,Status,MessageId,Sub-messageId,Data(Bytes)
# 
Raw,1717241,1696642000000,,,-1329526433789550837,0.9435291290283203,38.81178781739436,-5.908380119694442,11.042565098859361,85,14,0.0,207,15712367538083,9,35.6,-90.8318862915039,0.2320999950170517,0,0.0,0.0,,,,,0,,3,0.0,
Raw,1717242,1696642000000,,,-1329526433789550837,0.9435291290283203,38.81178781739436,-5.908380119694442,11.042565098859361,85,13,0.0,207,15712360971668,40,21.1,661.4675903320312,1.0464999675750732,0,0.0,0.0,,,,,0,,3,0.0,
Raw,1717242,1696642000000,,,-1329526433789550837,0.9435291290283203,38.81178781739436,-5.908380119694442,11.042565098859361,85,15,0.0,207,15712358077510,10,34.2,-703.4083862304688,0.24910001456737518,0,0.0,0.0,,,,,0,,3,0.0,
Raw,1717242,1696642000000,,,-1329526433789550837,0.9435291290283203,38.81178781739436,-5.908380119694442,11.042565098859361,85,24,0.0,207,15712366792838,8,36.4,172.1585235595703,0.23020000755786896,0,0.0,0.0,,,,,0,,3,0.0,
Raw,1717242,1696642000000,,,-1329526433789550837,0.9435291290283203,38.81178781739436,-5.908380119694442,11.042565098859361,85,23,0.0,207,15712359543888,14,30.3,620.9638061523438,0.22429999709129333,0,0.0,0.0,,,,,0,,3,0.0,
Raw,1717243,1696642000000,,,-1329526433789550837,0.9435291290283203,38.81178781739436,-5.908380119694442,11.042565098859361,85,17,0.0,207,15712361566944,5,40.6,-457.444580078125,0.2209000140428543,0,0.0,0.0,,,,,0,,3,0.0,
Raw,1717243,1696642000000,,,-1329526433789550837,0.9435291290283203,38.81178781739436,-5.908380119694442,11.042565098859361,85,2,0.0,15,177730362445422,13,31.3,-6.680836200714111,0.028200000524520874,0,0.0,0.0,,,,,0,,1,0.0,
Raw,1717243,1696642000000,,,-1329526433789550837,0.9435291290283203,38.81178781739436,-5.908380119694442,11.042565098859361,85,6,0.0,15,177730358852510,16,29.1,469.29248046875,0.053700003772974014,0,0.0,0.0,,,,,0,,1,0.0,
Raw,1717243,1696642000000,,,-1329526433789550837,0.9435291290283203,38.81178781739436,-5.908380119694442,11.042565098859361,85,12,0.0,15,177730363465429,8,36.7,-228.10398864746094,0.025700001046061516,0,0.0,0.0,,,,,0,,1,0.0,
Raw,1717244,1696642000000,,,-1329526433789550837,0.9435291290283203,38.81178781739436,-5.908380119694442,11.042565098859361,85,17,0.0,15,177730346537456,370,21.2,475.3250732421875,1.755500078201294,0,0.0,0.0,,,,,0,,1,0.0,
Raw,1717244,1696642000000,,,-1329526433789550837,0.9435291290283203,38.81178781739436,-5.908380119694442,11.042565098859361,85,19,0.0,15,177730353374102,14,30.1,532.44384765625,0.04530000314116478,0,0.0,0.0,,,,,0,,1,0.0,
Raw,1717244,1696642000000,,,-1329526433789550837,0.9435291290283203,38.81178781739436,-5.908380119694442,11.042565098859361,85,20,0.0,15,177730354214985,31,23.7,-553.8402099609375,0.6375000476837158,0,0.0,0.0,,,,,0,,1,0.0,
Raw,1717244,1696642000000,,,-1329526433789550837,0.9435291290283203,38.81178781739436,-5.908380119694442,11.042565098859361,85,24,0.0,15,177730357254256,12,32.6,503.3614501953125,0.049400001764297485,0,0.0,0.0,,,,,0,,1,0.0,
Raw,1717245,1696642000000,,,-1329526433789550837,0.9435291290283203,38.81178781739436,-5.908380119694442,11.042565098859361,85,25,0.0,15,177730356574718,6,39.4,-566.0403442382812,0.04360000044107437,0,0.0,0.0,,,,,0,,1,0.0,
Fix,gps,37.425002,-122.169431,3.023254,0.000000,3.216000,1645492913000
Fix,gps,37.425001,-122.169427,3.256012,0.000000,3.216000,1645492914000
Raw,1718256,1697642000000,,,-1329526433789550837,0.04945945739746094,41.36475035920739,-5.012081056987739,11.40619598063645,85,14,0.0,207,15713367538404,7,37.3,-90.66819763183594,0.23109999299049377,0,0.0,0.0,,,,,0,,3,0.0,
Raw,1718256,1697642000000,,,-1329526433789550837,0.04945945739746094,41.36475035920739,-5.012081056987739,11.40619598063645,85,13,0.0,207,15713360969568,31,23.8,661.70166015625,0.9264999628067017,0,0.0,0.0,,,,,0,,3,0.0,
Raw,1718257,1697642000000,,,-1329526433789550837,0.04945945739746094,41.36475035920739,-5.012081056987739,11.40619598063645,85,15,0.0,207,15713358079882,6,38.8,-703.248291015625,0.24710001051425934,0,0.0,0.0,,,,,0,,3,0.0,
Raw,1718257,1697642000000,,,-1329526433789550837,0.04945945739746094,41.36475035920739,-5.012081056987739,11.40619598063645,85,24,0.0,207,15713366792299,14,30.8,172.2723846435547,0.23479999601840973,0,0.0,0.0,,,,,0,,3,0.0,
Raw,1718257,1697642000000,,,-1329526433789550837,0.04945945739746094,41.36475035920739,-5.012081056987739,11.40619598063645,85,23,0.0,207,15713359542019,70,17.1,621.3587036132812,1.3650000095367432,0,0.0,0.0,,,,,0,,3,0.0,
Raw,1718258,1697642000000,,,-1329526433789550837,0.04945945739746094,41.36475035920739,-5.012081056987739,11.40619598063645,85,17,0.0,207,15713361568448,5,40.6,-457.3171691894531,0.2209000140428543,0,0.0,0.0,,,,,0,,3,0.0,
Raw,1718258,1697642000000,,,-1329526433789550837,0.04945945739746094,41.36475035920739,-5.012081056987739,11.40619598063645,85,2,0.0,15,177731362445415,14,30.6,-6.615909099578857,0.028800001367926598,0,0.0,0.0,,,,,0,,1,0.0,
Raw,1718258,1697642000000,,,-1329526433789550837,0.04945945739746094,41.36475035920739,-5.012081056987739,11.40619598063645,85,6,0.0,15,177731358850907,9,35.2,469.4161071777344,0.048600003123283386,0,0.0,0.0,,,,,0,,1,0.0,
Raw,1718259,1697642000000,,,-1329526433789550837,0.04945945739746094,41.36475035920739,-5.012081056987739,11.40619598063645,85,12,0.0,15,177731363466209,13,31.4,-228.00006103515625,0.02970000170171261,0,0.0,0.0,,,,,0,,1,0.0,
Raw,1718259,1697642000000,,,-1329526433789550837,0.04945945739746094,41.36475035920739,-5.012081056987739,11.40619598063645,85,17,0.0,15,177731346535876,432,20.0,475.0586242675781,2.565500020980835,0,0.0,0.0,,,,,0,,1,0.0,
Raw,1718259,1697642000000,,,-1329526433789550837,0.04945945739746094,41.36475035920739,-5.012081056987739,11.40619598063645,85,19,0.0,15,177731353372326,17,28.3,532.3876342773438,0.052799999713897705,0,0.0,0.0,,,,,0,,1,0.0,
Raw,1718260,1697642000000,,,-1329526433789550837,0.04945945739746094,41.36475035920739,-5.012081056987739,11.40619598063645,85,20,0.0,15,177731354216590,35,22.2,-553.6689453125,0.6875,0,0.0,0.0,,,,,0,,1,0.0,
Raw,1718260,1697642000000,,,-1329526433789550837,0.04945945739746094,41.36475035920739,-5.012081056987739,11.40619598063645,85,24,0.0,15,177731357252583,17,28.2,503.3822326660156,0.058800000697374344,0,0.0,0.0,,,,,0,,1,0.0,
Raw,1718260,1697642000000,,,-1329526433789550837,0.04945945739746094,41.36475035920739,-5.012081056987739,11.40619598063645,85,25,0.0,15,177731356576603,6,38.0,-565.9554443359375,0.04410000145435333,0,0.0,0.0,,,,,0,,1,0.0,
Fix,gps,37.425000,-122.169424,2.803040,0.000000,3.216000,1645492915000
Raw,1719253,1698642000000,,,-1329526433789550846,0.10876274108886719,47.196546802297235,-4.773947949565112,10.64040216509833,85,14,0.0,207,15714367538668,9,35.1,-90.34829711914062,0.2320999950170517,0,0.0,0.0,,,,,0,,3,0.0,
Raw,1719254,1698642000000,,,-1329526433789550846,0.10876274108886719,47.196546802297235,-4.773947949565112,10.64040216509833,85,13,0.0,207,15714360967279,27,24.7,661.4769287109375,0.8664999604225159,0,0.0,0.0,,,,,0,,3,0.0,
Raw,1719254,1698642000000,,,-1329526433789550846,0.10876274108886719,47.196546802297235,-4.773947949565112,10.64040216509833,85,15,0.0,207,15714358082191,5,40.3,-703.3142700195312,0.24640001356601715,0,0.0,0.0,,,,,0,,3,0.0,
Raw,1719254,1698642000000,,,-1329526433789550846,0.10876274108886719,47.196546802297235,-4.773947949565112,10.64040216509833,85,24,0.0,207,15714366791711,10,34.7,172.359619140625,0.23110000789165497,0,0.0,0.0,,,,,0,,3,0.0,
Raw,1719254,1698642000000,,,-1329526433789550846,0.10876274108886719,47.196546802297235,-4.773947949565112,10.64040216509833,85,23,0.0,207,15714359539796,27,24.2,621.38671875,0.8649999499320984,0,0.0,0.0,,,,,0,,3,0.0,
Raw,1719255,1698642000000,,,-1329526433789550846,0.10876274108886719,47.196546802297235,-4.773947949565112,10.64040216509833,85,17,0.0,207,15714361569983,6,39.0,-457.1584167480469,0.22110000252723694,0,0.0,0.0,,,,,0,,3,0.0,
Raw,1719256,1698642000000,,,-1329526433789550846,0.10876274108886719,47.196546802297235,-4.773947949565112,10.64040216509833,85,2,0.0,15,177732362445485,12,32.1,-6.361218452453613,0.026900000870227814,0,0.0,0.0,,,,,0,,1,0.0,
Raw,1719256,1698642000000,,,-1329526433789550846,0.10876274108886719,47.196546802297235,-4.773947949565112,10.64040216509833,85,6,0.0,15,177732358849324,8,36.2,469.2832336425781,0.04820000380277634,0,0.0,0.0,,,,,0,,1,0.0,
Raw,1719256,1698642000000,,,-1329526433789550846,0.10876274108886719,47.196546802297235,-4.773947949565112,10.64040216509833,85,12,0.0,15,177732363466975,11,33.3,-228.06253051757812,0.027400000020861626,0,0.0,0.0,,,,,0,,1,0.0,
Raw,1719257,1698642000000,,,-1329526433789550846,0.10876274108886719,47.196546802297235,-4.773947949565112,10.64040216509833,85,17,0.0,15,177732346534233,32,23.2,475.439208984375,1.0245000123977661,0,0.0,0.0,,,,,0,,1,0.0,
Raw,1719257,1698642000000,,,-1329526433789550846,0.10876274108886719,47.196546802297235,-4.773947949565112,10.64040216509833,85,19,0.0,15,177732353370553,14,30.2,532.1826782226562,0.04530000314116478,0,0.0,0.0,,,,,0,,1,0.0,
Raw,1719257,1698642000000,,,-1329526433789550846,0.10876274108886719,47.196546802297235,-4.773947949565112,10.64040216509833,85,20,0.0,15,177732354218658,21,26.5,-553.8673095703125,0.13220000267028809,0,0.0,0.0,,,,,0,,1,0.0,
Raw,1719258,1698642000000,,,-1329526433789550846,0.10876274108886719,47.196546802297235,-4.773947949565112,10.64040216509833,85,24,0.0,15,177732357250914,11,33.8,503.4993896484375,0.04840000346302986,0,0.0,0.0,,,,,0,,1,0.0,
Raw,1719258,1698642000000,,,-1329526433789550846,0.10876274108886719,47.196546802297235,-4.773947949565112,10.64040216509833,85,25,0.0,15,177732356578498,7,37.5,-565.8585205078125,0.044600002467632294,0,0.0,0.0,,,,,0,,1,0.0,
Fix,gps,37.424998,-122.169421,2.850555,0.000000,3.216000,1645492916000
Raw,1720249,1699642000000,,,-1329526433789550850,0.5324840545654297,43.600230128504336,-5.43629508301487,10.96234850982276,85,14,0.0,207,15715367538987,9,35.2,-89.97502136230469,0.2320999950170517,0,0.0,0.0,,,,,0,,3,0.0,
Raw,1720250,1699642000000,,,-1329526433789550850,0.5324840545654297,43.600230128504336,-5.43629508301487,10.96234850982276,85,13,0.0,207,15715360964995,21,26.6,662.2108154296875,0.31119999289512634,0,0.0,0.0,,,,,0,,3,0.0,
Raw,1720250,1699642000000,,,-1329526433789550850,0.5324840545654297,43.600230128504336,-5.43629508301487,10.96234850982276,85,15,0.0,207,15715358084533,6,38.5,-702.4354248046875,0.24710001051425934,0,0.0,0.0,,,,,0,,3,0.0,
Raw,1720250,1699642000000,,,-1329526433789550850,0.5324840545654297,43.600230128504336,-5.43629508301487,10.96234850982276,85,24,0.0,207,15715366791110,7,37.3,173.25025939941406,0.2295999974012375,0,0.0,0.0,,,,,0,,3,0.0,
Raw,1720251,1699642000000,,,-1329526433789550850,0.5324840545654297,43.600230128504336,-5.43629508301487,10.96234850982276,85,23,0.0,207,15715359537719,21,26.8,621.6949462890625,0.30970001220703125,0,0.0,0.0,,,,,0,,3,0.0,
Raw,1720251,1699642000000,,,-1329526433789550850,0.5324840545654297,43.600230128504336,-5.43629508301487,10.96234850982276,85,17,0.0,207,15715361571513,6,38.1,-456.83184814453125,0.2216000109910965,0,0.0,0.0,,,,,0,,3,0.0,
Raw,1720251,1699642000000,,,-1329526433789550850,0.5324840545654297,43.600230128504336,-5.43629508301487,10.96234850982276,85,2,0.0,15,177733362445519,11,33.8,-5.642592906951904,0.02590000070631504,0,0.0,0.0,,,,,0,,1,0.0,
Raw,1720252,1699642000000,,,-1329526433789550850,0.5324840545654297,43.600230128504336,-5.43629508301487,10.96234850982276,85,6,0.0,15,177733358847746,8,36.0,470.2981262207031,0.04820000380277634,0,0.0,0.0,,,,,0,,1,0.0,
Raw,1720252,1699642000000,,,-1329526433789550850,0.5324840545654297,43.600230128504336,-5.43629508301487,10.96234850982276,85,12,0.0,15,177733363467716,14,30.2,-227.26278686523438,0.030300000682473183,0,0.0,0.0,,,,,0,,1,0.0,
Raw,1720252,1699642000000,,,-1329526433789550850,0.5324840545654297,43.600230128504336,-5.43629508301487,10.96234850982276,85,17,0.0,15,177733346532696,35,22.1,476.3621520996094,0.6754999756813049,0,0.0,0.0,,,,,0,,1,0.0,
Raw,1720252,1699642000000,,,-1329526433789550850,0.5324840545654297,43.600230128504336,-5.43629508301487,10.96234850982276,85,19,0.0,15,177733353368781,19,27.3,533.2448120117188,0.06080000102519989,0,0.0,0.0,,,,,0,,1,0.0,
Raw,1720253,1699642000000,,,-1329526433789550850,0.5324840545654297,43.600230128504336,-5.43629508301487,10.96234850982276,85,20,0.0,15,177733354220501,21,26.1,-553.2517700195312,0.13220000267028809,0,0.0,0.0,,,,,0,,1,0.0,
Raw,1720253,1699642000000,,,-1329526433789550850,0.5324840545654297,43.600230128504336,-5.43629508301487,10.96234850982276,85,24,0.0,15,177733357249218,10,34.1,504.1507568359375,0.047600001096725464,0,0.0,0.0,,,,,0,,1,0.0,
Raw,1720253,1699642000000,,,-1329526433789550850,0.5324840545654297,43.600230128504336,-5.43629508301487,10.96234850982276,85,25,0.0,15,177733356580370,7,37.8,-565.5990600585938,0.044600002467632294,0,0.0,0.0,,,,,0,,1,0.0,
Raw,1721249,1700642000000,,,-1329526433789550847,0.6617279052734375,42.367180867586285,-3.4229319433714918,12.209394142853913,85,14,0.0,207,15716367539297,8,36.9,-89.9625015258789,0.23170000314712524,0,0.0,0.0,,,,,0,,3,0.0,
Raw,1721250,1700642000000,,,-1329526433789550847,0.6617279052734375,42.367180867586285,-3.4229319433714918,12.209394142853913,85,13,0.0,207,15716360962803,53,19.1,661.5986938476562,1.1965000629425049,0,0.0,0.0,,,,,0,,3,0.0,
Raw,1721250,1700642000000,,,-1329526433789550847,0.6617279052734375,42.367180867586285,-3.4229319433714918,12.209394142853913,85,15,0.0,207,15716358086888,6,38.2,-703.0985717773438,0.24710001051425934,0,0.0,0.0,,,,,0,,3,0.0,
Raw,1721251,1700642000000,,,-1329526433789550847,0.6617279052734375,42.367180867586285,-3.4229319433714918,12.209394142853913,85,24,0.0,207,15716366790560,16,29.8,172.97032165527344,0.6654999852180481,0,0.0,0.0,,,,,0,,3,0.0,
Raw,1721251,1700642000000,,,-1329526433789550847,0.6617279052734375,42.367180867586285,-3.4229319433714918,12.209394142853913,85,23,0.0,207,15716359535747,31,23.6,621.2465209960938,0.9249999523162842,0,0.0,0.0,,,,,0,,3,0.0,
Raw,1721252,1700642000000,,,-1329526433789550847,0.6617279052734375,42.367180867586285,-3.4229319433714918,12.209394142853913,85,17,0.0,207,15716361573054,10,34.6,-456.84039306640625,0.22360001504421234,0,0.0,0.0,,,,,0,,3,0.0,
Raw,1721252,1700642000000,,,-1329526433789550847,0.6617279052734375,42.367180867586285,-3.4229319433714918,12.209394142853913,85,2,0.0,15,177734362445524,9,35.4,-5.706297397613525,0.02460000105202198,0,0.0,0.0,,,,,0,,1,0.0,
Raw,1721253,1700642000000,,,-1329526433789550847,0.6617279052734375,42.367180867586285,-3.4229319433714918,12.209394142853913,85,6,0.0,15,177734358846058,31,23.0,470.4630432128906,0.643500030040741,0,0.0,0.0,,,,,0,,1,0.0,
Raw,1721253,1700642000000,,,-1329526433789550847,0.6617279052734375,42.367180867586285,-3.4229319433714918,12.209394142853913,85,12,0.0,15,177734363468473,9,35.5,-227.74267578125,0.026100000366568565,0,0.0,0.0,,,,,0,,1,0.0,
Raw,1721254,1700642000000,,,-1329526433789550847,0.6617279052734375,42.367180867586285,-3.4229319433714918,12.209394142853913,85,17,0.0,15,177734346531100,70,17.1,475.1632995605469,1.005500078201294,0,0.0,0.0,,,,,0,,1,0.0,
Raw,1721254,1700642000000,,,-1329526433789550847,0.6617279052734375,42.367180867586285,-3.4229319433714918,12.209394142853913,85,19,0.0,15,177734353366916,19,27.3,532.6077270507812,0.06080000102519989,0,0.0,0.0,,,,,0,,1,0.0,
Raw,1721254,1700642000000,,,-1329526433789550847,0.6617279052734375,42.367180867586285,-3.4229319433714918,12.209394142853913,85,20,0.0,15,177734354222294,16,29.5,-553.4677734375,0.047700002789497375,0,0.0,0.0,,,,,0,,1,0.0,
Raw,1721255,1700642000000,,,-1329526433789550847,0.6617279052734375,42.367180867586285,-3.4229319433714918,12.209394142853913,85,24,0.0,15,177734357247531,7,37.8,503.94757080078125,0.04610000178217888,0,0.0,0.0,,,,,0,,1,0.0,
Raw,1721257,1700642000000,,,-1329526433789550847,0.6617279052734375,42.367180867586285,-3.4229319433714918,12.209394142853913,85,25,0.0,15,177734356582255,11,33.2,-565.8651123046875,0.04690000042319298,0,0.0,0.0,,,,,0,,1,0.0,
Fix,gps,37.424998,-122.169425,2.853302,0.510000,3.216000,1645492917000
Raw,1722239,1701642000000,,,-1329526433789550850,0.8007049560546875,44.0814983448945,-3.687552605713052,13.426223954063476,85,14,0.0,207,15717367539612,6,39.0,-89.72627258300781,0.23009999096393585,0,0.0,0.0,,,,,0,,3,0.0,
Raw,1722239,1701642000000,,,-1329526433789550850,0.8007049560546875,44.0814983448945,-3.687552605713052,13.426223954063476,85,13,0.0,207,15717360960729,19,27.8,662.0274658203125,0.24130000174045563,0,0.0,0.0,,,,,0,,3,0.0,
Raw,1722239,1701642000000,,,-1329526433789550850,0.8007049560546875,44.0814983448945,-3.687552605713052,13.426223954063476,85,15,0.0,207,15717358089237,6,38.0,-702.8408813476562,0.24710001051425934,0,0.0,0.0,,,,,0,,3,0.0,
Raw,1722241,1701642000000,,,-1329526433789550850,0.8007049560546875,44.0814983448945,-3.687552605713052,13.426223954063476,85,24,0.0,207,15717366789956,10,34.1,172.9422607421875,0.515500009059906,0,0.0,0.0,,,,,0,,3,0.0,
Raw,1722241,1701642000000,,,-1329526433789550850,0.8007049560546875,44.0814983448945,-3.687552605713052,13.426223954063476,85,23,0.0,207,15717359533648,19,27.6,621.3338623046875,0.23980000615119934,0,0.0,0.0,,,,,0,,3,0.0,
Raw,1722241,1701642000000,,,-1329526433789550850,0.8007049560546875,44.0814983448945,-3.687552605713052,13.426223954063476,85,17,0.0,207,15717361574540,19,27.2,-456.68157958984375,0.2428000122308731,0,0.0,0.0,,,,,0,,3,0.0,
Raw,1722241,1701642000000,,,-1329526433789550850,0.8007049560546875,44.0814983448945,-3.687552605713052,13.426223954063476,85,2,0.0,15,177735362445557,6,38.0,-5.863399505615234,0.023100001737475395,0,0.0,0.0,,,,,0,,1,0.0,
Raw,1722242,1701642000000,,,-1329526433789550850,0.8007049560546875,44.0814983448945,-3.687552605713052,13.426223954063476,85,6,0.0,15,177735358844597,14,30.5,469.87310791015625,0.3935000002384186,0,0.0,0.0,,,,,0,,1,0.0,
Raw,1722242,1701642000000,,,-1329526433789550850,0.8007049560546875,44.0814983448945,-3.687552605713052,13.426223954063476,85,12,0.0,15,177735363469238,6,39.5,-227.41036987304688,0.02410000190138817,0,0.0,0.0,,,,,0,,1,0.0,
Raw,1722242,1701642000000,,,-1329526433789550850,0.8007049560546875,44.0814983448945,-3.687552605713052,13.426223954063476,85,17,0.0,15,177735346529514,80,16.5,472.85125732421875,1.0855000019073486,0,0.0,0.0,,,,,0,,1,0.0,
Raw,1722242,1701642000000,,,-1329526433789550850,0.8007049560546875,44.0814983448945,-3.687552605713052,13.426223954063476,85,20,0.0,15,177735354224224,27,24.8,-552.9172973632812,0.5975000262260437,0,0.0,0.0,,,,,0,,1,0.0,
Raw,1722242,1701642000000,,,-1329526433789550850,0.8007049560546875,44.0814983448945,-3.687552605713052,13.426223954063476,85,24,0.0,15,177735357245837,7,37.7,504.0735778808594,0.04610000178217888,0,0.0,0.0,,,,,0,,1,0.0,
Raw,1722243,1701642000000,,,-1329526433789550850,0.8007049560546875,44.0814983448945,-3.687552605713052,13.426223954063476,85,25,0.0,15,177735356584130,8,36.2,-565.671875,0.04520000144839287,0,0.0,0.0,,,,,0,,1,0.0,
Fix,gps,37.424999,-122.169428,3.452850,0.000000,3.216000,1645492918000
Fix,gps,37.424999,-122.169429,3.028809,0.390000,3.216000,1645492919000
Raw,1723249,1702642000000,,,-1329526433789550850,0.05564689636230469,40.75069591635838,-3.9127095469843933,11.688908042217587,85,14,0.0,207,15718367539891,6,39.5,-89.06097412109375,0.23009999096393585,0,0.0,0.0,,,,,0,,3,0.0,
Raw,1723249,1702642000000,,,-1329526433789550850,0.05564689636230469,40.75069591635838,-3.9127095469843933,11.688908042217587,85,13,0.0,207,15718360958474,14,30.6,662.3911743164062,0.22579999268054962,0,0.0,0.0,,,,,0,,3,0.0,
Raw,1723249,1702642000000,,,-1329526433789550850,0.05564689636230469,40.75069591635838,-3.9127095469843933,11.688908042217587,85,15,0.0,207,15718358091591,6,38.2,-701.9790649414062,0.24710001051425934,0,0.0,0.0,,,,,0,,3,0.0,
Raw,1723250,1702642000000,,,-1329526433789550850,0.05564689636230469,40.75069591635838,-3.9127095469843933,11.688908042217587,85,24,0.0,207,15718366789371,9,35.7,173.63528442382812,0.2305999994277954,0,0.0,0.0,,,,,0,,3,0.0,
Raw,1723250,1702642000000,,,-1329526433789550850,0.05564689636230469,40.75069591635838,-3.9127095469843933,11.688908042217587,85,23,0.0,207,15718359531527,21,26.9,622.2095336914062,0.30970001220703125,0,0.0,0.0,,,,,0,,3,0.0,
Raw,1723250,1702642000000,,,-1329526433789550850,0.05564689636230469,40.75069591635838,-3.9127095469843933,11.688908042217587,85,17,0.0,207,15718361576090,5,40.2,-456.0261535644531,0.2209000140428543,0,0.0,0.0,,,,,0,,3,0.0,
Raw,1723251,1702642000000,,,-1329526433789550850,0.05564689636230469,40.75069591635838,-3.9127095469843933,11.688908042217587,85,2,0.0,15,177736362445574,11,33.6,-5.606386661529541,0.02590000070631504,0,0.0,0.0,,,,,0,,1,0.0,
Raw,1723251,1702642000000,,,-1329526433789550850,0.05564689636230469,40.75069591635838,-3.9127095469843933,11.688908042217587,85,6,0.0,15,177736358843070,16,29.7,470.3700866699219,0.053700003772974014,0,0.0,0.0,,,,,0,,1,0.0,
Raw,1723251,1702642000000,,,-1329526433789550850,0.05564689636230469,40.75069591635838,-3.9127095469843933,11.688908042217587,85,12,0.0,15,177736363469992,7,37.1,-226.66598510742188,0.025100000202655792,0,0.0,0.0,,,,,0,,1,0.0,
Raw,1723251,1702642000000,,,-1329526433789550850,0.05564689636230469,40.75069591635838,-3.9127095469843933,11.688908042217587,85,17,0.0,15,177736346527937,89,16.5,472.85125732421875,2.5855000019073486,0,0.0,0.0,,,,,0,,1,0.0,
Raw,1723252,1702642000000,,,-1329526433789550850,0.05564689636230469,40.75069591635838,-3.9127095469843933,11.688908042217587,85,19,0.0,15,177736353363426,15,30.7,533.48828125,0.7639999985694885,0,0.0,0.0,,,,,0,,1,0.0,
Raw,1723252,1702642000000,,,-1329526433789550850,0.05564689636230469,40.75069591635838,-3.9127095469843933,11.688908042217587,85,20,0.0,15,177736354226046,24,25.7,-552.7447509765625,0.4027999937534332,0,0.0,0.0,,,,,0,,1,0.0,
Raw,1723252,1702642000000,,,-1329526433789550850,0.05564689636230469,40.75069591635838,-3.9127095469843933,11.688908042217587,85,24,0.0,15,177736357244166,7,37.3,504.5309143066406,0.04610000178217888,0,0.0,0.0,,,,,0,,1,0.0,
Raw,1723252,1702642000000,,,-1329526433789550850,0.05564689636230469,40.75069591635838,-3.9127095469843933,11.688908042217587,85,25,0.0,15,177736356586042,5,40.0,-564.8392944335938,0.04340000078082085,0,0.0,0.0,,,,,0,,1,0.0,
Fix,gps,37.424998,-122.169427,2.719299,0.330000,3.216000,1645492920000
Raw,1724246,1703642000000,,,-1329526433789550855,0.6449031829833984,38.58236959786154,-2.657757848819696,13.660740531251497,85,14,0.0,207,15719367540181,13,31.3,-88.19247436523438,0.23569999635219574,0,0.0,0.0,,,,,0,,3,0.0,
Raw,1724246,1703642000000,,,-1329526433789550855,0.6449031829833984,38.58236959786154,-2.657757848819696,13.660740531251497,85,13,0.0,207,15719360956202,27,24.4,662.6005249023438,0.8664999604225159,0,0.0,0.0,,,,,0,,3,0.0,
Raw,1724246,1703642000000,,,-1329526433789550855,0.6449031829833984,38.58236959786154,-2.657757848819696,13.660740531251497,85,15,0.0,207,15719358093934,7,37.4,-702.0294189453125,0.2476000040769577,0,0.0,0.0,,,,,0,,3,0.0,
Raw,1724247,1703642000000,,,-1329526433789550855,0.6449031829833984,38.58236959786154,-2.657757848819696,13.660740531251497,85,24,0.0,207,15719366788762,13,31.5,173.93173217773438,0.23420000076293945,0,0.0,0.0,,,,,0,,3,0.0,
Raw,1724247,1703642000000,,,-1329526433789550855,0.6449031829833984,38.58236959786154,-2.657757848819696,13.660740531251497,85,23,0.0,207,15719359529515,35,22.4,621.872802734375,0.98499995470047,0,0.0,0.0,,,,,0,,3,0.0,
Raw,1724247,1703642000000,,,-1329526433789550855,0.6449031829833984,38.58236959786154,-2.657757848819696,13.660740531251497,85,17,0.0,207,15719361577613,6,39.4,-455.514892578125,0.22110000252723694,0,0.0,0.0,,,,,0,,3,0.0,
Raw,1724247,1703642000000,,,-1329526433789550855,0.6449031829833984,38.58236959786154,-2.657757848819696,13.660740531251497,85,2,0.0,15,177737362445572,7,37.8,-4.981890678405762,0.023600000888109207,0,0.0,0.0,,,,,0,,1,0.0,
Raw,1724248,1703642000000,,,-1329526433789550855,0.6449031829833984,38.58236959786154,-2.657757848819696,13.660740531251497,85,6,0.0,15,177737358841457,16,29.1,470.7635498046875,0.053700003772974014,0,0.0,0.0,,,,,0,,1,0.0,
Raw,1724248,1703642000000,,,-1329526433789550855,0.6449031829833984,38.58236959786154,-2.657757848819696,13.660740531251497,85,12,0.0,15,177737363470746,7,37.0,-226.44003295898438,0.025100000202655792,0,0.0,0.0,,,,,0,,1,0.0,
Raw,1724249,1703642000000,,,-1329526433789550855,0.6449031829833984,38.58236959786154,-2.657757848819696,13.660740531251497,85,17,0.0,15,177737346526397,49,20.5,476.20037841796875,1.5455000400543213,0,0.0,0.0,,,,,0,,1,0.0,
Raw,1724249,1703642000000,,,-1329526433789550855,0.6449031829833984,38.58236959786154,-2.657757848819696,13.660740531251497,85,19,0.0,15,177737353361612,31,23.8,533.2980346679688,0.6360000371932983,0,0.0,0.0,,,,,0,,1,0.0,
Raw,1724249,1703642000000,,,-1329526433789550855,0.6449031829833984,38.58236959786154,-2.657757848819696,13.660740531251497,85,20,0.0,15,177737354227821,46,20.4,-552.1085815429688,0.8075000047683716,0,0.0,0.0,,,,,0,,1,0.0,
Raw,1724249,1703642000000,,,-1329526433789550855,0.6449031829833984,38.58236959786154,-2.657757848819696,13.660740531251497,85,24,0.0,15,177737357242482,5,40.6,504.9224548339844,0.04490000009536743,0,0.0,0.0,,,,,0,,1,0.0,
Raw,1724249,1703642000000,,,-1329526433789550855,0.6449031829833984,38.58236959786154,-2.657757848819696,13.660740531251497,85,25,0.0,15,177737356587905,10,34.8,-564.5203247070312,0.04610000178217888,0,0.0,0.0,,,,,0,,1,0.0,
Fix,gps,37.424994,-122.169426,2.667114,0.000000,3.216000,1645492921000
Raw,1725227,1704642000000,,,-1329526433789550856,0.9594497680664062,38.88530045514926,-1.9036916117542828,11.886198415172128,85,14,0.0,207,15720367540476,17,28.9,-88.76887512207031,0.24379999935626984,0,0.0,0.0,,,,,0,,3,0.0,
Raw,1725227,1704642000000,,,-1329526433789550856,0.9594497680664062,38.88530045514926,-1.9036916117542828,11.886198415172128,85,13,0.0,207,15720360954037,70,17.1,663.0219116210938,1.3665000200271606,0,0.0,0.0,,,,,0,,3,0.0,
Raw,1725227,1704642000000,,,-1329526433789550856,0.9594497680664062,38.88530045514926,-1.9036916117542828,11.886198415172128,85,15,0.0,207,15720358096283,12,32.3,-702.2799072265625,0.250900000333786,0,0.0,0.0,,,,,0,,3,0.0,
Raw,1725228,1704642000000,,,-1329526433789550856,0.9594497680664062,38.88530045514926,-1.9036916117542828,11.886198415172128,85,24,0.0,207,15720366788217,14,30.6,173.8282928466797,0.23479999601840973,0,0.0,0.0,,,,,0,,3,0.0,
Raw,1725228,1704642000000,,,-1329526433789550856,0.9594497680664062,38.88530045514926,-1.9036916117542828,11.886198415172128,85,23,0.0,207,15720359527393,40,21.4,622.1344604492188,1.0449999570846558,0,0.0,0.0,,,,,0,,3,0.0,
Raw,1725228,1704642000000,,,-1329526433789550856,0.9594497680664062,38.88530045514926,-1.9036916117542828,11.886198415172128,85,17,0.0,207,15720361579152,9,35.9,-455.90826416015625,0.22310000658035278,0,0.0,0.0,,,,,0,,3,0.0,
Raw,1725228,1704642000000,,,-1329526433789550856,0.9594497680664062,38.88530045514926,-1.9036916117542828,11.886198415172128,85,2,0.0,15,177738362445597,6,38.6,-5.052578926086426,0.023100001737475395,0,0.0,0.0,,,,,0,,1,0.0,
Raw,1725229,1704642000000,,,-1329526433789550856,0.9594497680664062,38.88530045514926,-1.9036916117542828,11.886198415172128,85,6,0.0,15,177738358839887,14,30.9,470.90576171875,0.052800003439188004,0,0.0,0.0,,,,,0,,1,0.0,
Raw,1725229,1704642000000,,,-1329526433789550856,0.9594497680664062,38.88530045514926,-1.9036916117542828,11.886198415172128,85,12,0.0,15,177738363471515,12,32.5,-226.4925994873047,0.0284000001847744,0,0.0,0.0,,,,,0,,1,0.0,
Raw,1725229,1704642000000,,,-1329526433789550856,0.9594497680664062,38.88530045514926,-1.9036916117542828,11.886198415172128,85,17,0.0,15,177738346524827,31,23.9,476.7142028808594,0.6255000233650208,0,0.0,0.0,,,,,0,,1,0.0,
Raw,1725229,1704642000000,,,-1329526433789550856,0.9594497680664062,38.88530045514926,-1.9036916117542828,11.886198415172128,85,19,0.0,15,177738353359826,31,23.9,533.1172485351562,0.6360000371932983,0,0.0,0.0,,,,,0,,1,0.0,
Raw,1725230,1704642000000,,,-1329526433789550856,0.9594497680664062,38.88530045514926,-1.9036916117542828,11.886198415172128,85,20,0.0,15,177738354229780,53,19.4,-552.1181030273438,0.8675000071525574,0,0.0,0.0,,,,,0,,1,0.0,
Raw,1725230,1704642000000,,,-1329526433789550856,0.9594497680664062,38.88530045514926,-1.9036916117542828,11.886198415172128,85,24,0.0,15,177738357240799,5,40.3,504.7198181152344,0.04490000009536743,0,0.0,0.0,,,,,0,,1,0.0,
Raw,1725230,1704642000000,,,-1329526433789550856,0.9594497680664062,38.88530045514926,-1.9036916117542828,11.886198415172128,85,25,0.0,15,177738356589800,16,29.1,-564.9765625,0.050700001418590546,0,0.0,0.0,,,,,0,,1,0.0,
Fix,gps,37.424991,-122.169426,2.680756,0.000000,3.216000,1645492922000
Raw,1726250,1705642000000,,,-1329526433789550859,0.5321826934814453,38.50220673484728,-2.2217814508733995,12.551102369887255,85,14,0.0,207,15721367540753,10,34.2,-88.61241912841797,0.23260000348091125,0,0.0,0.0,,,,,0,,3,0.0,
Raw,1726250,1705642000000,,,-1329526433789550859,0.5321826934814453,38.50220673484728,-2.2217814508733995,12.551102369887255,85,13,0.0,207,15721360951850,31,23.1,663.2841186523438,0.9264999628067017,0,0.0,0.0,,,,,0,,3,0.0,
Raw,1726250,1705642000000,,,-1329526433789550859,0.5321826934814453,38.50220673484728,-2.2217814508733995,12.551102369887255,85,15,0.0,207,15721358098563,12,32.7,-702.06494140625,0.250900000333786,0,0.0,0.0,,,,,0,,3,0.0,
Raw,1726250,1705642000000,,,-1329526433789550859,0.5321826934814453,38.50220673484728,-2.2217814508733995,12.551102369887255,85,24,0.0,207,15721366787649,14,30.4,173.67645263671875,0.23479999601840973,0,0.0,0.0,,,,,0,,3,0.0,
Raw,1726250,1705642000000,,,-1329526433789550859,0.5321826934814453,38.50220673484728,-2.2217814508733995,12.551102369887255,85,23,0.0,207,15721359525343,46,20.5,622.6953125,1.1150000095367432,0,0.0,0.0,,,,,0,,3,0.0,
Raw,1726251,1705642000000,,,-1329526433789550859,0.5321826934814453,38.50220673484728,-2.2217814508733995,12.551102369887255,85,17,0.0,207,15721361580642,5,41.9,-455.89093017578125,0.22060000896453857,0,0.0,0.0,,,,,0,,3,0.0,
Raw,1726251,1705642000000,,,-1329526433789550859,0.5321826934814453,38.50220673484728,-2.2217814508733995,12.551102369887255,85,2,0.0,15,177739362445652,10,34.2,-5.015078067779541,0.025100000202655792,0,0.0,0.0,,,,,0,,1,0.0,
Raw,1726251,1705642000000,,,-1329526433789550859,0.5321826934814453,38.50220673484728,-2.2217814508733995,12.551102369887255,85,6,0.0,15,177739358838288,10,34.0,470.7891540527344,0.04910000041127205,0,0.0,0.0,,,,,0,,1,0.0,
Raw,1726251,1705642000000,,,-1329526433789550859,0.5321826934814453,38.50220673484728,-2.2217814508733995,12.551102369887255,85,12,0.0,15,177739363472249,10,34.3,-226.5618438720703,0.026600001379847527,0,0.0,0.0,,,,,0,,1,0.0,
Raw,1726252,1705642000000,,,-1329526433789550859,0.5321826934814453,38.50220673484728,-2.2217814508733995,12.551102369887255,85,17,0.0,15,177739346523179,40,21.9,476.08624267578125,0.7354999780654907,0,0.0,0.0,,,,,0,,1,0.0,
Raw,1726252,1705642000000,,,-1329526433789550859,0.5321826934814453,38.50220673484728,-2.2217814508733995,12.551102369887255,85,19,0.0,15,177739353357993,24,25.9,533.11181640625,0.40130001306533813,0,0.0,0.0,,,,,0,,1,0.0,
Raw,1726252,1705642000000,,,-1329526433789550859,0.5321826934814453,38.50220673484728,-2.2217814508733995,12.551102369887255,85,20,0.0,15,177739354231528,21,26.2,-553.02685546875,0.13220000267028809,0,0.0,0.0,,,,,0,,1,0.0,
Raw,1726252,1705642000000,,,-1329526433789550859,0.5321826934814453,38.50220673484728,-2.2217814508733995,12.551102369887255,85,24,0.0,15,177739357239124,5,40.7,504.659423828125,0.04490000009536743,0,0.0,0.0,,,,,0,,1,0.0,
Raw,1726252,1705642000000,,,-1329526433789550859,0.5321826934814453,38.50220673484728,-2.2217814508733995,12.551102369887255,85,25,0.0,15,177739356591686,6,38.0,-565.025146484375,0.04410000145435333,0,0.0,0.0,,,,,0,,1,0.0,
