# 
# Header Description:
# 
# Version: v2.0.0.1 Platform: 9 Manufacturer: samsung Model: SM-G960U
# 
# Raw,ElapsedRealtimeMillis,TimeNanos,LeapSecond,TimeUncertaintyNanos,FullBiasNanos,BiasNanos,BiasUncertaintyNanos,DriftNanosPerSecond,DriftUncertaintyNanosPerSecond,HardwareClockDiscontinuityCount,Svid,TimeOffsetNanos,State,ReceivedSvTimeNanos,ReceivedSvTimeUncertaintyNanos,Cn0DbHz,PseudorangeRateMetersPerSecond,PseudorangeRateUncertaintyMetersPerSecond,AccumulatedDeltaRangeState,AccumulatedDeltaRangeMeters,AccumulatedDeltaRangeUncertaintyMeters,CarrierFrequencyHz,CarrierCycles,CarrierPhase,CarrierPhaseUncertainty,MultipathIndicator,SnrInDb,ConstellationType,AgcDb,CarrierFrequencyHz
# 
# Fix,Provider,Latitude,Longitude,Altitude,Speed,Accuracy,(UTC)TimeInMs
# 
# Nav,Svid,Type,Status,MessageId,Sub-messageId,Data(Bytes)
# 
NMEA,$AIDSTAT,0,0,0,2,-6,23,3*00
,1645493237930
Raw,2042236,2021642000000,,,-1329526433789548352,0.8611698150634766,33.42003037687391,0.538238462592639,10.977413475679644,85,14,0.0,207,16037367605065,12,32.8,-37.86090850830078,0.23440000414848328,0,0.0,0.0,,,,,0,,3,0.0,
Raw,2042236,2021642000000,,,-1329526433789548352,0.8611698150634766,33.42003037687391,0.538238462592639,10.977413475679644,85,13,0.0,207,16037360234802,31,23.0,692.282470703125,0.9264999628067017,0,0.0,0.0,,,,,0,,3,0.0,
Raw,2042236,2021642000000,,,-1329526433789548352,0.8611698150634766,33.42003037687391,0.538238462592639,10.977413475679644,85,15,0.0,207,16037358825486,8,36.2,-681.2256469726562,0.24820001423358917,0,0.0,0.0,,,,,0,,3,0.0,
Raw,2042236,2021642000000,,,-1329526433789548352,0.8611698150634766,33.42003037687391,0.538238462592639,10.977413475679644,85,24,0.0,207,16037366584610,14,30.0,206.6322479248047,0.23479999601840973,0,0.0,0.0,,,,,0,,3,0.0,
Raw,2042236,2021642000000,,,-1329526433789548352,0.8611698150634766,33.42003037687391,0.538238462592639,10.977413475679644,85,23,0.0,207,16037358862480,6,39.6,630.9747314453125,0.24660000205039978,0,0.0,0.0,,,,,0,,3,0.0,
Raw,2042237,2021642000000,,,-1329526433789548352,0.8611698150634766,33.42003037687391,0.538238462592639,10.977413475679644,85,17,0.0,207,16037362042773,14,30.6,-425.7857360839844,0.2287999987602234,0,0.0,0.0,,,,,0,,3,0.0,
Raw,2042237,2021642000000,,,-1329526433789548352,0.8611698150634766,33.42003037687391,0.538238462592639,10.977413475679644,85,2,0.0,15,178055362430480,17,28.5,28.795936584472656,0.03629999980330467,0,0.0,0.0,,,,,0,,1,0.0,
Raw,2042237,2021642000000,,,-1329526433789548352,0.8611698150634766,33.42003037687391,0.538238462592639,10.977413475679644,85,6,0.0,15,178055358326333,5,40.7,495.8860778808594,0.046400003135204315,0,0.0,0.0,,,,,0,,1,0.0,
Raw,2042237,2021642000000,,,-1329526433789548352,0.8611698150634766,33.42003037687391,0.538238462592639,10.977413475679644,85,12,0.0,15,178055363694127,8,36.3,-198.9052734375,0.025700001046061516,0,0.0,0.0,,,,,0,,1,0.0,
Raw,2042237,2021642000000,,,-1329526433789548352,0.8611698150634766,33.42003037687391,0.538238462592639,10.977413475679644,85,19,0.0,15,178055352791499,53,19.6,536.276123046875,0.8644999861717224,0,0.0,0.0,,,,,0,,1,0.0,
Raw,2042238,2021642000000,,,-1329526433789548352,0.8611698150634766,33.42003037687391,0.538238462592639,10.977413475679644,85,20,0.0,15,178055354804979,19,27.3,-539.6589965820312,0.062300004065036774,0,0.0,0.0,,,,,0,,1,0.0,
Raw,2042238,2021642000000,,,-1329526433789548352,0.8611698150634766,33.42003037687391,0.538238462592639,10.977413475679644,85,24,0.0,15,178055356692930,53,19.6,525.372314453125,0.8704999685287476,0,0.0,0.0,,,,,0,,1,0.0,
Raw,2042238,2021642000000,,,-1329526433789548352,0.8611698150634766,33.42003037687391,0.538238462592639,10.977413475679644,85,25,0.0,15,178055357177841,8,36.5,-551.5576171875,0.04670000076293945,0,0.0,0.0,,,,,0,,1,0.0,
Fix,gps,37.425477,-122.169224,2.196350,0.000000,3.216000,1645493238000
NMEA,$GPGSV,3,1,11,02,82,140,29,06,40,045,41,11,00,000,32,12,69,331,36,1*6F
,1645493238001
NMEA,$GPGSV,3,2,11,19,18,063,20,20,26,143,27,24,35,216,20,25,30,312,37,1*61
,1645493238001
NMEA,$GPGSV,3,3,11,05,07,164,,17,01,071,,29,14,265,,1*5B
,1645493238002
NMEA,$GLGSV,2,1,07,78,80,278,33,77,33,156,23,79,28,326,36,88,68,347,30,1*7E
,1645493238002
NMEA,$GLGSV,2,2,07,87,28,032,40,81,39,246,31,71,00,000,,1*48
,1645493238002
NMEA,$GAGSV,1,1,0,7*43
,1645493238002
NMEA,$PQGSV,1,1,0,0*43
,1645493238002
NMEA,$GBGSV,1,1,0,0*47
,1645493238002
NMEA,$GNGSA,A,3,02,06,12,19,20,24,25,,,,,,1.1,0.8,0.8,1*3D
,1645493238006
NMEA,$GNGSA,A,3,77,78,79,81,87,88,,,,,,,1.1,0.8,0.8,2*35
,1645493238006
NMEA,$GNVTG,,T,,M,0.0,N,0.0,K,A*3D
,1645493238006
NMEA,$GNGGA,012718.00,3725.528628,N,12210.153435,W,1,12,0.8,30.1,M,-27.9,M,,*70
,1645493238007
NMEA,$GNRMC,012718.00,A,3725.528628,N,12210.153435,W,0.0,,220222,15.0,E,A,V*53
,1645493238007
NMEA,$AIDSTAT,0,0,0,2,,23,3*00
,1645493238931
Raw,2043259,2022642000000,,,-1329526433789548352,0.4737396240234375,35.38269447744824,2.471163975404567,10.963566081629068,85,14,0.0,207,16038367605232,17,28.8,-37.753177642822266,0.24379999935626984,0,0.0,0.0,,,,,0,,3,0.0,
Raw,2043260,2022642000000,,,-1329526433789548352,0.4737396240234375,35.38269447744824,2.471163975404567,10.963566081629068,85,13,0.0,207,16038360232612,31,23.7,692.0390625,0.9264999628067017,0,0.0,0.0,,,,,0,,3,0.0,
Raw,2043261,2022642000000,,,-1329526433789548352,0.4737396240234375,35.38269447744824,2.471163975404567,10.963566081629068,85,15,0.0,207,16038358827768,8,36.9,-681.19677734375,0.24820001423358917,0,0.0,0.0,,,,,0,,3,0.0,
Raw,2043261,2022642000000,,,-1329526433789548352,0.4737396240234375,35.38269447744824,2.471163975404567,10.963566081629068,85,24,0.0,207,16038366583865,16,29.1,206.7212677001953,0.23569999635219574,0,0.0,0.0,,,,,0,,3,0.0,
Raw,2043261,2022642000000,,,-1329526433789548352,0.4737396240234375,35.38269447744824,2.471163975404567,10.963566081629068,85,23,0.0,207,16038358860386,6,39.7,630.96728515625,0.26159998774528503,0,0.0,0.0,,,,,0,,3,0.0,
Raw,2043261,2022642000000,,,-1329526433789548352,0.4737396240234375,35.38269447744824,2.471163975404567,10.963566081629068,85,17,0.0,207,16038362044166,14,30.8,-425.69586181640625,0.2287999987602234,0,0.0,0.0,,,,,0,,3,0.0,
Raw,2043261,2022642000000,,,-1329526433789548352,0.4737396240234375,35.38269447744824,2.471163975404567,10.963566081629068,85,2,0.0,15,178056362430339,19,27.3,28.902633666992188,0.04430000111460686,0,0.0,0.0,,,,,0,,1,0.0,
Raw,2043262,2022642000000,,,-1329526433789548352,0.4737396240234375,35.38269447744824,2.471163975404567,10.963566081629068,85,6,0.0,15,178056358324664,5,40.4,495.9642028808594,0.046400003135204315,0,0.0,0.0,,,,,0,,1,0.0,
Raw,2043262,2022642000000,,,-1329526433789548352,0.4737396240234375,35.38269447744824,2.471163975404567,10.963566081629068,85,12,0.0,15,178056363694811,8,36.9,-198.8445281982422,0.025700001046061516,0,0.0,0.0,,,,,0,,1,0.0,
Raw,2043262,2022642000000,,,-1329526433789548352,0.4737396240234375,35.38269447744824,2.471163975404567,10.963566081629068,85,19,0.0,15,178056352789666,53,19.9,537.1324462890625,0.8644999861717224,0,0.0,0.0,,,,,0,,1,0.0,
Raw,2043262,2022642000000,,,-1329526433789548352,0.4737396240234375,35.38269447744824,2.471163975404567,10.963566081629068,85,20,0.0,15,178056354806795,16,29.1,-539.7072143554688,0.047700002789497375,0,0.0,0.0,,,,,0,,1,0.0,
Raw,2043262,2022642000000,,,-1329526433789548352,0.4737396240234375,35.38269447744824,2.471163975404567,10.963566081629068,85,24,0.0,15,178056356691298,27,24.2,526.36181640625,0.6004999876022339,0,0.0,0.0,,,,,0,,1,0.0,
Raw,2043263,2022642000000,,,-1329526433789548352,0.4737396240234375,35.38269447744824,2.471163975404567,10.963566081629068,85,25,0.0,15,178056357179662,8,36.1,-551.5499267578125,0.04670000076293945,0,0.0,0.0,,,,,0,,1,0.0,
Fix,gps,37.425476,-122.169224,2.173798,0.000000,3.216000,1645493239000
NMEA,$GPGSV,3,1,11,02,82,140,27,06,40,045,40,11,00,000,34,12,69,331,37,1*67
,1645493239004
NMEA,$GPGSV,3,2,11,19,18,063,20,20,26,143,29,24,35,216,24,25,30,312,36,1*6A
,1645493239004
NMEA,$GPGSV,3,3,11,05,07,164,,17,01,071,,29,14,265,,1*5B
,1645493239005
NMEA,$GLGSV,2,1,07,78,80,278,29,77,33,156,24,79,28,326,37,88,68,347,29,1*7B
,1645493239005
NMEA,$GLGSV,2,2,07,87,28,032,40,81,39,246,31,71,00,000,,1*48
,1645493239005
NMEA,$GAGSV,1,1,0,7*43
,1645493239006
NMEA,$PQGSV,1,1,0,0*43
,1645493239008
NMEA,$GBGSV,1,1,0,0*47
,1645493239008
NMEA,$GNGSA,A,3,02,06,12,19,20,24,25,,,,,,1.1,0.8,0.8,1*3D
,1645493239016
NMEA,$GNGSA,A,3,77,78,79,81,87,88,,,,,,,1.1,0.8,0.8,2*35
,1645493239016
NMEA,$GNVTG,,T,,M,0.0,N,0.0,K,A*3D
,1645493239016
NMEA,$GNGGA,012719.00,3725.528580,N,12210.153415,W,1,12,0.8,30.1,M,-27.9,M,,*72
,1645493239017
NMEA,$GNRMC,012719.00,A,3725.528580,N,12210.153415,W,0.0,,220222,15.0,E,A,V*51
,1645493239017
NMEA,$AIDSTAT,0,0,0,2,-3,23,3*00
,1645493239930
Raw,2044241,2023642000000,,,-1329526433789548344,0.6991806030273438,34.08458724152297,2.515352447683979,10.867453460414495,85,14,0.0,207,16039367605365,14,30.1,-37.52708435058594,0.23629999160766602,0,0.0,0.0,,,,,0,,3,0.0,
Raw,2044241,2023642000000,,,-1329526433789548344,0.6991806030273438,34.08458724152297,2.515352447683979,10.867453460414495,85,13,0.0,207,16039360230206,27,24.3,692.4042358398438,0.8664999604225159,0,0.0,0.0,,,,,0,,3,0.0,
Raw,2044243,2023642000000,,,-1329526433789548344,0.6991806030273438,34.08458724152297,2.515352447683979,10.867453460414495,85,15,0.0,207,16039358830029,7,37.5,-681.0504150390625,0.2476000040769577,0,0.0,0.0,,,,,0,,3,0.0,
Raw,2044243,2023642000000,,,-1329526433789548344,0.6991806030273438,34.08458724152297,2.515352447683979,10.867453460414495,85,24,0.0,207,16039366583162,12,32.1,206.83558654785156,0.232900008559227,0,0.0,0.0,,,,,0,,3,0.0,
Raw,2044244,2023642000000,,,-1329526433789548344,0.6991806030273438,34.08458724152297,2.515352447683979,10.867453460414495,85,23,0.0,207,16039358858274,6,39.5,631.0502319335938,0.24660000205039978,0,0.0,0.0,,,,,0,,3,0.0,
Raw,2044244,2023642000000,,,-1329526433789548344,0.6991806030273438,34.08458724152297,2.515352447683979,10.867453460414495,85,17,0.0,207,16039362045548,13,31.3,-425.58544921875,0.2282000035047531,0,0.0,0.0,,,,,0,,3,0.0,
Raw,2044244,2023642000000,,,-1329526433789548344,0.6991806030273438,34.08458724152297,2.515352447683979,10.867453460414495,85,2,0.0,15,178057362430259,21,26.7,29.056501388549805,0.11420000344514847,0,0.0,0.0,,,,,0,,1,0.0,
Raw,2044248,2023642000000,,,-1329526433789548344,0.6991806030273438,34.08458724152297,2.515352447683979,10.867453460414495,85,6,0.0,15,178057358322988,5,40.9,496.0606994628906,0.046400003135204315,0,0.0,0.0,,,,,0,,1,0.0,
Raw,2044248,2023642000000,,,-1329526433789548344,0.6991806030273438,34.08458724152297,2.515352447683979,10.867453460414495,85,12,0.0,15,178057363695460,9,35.7,-198.6737060546875,0.026100000366568565,0,0.0,0.0,,,,,0,,1,0.0,
Raw,2044251,2023642000000,,,-1329526433789548344,0.6991806030273438,34.08458724152297,2.515352447683979,10.867453460414495,85,19,0.0,15,178057352787914,40,21.3,536.8755493164062,0.7444999814033508,0,0.0,0.0,,,,,0,,1,0.0,
Raw,2044251,2023642000000,,,-1329526433789548344,0.6991806030273438,34.08458724152297,2.515352447683979,10.867453460414495,85,20,0.0,15,178057354808598,16,29.6,-539.6307373046875,0.047700002789497375,0,0.0,0.0,,,,,0,,1,0.0,
Raw,2044252,2023642000000,,,-1329526433789548344,0.6991806030273438,34.08458724152297,2.515352447683979,10.867453460414495,85,24,0.0,15,178057356689502,16,29.9,526.1929321289062,0.050700001418590546,0,0.0,0.0,,,,,0,,1,0.0,
Raw,2044252,2023642000000,,,-1329526433789548344,0.6991806030273438,34.08458724152297,2.515352447683979,10.867453460414495,85,25,0.0,15,178057357181495,9,35.1,-551.417236328125,0.0471000038087368,0,0.0,0.0,,,,,0,,1,0.0,
NMEA,$GPGSV,3,1,11,02,82,140,27,06,40,045,41,11,00,000,33,12,69,331,36,1*60
,1645493240004
NMEA,$GPGSV,3,2,11,19,18,063,21,20,26,143,30,24,35,216,30,25,30,312,35,1*65
,1645493240010
NMEA,$GPGSV,3,3,11,05,08,164,,17,01,071,,29,15,265,,1*55
,1645493240011
NMEA,$GLGSV,2,1,07,78,80,278,30,77,33,156,24,79,28,326,38,88,68,347,32,1*76
,1645493240012
NMEA,$GLGSV,2,2,07,87,28,032,40,81,39,246,31,71,00,000,,1*48
,1645493240012
NMEA,$GAGSV,1,1,0,7*43
,1645493240012
NMEA,$PQGSV,1,1,0,0*43
,1645493240013
NMEA,$GBGSV,1,1,0,0*47
,1645493240013
Fix,gps,37.425475,-122.169223,2.416046,0.000000,3.216000,1645493240000
NMEA,$GNGSA,A,3,02,06,12,19,20,24,25,,,,,,1.1,0.8,0.8,1*3D
,1645493240018
NMEA,$GNGSA,A,3,77,78,79,81,87,88,,,,,,,1.1,0.8,0.8,2*35
,1645493240019
NMEA,$GNVTG,,T,,M,0.0,N,0.0,K,A*3D
,1645493240019
NMEA,$GNGGA,012720.00,3725.528522,N,12210.153400,W,1,12,0.8,30.4,M,-27.9,M,,*71
,1645493240023
NMEA,$GNRMC,012720.00,A,3725.528522,N,12210.153400,W,0.0,,220222,15.0,E,A,V*57
,1645493240023
NMEA,$AIDSTAT,0,0,0,2,-6,23,3*00
,1645493240932
Raw,2045237,2024642000000,,,-1329526433789548335,0.6994819641113281,35.607361496658996,2.465512326781755,10.731754247558783,85,14,0.0,207,16040367605451,14,30.4,-37.02303695678711,0.23629999160766602,0,0.0,0.0,,,,,0,,3,0.0,
Raw,2045237,2024642000000,,,-1329526433789548335,0.6994819641113281,35.607361496658996,2.465512326781755,10.731754247558783,85,13,0.0,207,16040360227945,24,25.1,692.9735717773438,0.5817999839782715,0,0.0,0.0,,,,,0,,3,0.0,
Raw,2045237,2024642000000,,,-1329526433789548335,0.6994819641113281,35.607361496658996,2.465512326781755,10.731754247558783,85,15,0.0,207,16040358832341,7,37.3,-680.65185546875,0.2476000040769577,0,0.0,0.0,,,,,0,,3,0.0,
Raw,2045237,2024642000000,,,-1329526433789548335,0.6994819641113281,35.607361496658996,2.465512326781755,10.731754247558783,85,24,0.0,207,16040366582545,13,31.3,207.23129272460938,0.23420000076293945,0,0.0,0.0,,,,,0,,3,0.0,
Raw,2045238,2024642000000,,,-1329526433789548335,0.6994819641113281,35.607361496658996,2.465512326781755,10.731754247558783,85,23,0.0,207,16040358856164,6,39.4,631.4195556640625,0.24660000205039978,0,0.0,0.0,,,,,0,,3,0.0,
Raw,2045238,2024642000000,,,-1329526433789548335,0.6994819641113281,35.607361496658996,2.465512326781755,10.731754247558783,85,17,0.0,207,16040362047013,12,32.5,-425.1456604003906,0.22690001130104065,0,0.0,0.0,,,,,0,,3,0.0,
Raw,2045238,2024642000000,,,-1329526433789548335,0.6994819641113281,35.607361496658996,2.465512326781755,10.731754247558783,85,2,0.0,15,178058362430175,21,26.8,29.53287696838379,0.11420000344514847,0,0.0,0.0,,,,,0,,1,0.0,
Raw,2045238,2024642000000,,,-1329526433789548335,0.6994819641113281,35.607361496658996,2.465512326781755,10.731754247558783,85,6,0.0,15,178058358321346,5,40.3,496.48101806640625,0.046400003135204315,0,0.0,0.0,,,,,0,,1,0.0,
Raw,2045238,2024642000000,,,-1329526433789548335,0.6994819641113281,35.607361496658996,2.465512326781755,10.731754247558783,85,12,0.0,15,178058363696138,10,34.6,-198.33204650878906,0.026600001379847527,0,0.0,0.0,,,,,0,,1,0.0,
Raw,2045238,2024642000000,,,-1329526433789548335,0.6994819641113281,35.607361496658996,2.465512326781755,10.731754247558783,85,19,0.0,15,178058352786109,35,22.7,537.7509155273438,0.684499979019165,0,0.0,0.0,,,,,0,,1,0.0,
Raw,2045238,2024642000000,,,-1329526433789548335,0.6994819641113281,35.607361496658996,2.465512326781755,10.731754247558783,85,20,0.0,15,178058354810405,14,30.0,-539.2406005859375,0.046800002455711365,0,0.0,0.0,,,,,0,,1,0.0,
Raw,2045239,2024642000000,,,-1329526433789548335,0.6994819641113281,35.607361496658996,2.465512326781755,10.731754247558783,85,24,0.0,15,178058356687720,19,27.8,526.5704345703125,0.06530000269412994,0,0.0,0.0,,,,,0,,1,0.0,
Raw,2045239,2024642000000,,,-1329526433789548335,0.6994819641113281,35.607361496658996,2.465512326781755,10.731754247558783,85,25,0.0,15,178058357183351,10,34.8,-551.0825805664062,0.047600001096725464,0,0.0,0.0,,,,,0,,1,0.0,
Fix,gps,37.425475,-122.169225,2.543121,0.000000,3.216000,1645493241000
NMEA,$GPGSV,3,1,11,02,82,140,27,06,40,045,40,11,00,000,32,12,69,331,35,1*63
,1645493241000
NMEA,$GPGSV,3,2,11,19,18,063,23,20,26,143,30,24,35,216,28,25,30,312,35,1*6E
,1645493241000
NMEA,$GPGSV,3,3,11,05,08,164,,17,01,071,,29,15,265,,1*55
,1645493241000
NMEA,$GLGSV,2,1,07,78,80,278,30,77,33,156,25,79,28,326,37,88,68,347,31,1*7B
,1645493241000
NMEA,$GLGSV,2,2,07,87,28,032,39,81,39,246,33,71,00,000,,1*44
,1645493241001
NMEA,$GAGSV,1,1,0,7*43
,1645493241001
NMEA,$PQGSV,1,1,0,0*43
,1645493241001
NMEA,$GBGSV,1,1,0,0*47
,1645493241001
NMEA,$GNGSA,A,3,02,06,12,19,20,24,25,,,,,,1.1,0.8,0.8,1*3D
,1645493241005
NMEA,$GNGSA,A,3,77,78,79,81,87,88,,,,,,,1.1,0.8,0.8,2*35
,1645493241005
NMEA,$GNVTG,,T,,M,0.0,N,0.0,K,A*3D
,1645493241005
NMEA,$GNGGA,012721.00,3725.528480,N,12210.153490,W,1,12,0.8,30.5,M,-27.9,M,,*71
,1645493241005
NMEA,$GNRMC,012721.00,A,3725.528480,N,12210.153490,W,0.0,,220222,15.0,E,A,V*56
,1645493241005
