# 
# Header Description:
# 
# Version: v2.0.0.1 Platform: 9 Manufacturer: samsung Model: SM-G960U
# 
# Raw,ElapsedRealtimeMillis,TimeNanos,LeapSecond,TimeUncertaintyNanos,FullBiasNanos,BiasNanos,BiasUncertaintyNanos,DriftNanosPerSecond,DriftUncertaintyNanosPerSecond,HardwareClockDiscontinuityCount,Svid,TimeOffsetNanos,State,ReceivedSvTimeNanos,ReceivedSvTimeUncertaintyNanos,Cn0DbHz,PseudorangeRateMetersPerSecond,PseudorangeRateUncertaintyMetersPerSecond,AccumulatedDeltaRangeState,AccumulatedDeltaRangeMeters,AccumulatedDeltaRangeUncertaintyMeters,CarrierFrequencyHz,CarrierCycles,CarrierPhase,CarrierPhaseUncertainty,MultipathIndicator,SnrInDb,ConstellationType,AgcDb,CarrierFrequencyHz
# 
# Fix,Provider,Latitude,Longitude,Altitude,Speed,Accuracy,(UTC)TimeInMs
# 
# Nav,Svid,Type,Status,MessageId,Sub-messageId,Data(Bytes)
# 
NMEA,$AIDSTAT,0,0,0,2,-3,23,3*00
,1645493341930
Raw,2146236,2125642000000,,,-1329526433789547983,0.8437232971191406,38.78525603795424,1.0830971239476117,13.436052009179315,85,14,0.0,207,16141367615218,9,35.0,-23.96015167236328,0.2320999950170517,0,0.0,0.0,,,,,0,,3,0.0,
Raw,2146236,2125642000000,,,-1329526433789547983,0.8437232971191406,38.78525603795424,1.0830971239476117,13.436052009179315,85,13,0.0,207,16141359992901,19,27.4,698.5347290039062,0.23980000615119934,0,0.0,0.0,,,,,0,,3,0.0,
Raw,2146236,2125642000000,,,-1329526433789547983,0.8437232971191406,38.78525603795424,1.0830971239476117,13.436052009179315,85,15,0.0,207,16141359060417,31,23.3,-677.2091064453125,0.9549999833106995,0,0.0,0.0,,,,,0,,3,0.0,
Raw,2146236,2125642000000,,,-1329526433789547983,0.8437232971191406,38.78525603795424,1.0830971239476117,13.436052009179315,85,24,0.0,207,16141366511173,12,32.4,213.9886474609375,0.232900008559227,0,0.0,0.0,,,,,0,,3,0.0,
Raw,2146237,2125642000000,,,-1329526433789547983,0.8437232971191406,38.78525603795424,1.0830971239476117,13.436052009179315,85,23,0.0,207,16141358643319,9,35.0,630.5120849609375,0.24860000610351562,0,0.0,0.0,,,,,0,,3,0.0,
Raw,2146237,2125642000000,,,-1329526433789547983,0.8437232971191406,38.78525603795424,1.0830971239476117,13.436052009179315,85,17,0.0,207,16141362188563,8,36.9,-418.849609375,0.22420001029968262,0,0.0,0.0,,,,,0,,3,0.0,
Raw,2146237,2125642000000,,,-1329526433789547983,0.8437232971191406,38.78525603795424,1.0830971239476117,13.436052009179315,85,2,0.0,15,178159362418564,12,32.3,36.75505447387695,0.026900000870227814,0,0.0,0.0,,,,,0,,1,0.0,
Raw,2146237,2125642000000,,,-1329526433789547983,0.8437232971191406,38.78525603795424,1.0830971239476117,13.436052009179315,85,6,0.0,15,178159358153081,9,35.6,500.707763671875,0.048600003123283386,0,0.0,0.0,,,,,0,,1,0.0,
Raw,2146237,2125642000000,,,-1329526433789547983,0.8437232971191406,38.78525603795424,1.0830971239476117,13.436052009179315,85,12,0.0,15,178159363761568,12,32.7,-192.60447692871094,0.0284000001847744,0,0.0,0.0,,,,,0,,1,0.0,
Raw,2146238,2125642000000,,,-1329526433789547983,0.8437232971191406,38.78525603795424,1.0830971239476117,13.436052009179315,85,19,0.0,15,178159352604987,24,25.2,535.5735473632812,0.39980000257492065,0,0.0,0.0,,,,,0,,1,0.0,
Raw,2146238,2125642000000,,,-1329526433789547983,0.8437232971191406,38.78525603795424,1.0830971239476117,13.436052009179315,85,20,0.0,15,178159354991277,27,24.1,-538.1980590820312,0.5975000262260437,0,0.0,0.0,,,,,0,,1,0.0,
Raw,2146238,2125642000000,,,-1329526433789547983,0.8437232971191406,38.78525603795424,1.0830971239476117,13.436052009179315,85,24,0.0,15,178159356509205,21,26.7,529.611328125,0.13520000874996185,0,0.0,0.0,,,,,0,,1,0.0,
Raw,2146238,2125642000000,,,-1329526433789547983,0.8437232971191406,38.78525603795424,1.0830971239476117,13.436052009179315,85,25,0.0,15,178159357368428,27,24.0,-549.57763671875,0.6019999980926514,0,0.0,0.0,,,,,0,,1,0.0,
Fix,gps,37.426085,-122.168979,0.072906,0.000000,3.216000,1645493342000
NMEA,$GPGSV,3,1,11,02,82,135,32,06,40,045,36,11,00,000,36,12,70,333,33,1*6C
,1645493342000
NMEA,$GPGSV,3,2,11,19,17,063,25,20,26,142,24,24,35,216,27,25,31,312,24,1*6D
,1645493342000
NMEA,$GPGSV,3,3,11,05,08,164,,17,01,071,,29,15,265,,1*55
,1645493342001
NMEA,$GLGSV,2,1,07,78,80,278,35,77,33,156,27,79,28,326,23,88,68,347,32,1*7A
,1645493342001
NMEA,$GLGSV,2,2,07,87,28,032,35,81,39,246,37,71,00,000,,1*4C
,1645493342001
NMEA,$GAGSV,1,1,0,7*43
,1645493342001
NMEA,$PQGSV,1,1,0,0*43
,1645493342001
NMEA,$GBGSV,1,1,0,0*47
,1645493342001
NMEA,$GNGSA,A,3,02,06,12,19,20,24,25,,,,,,1.1,0.8,0.8,1*3D
,1645493342005
NMEA,$GNGSA,A,3,77,78,79,81,87,88,,,,,,,1.1,0.8,0.8,2*35
,1645493342006
NMEA,$GNVTG,,T,,M,0.0,N,0.0,K,A*3D
,1645493342006
NMEA,$GNGGA,012902.00,3725.565095,N,12210.138736,W,1,12,0.8,28.0,M,-27.9,M,,*79
,1645493342008
NMEA,$GNRMC,012902.00,A,3725.565095,N,12210.138736,W,0.0,,220222,15.0,E,A,V*52
,1645493342011
NMEA,$AIDSTAT,0,0,0,2,9,23,3*00
,1645493342933
NMEA,$GPGSV,3,1,11,02,82,135,33,06,40,045,33,11,00,000,35,12,70,333,34,1*6C
,1645493343003
Raw,2147233,2126642000000,,,-1329526433789547991,0.7970962524414062,40.566308598499745,-5.5689603073395135,13.422406615937886,85,14,0.0,207,16142367615260,9,35.3,-23.314123153686523,0.2320999950170517,0,0.0,0.0,,,,,0,,3,0.0,
Raw,2147233,2126642000000,,,-1329526433789547991,0.7970962524414062,40.566308598499745,-5.5689603073395135,13.422406615937886,85,13,0.0,207,16142359990532,19,27.4,699.126953125,0.23980000615119934,0,0.0,0.0,,,,,0,,3,0.0,
Raw,2147233,2126642000000,,,-1329526433789547991,0.7970962524414062,40.566308598499745,-5.5689603073395135,13.422406615937886,85,15,0.0,207,16142359062986,61,18.6,-675.8336181640625,1.3049999475479126,0,0.0,0.0,,,,,0,,3,0.0,
Raw,2147233,2126642000000,,,-1329526433789547991,0.7970962524414062,40.566308598499745,-5.5689603073395135,13.422406615937886,85,24,0.0,207,16142366510403,11,33.1,214.5040740966797,0.23190000653266907,0,0.0,0.0,,,,,0,,3,0.0,
Raw,2147234,2126642000000,,,-1329526433789547991,0.7970962524414062,40.566308598499745,-5.5689603073395135,13.422406615937886,85,23,0.0,207,16142358641190,13,31.9,631.0313110351562,0.25220000743865967,0,0.0,0.0,,,,,0,,3,0.0,
Raw,2147234,2126642000000,,,-1329526433789547991,0.7970962524414062,40.566308598499745,-5.5689603073395135,13.422406615937886,85,17,0.0,207,16142362189973,7,37.6,-418.3268127441406,0.22360000014305115,0,0.0,0.0,,,,,0,,3,0.0,
Raw,2147234,2126642000000,,,-1329526433789547991,0.7970962524414062,40.566308598499745,-5.5689603073395135,13.422406615937886,85,2,0.0,15,178160362418427,11,33.1,37.25188064575195,0.02590000070631504,0,0.0,0.0,,,,,0,,1,0.0,
Raw,2147234,2126642000000,,,-1329526433789547991,0.7970962524414062,40.566308598499745,-5.5689603073395135,13.422406615937886,85,6,0.0,15,178160358151387,11,33.0,501.2828063964844,0.04990000277757645,0,0.0,0.0,,,,,0,,1,0.0,
Raw,2147235,2126642000000,,,-1329526433789547991,0.7970962524414062,40.566308598499745,-5.5689603073395135,13.422406615937886,85,12,0.0,15,178160363762214,10,34.1,-192.00440979003906,0.026600001379847527,0,0.0,0.0,,,,,0,,1,0.0,
Raw,2147235,2126642000000,,,-1329526433789547991,0.7970962524414062,40.566308598499745,-5.5689603073395135,13.422406615937886,85,19,0.0,15,178160352603126,27,24.1,535.3532104492188,0.5945000052452087,0,0.0,0.0,,,,,0,,1,0.0,
Raw,2147236,2126642000000,,,-1329526433789547991,0.7970962524414062,40.566308598499745,-5.5689603073395135,13.422406615937886,85,20,0.0,15,178160354993158,40,21.7,-537.275146484375,0.7475000023841858,0,0.0,0.0,,,,,0,,1,0.0,
Raw,2147236,2126642000000,,,-1329526433789547991,0.7970962524414062,40.566308598499745,-5.5689603073395135,13.422406615937886,85,24,0.0,15,178160356507381,19,27.1,530.1797485351562,0.06530000269412994,0,0.0,0.0,,,,,0,,1,0.0,
Raw,2147236,2126642000000,,,-1329526433789547991,0.7970962524414062,40.566308598499745,-5.5689603073395135,13.422406615937886,85,25,0.0,15,178160357370196,31,23.9,-549.3302612304688,0.6420000195503235,0,0.0,0.0,,,,,0,,1,0.0,
Fix,gps,37.426086,-122.168978,0.076538,0.000000,3.216000,1645493343000
NMEA,$GPGSV,3,2,11,19,17,063,24,20,26,142,22,24,35,216,27,25,31,312,24,1*6A
,1645493343004
NMEA,$GPGSV,3,3,11,05,08,164,,17,01,071,,29,15,265,,1*55
,1645493343004
NMEA,$GLGSV,2,1,07,78,80,278,35,77,33,156,27,79,28,326,19,88,68,347,33,1*72
,1645493343004
NMEA,$GLGSV,2,2,07,87,28,032,32,81,39,246,38,71,00,000,,1*44
,1645493343004
NMEA,$GAGSV,1,1,0,7*43
,1645493343004
NMEA,$PQGSV,1,1,0,0*43
,1645493343005
NMEA,$GBGSV,1,1,0,0*47
,1645493343005
NMEA,$GNGSA,A,3,02,06,12,19,20,24,25,,,,,,1.1,0.8,0.8,1*3D
,1645493343009
NMEA,$GNGSA,A,3,77,78,79,81,87,88,,,,,,,1.1,0.8,0.8,2*35
,1645493343010
NMEA,$GNVTG,,T,,M,0.0,N,0.0,K,A*3D
,1645493343010
NMEA,$GNGGA,012903.00,3725.565174,N,12210.138666,W,1,12,0.8,28.0,M,-27.9,M,,*72
,1645493343010
NMEA,$GNRMC,012903.00,A,3725.565174,N,12210.138666,W,0.0,,220222,15.0,E,A,V*59
,1645493343010
NMEA,$AIDSTAT,0,0,0,2,,23,3*00
,1645493343930
Fix,gps,37.426087,-122.168976,0.530853,0.000000,3.216000,1645493344000
Raw,2148254,2127642000000,,,-1329526433789547986,0.2078399658203125,40.16112143290229,-4.165720332112117,12.319124322552751,85,14,0.0,207,16143367615438,16,29.3,-21.514734268188477,0.23719999194145203,0,0.0,0.0,,,,,0,,3,0.0,
Raw,2148254,2127642000000,,,-1329526433789547986,0.2078399658203125,40.16112143290229,-4.165720332112117,12.319124322552751,85,13,0.0,207,16143359988196,21,26.8,701.0576171875,0.30970001220703125,0,0.0,0.0,,,,,0,,3,0.0,
Raw,2148254,2127642000000,,,-1329526433789547986,0.2078399658203125,40.16112143290229,-4.165720332112117,12.319124322552751,85,15,0.0,207,16143359065042,53,19.1,-675.1318359375,1.225000023841858,0,0.0,0.0,,,,,0,,3,0.0,
Raw,2148254,2127642000000,,,-1329526433789547986,0.2078399658203125,40.16112143290229,-4.165720332112117,12.319124322552751,85,24,0.0,207,16143366509736,12,32.2,216.29315185546875,0.232900008559227,0,0.0,0.0,,,,,0,,3,0.0,
Raw,2148255,2127642000000,,,-1329526433789547986,0.2078399658203125,40.16112143290229,-4.165720332112117,12.319124322552751,85,23,0.0,207,16143358639115,16,29.0,632.7544555664062,0.25369998812675476,0,0.0,0.0,,,,,0,,3,0.0,
Raw,2148255,2127642000000,,,-1329526433789547986,0.2078399658203125,40.16112143290229,-4.165720332112117,12.319124322552751,85,17,0.0,207,16143362191366,6,39.8,-416.4321594238281,0.22259999811649323,0,0.0,0.0,,,,,0,,3,0.0,
Raw,2148255,2127642000000,,,-1329526433789547986,0.2078399658203125,40.16112143290229,-4.165720332112117,12.319124322552751,85,2,0.0,15,178161362418343,14,30.8,39.14970397949219,0.028800001367926598,0,0.0,0.0,,,,,0,,1,0.0,
Raw,2148255,2127642000000,,,-1329526433789547986,0.2078399658203125,40.16112143290229,-4.165720332112117,12.319124322552751,85,6,0.0,15,178161358149710,17,28.9,502.98486328125,0.06030000001192093,0,0.0,0.0,,,,,0,,1,0.0,
Raw,2148256,2127642000000,,,-1329526433789547986,0.2078399658203125,40.16112143290229,-4.165720332112117,12.319124322552751,85,12,0.0,15,178161363762844,8,36.8,-190.18948364257812,0.025700001046061516,0,0.0,0.0,,,,,0,,1,0.0,
Raw,2148256,2127642000000,,,-1329526433789547986,0.2078399658203125,40.16112143290229,-4.165720332112117,12.319124322552751,85,19,0.0,15,178161352601386,24,25.0,537.8501586914062,0.39980000257492065,0,0.0,0.0,,,,,0,,1,0.0,
Raw,2148256,2127642000000,,,-1329526433789547986,0.2078399658203125,40.16112143290229,-4.165720332112117,12.319124322552751,85,20,0.0,15,178161354994883,21,26.0,-535.6447143554688,0.13220000267028809,0,0.0,0.0,,,,,0,,1,0.0,
Raw,2148256,2127642000000,,,-1329526433789547986,0.2078399658203125,40.16112143290229,-4.165720332112117,12.319124322552751,85,24,0.0,15,178161356505583,27,24.0,531.813720703125,0.6004999876022339,0,0.0,0.0,,,,,0,,1,0.0,
Raw,2148256,2127642000000,,,-1329526433789547986,0.2078399658203125,40.16112143290229,-4.165720332112117,12.319124322552751,85,25,0.0,15,178161357372066,17,28.7,-547.5953369140625,0.058800000697374344,0,0.0,0.0,,,,,0,,1,0.0,
NMEA,$GPGSV,3,1,11,02,82,135,31,06,40,045,29,11,00,000,31,12,70,333,37,1*62
,1645493344003
NMEA,$GPGSV,3,2,11,19,17,063,25,20,26,142,26,24,35,216,24,25,31,312,29,1*61
,1645493344004
NMEA,$GPGSV,3,3,11,05,08,164,,17,01,071,,29,15,265,,1*55
,1645493344004
NMEA,$GLGSV,2,1,07,78,80,278,29,77,33,156,27,79,28,326,19,88,68,347,32,1*7E
,1645493344004
NMEA,$GLGSV,2,2,07,87,28,032,29,81,39,246,40,71,00,000,,1*41
,1645493344004
NMEA,$GAGSV,1,1,0,7*43
,1645493344005
NMEA,$PQGSV,1,1,0,0*43
,1645493344005
NMEA,$GBGSV,1,1,0,0*47
,1645493344005
NMEA,$GNGSA,A,3,02,06,12,19,20,24,25,,,,,,1.1,0.8,0.8,1*3D
,1645493344011
NMEA,$GNGSA,A,3,77,78,79,81,87,88,,,,,,,1.1,0.8,0.8,2*35
,1645493344011
NMEA,$GNVTG,,T,,M,0.0,N,0.0,K,A*3D
,1645493344012
NMEA,$GNGGA,012904.00,3725.565221,N,12210.138570,W,1,12,0.8,28.5,M,-27.9,M,,*77
,1645493344012
NMEA,$GNRMC,012904.00,A,3725.565221,N,12210.138570,W,0.0,,220222,15.0,E,A,V*59
,1645493344012
NMEA,$AIDSTAT,0,0,0,2,-2,23,3*00
,1645493344930
NMEA,$GPGSV,3,1,11,02,82,135,29,06,40,045,29,11,00,000,33,12,70,333,37,1*69
,1645493345002
NMEA,$GPGSV,3,2,11,19,17,063,27,20,26,142,26,24,35,216,23,25,31,312,28,1*65
,1645493345003
Raw,2149248,2128642000000,,,-1329526433789547987,0.5819911956787109,43.28710201662034,1.0869807684411634,13.077667581488582,85,14,0.0,207,16144367615411,11,33.8,-21.040803909301758,0.23340000212192535,0,0.0,0.0,,,,,0,,3,0.0,
Raw,2149248,2128642000000,,,-1329526433789547987,0.5819911956787109,43.28710201662034,1.0869807684411634,13.077667581488582,85,13,0.0,207,16144359985870,21,26.1,701.290283203125,0.30970001220703125,0,0.0,0.0,,,,,0,,3,0.0,
Raw,2149248,2128642000000,,,-1329526433789547987,0.5819911956787109,43.28710201662034,1.0869807684411634,13.077667581488582,85,15,0.0,207,16144359067293,40,21.7,-674.009033203125,1.0749999284744263,0,0.0,0.0,,,,,0,,3,0.0,
Raw,2149248,2128642000000,,,-1329526433789547987,0.5819911956787109,43.28710201662034,1.0869807684411634,13.077667581488582,85,24,0.0,207,16144366508931,11,33.7,216.83714294433594,0.23190000653266907,0,0.0,0.0,,,,,0,,3,0.0,
Raw,2149248,2128642000000,,,-1329526433789547987,0.5819911956787109,43.28710201662034,1.0869807684411634,13.077667581488582,85,23,0.0,207,16144358636990,14,30.9,633.1643676757812,0.25279998779296875,0,0.0,0.0,,,,,0,,3,0.0,
Raw,2149249,2128642000000,,,-1329526433789547987,0.5819911956787109,43.28710201662034,1.0869807684411634,13.077667581488582,85,17,0.0,207,16144362192729,7,37.1,-416.1172180175781,0.22360000014305115,0,0.0,0.0,,,,,0,,3,0.0,
Raw,2149249,2128642000000,,,-1329526433789547987,0.5819911956787109,43.28710201662034,1.0869807684411634,13.077667581488582,85,2,0.0,15,178162362418219,17,28.5,39.59157943725586,0.03629999980330467,0,0.0,0.0,,,,,0,,1,0.0,
Raw,2149249,2128642000000,,,-1329526433789547987,0.5819911956787109,43.28710201662034,1.0869807684411634,13.077667581488582,85,6,0.0,15,178162358148098,16,29.0,503.4769592285156,0.053700003772974014,0,0.0,0.0,,,,,0,,1,0.0,
Raw,2149249,2128642000000,,,-1329526433789547987,0.5819911956787109,43.28710201662034,1.0869807684411634,13.077667581488582,85,12,0.0,15,178162363763475,8,36.7,-189.7892303466797,0.025700001046061516,0,0.0,0.0,,,,,0,,1,0.0,
Raw,2149249,2128642000000,,,-1329526433789547987,0.5819911956787109,43.28710201662034,1.0869807684411634,13.077667581488582,85,19,0.0,15,178162352599563,19,27.1,538.160888671875,0.059300001710653305,0,0.0,0.0,,,,,0,,1,0.0,
Raw,2149249,2128642000000,,,-1329526433789547987,0.5819911956787109,43.28710201662034,1.0869807684411634,13.077667581488582,85,20,0.0,15,178162354996640,24,25.8,-535.4923095703125,0.4027999937534332,0,0.0,0.0,,,,,0,,1,0.0,
Raw,2149250,2128642000000,,,-1329526433789547987,0.5819911956787109,43.28710201662034,1.0869807684411634,13.077667581488582,85,24,0.0,15,178162356503846,31,23.1,532.4702758789062,0.640500009059906,0,0.0,0.0,,,,,0,,1,0.0,
Raw,2149250,2128642000000,,,-1329526433789547987,0.5819911956787109,43.28710201662034,1.0869807684411634,13.077667581488582,85,25,0.0,15,178162357373896,17,28.3,-547.1844482421875,0.058800000697374344,0,0.0,0.0,,,,,0,,1,0.0,
NMEA,$GPGSV,3,3,11,05,08,164,,17,01,071,,29,15,265,,1*55
,1645493345003
NMEA,$GLGSV,2,1,07,78,80,278,34,77,33,156,26,79,28,326,22,88,68,347,34,1*7D
,1645493345003
NMEA,$GLGSV,2,2,07,87,28,032,31,81,39,246,37,71,00,000,,1*48
,1645493345003
NMEA,$GAGSV,1,1,0,7*43
,1645493345003
NMEA,$PQGSV,1,1,0,0*43
,1645493345004
NMEA,$GBGSV,1,1,0,0*47
,1645493345004
Fix,gps,37.426087,-122.168975,0.550354,0.000000,3.216000,1645493345000
NMEA,$GNGSA,A,3,02,06,12,19,20,24,25,,,,,,1.1,0.8,0.8,1*3D
,1645493345017
NMEA,$GNGSA,A,3,77,78,79,81,87,88,,,,,,,1.1,0.8,0.8,2*35
,1645493345017
NMEA,$GNVTG,,T,,M,0.0,N,0.0,K,A*3D
,1645493345018
NMEA,$GNGGA,012905.00,3725.565248,N,12210.138504,W,1,12,0.8,28.5,M,-27.9,M,,*7A
,1645493345018
NMEA,$GNRMC,012905.00,A,3725.565248,N,12210.138504,W,0.0,,220222,15.0,E,A,V*54
,1645493345020
NMEA,$AIDSTAT,0,0,0,2,-5,23,3*00
,1645493345935
NMEA,$GPGSV,3,1,11,02,82,135,31,06,40,045,24,11,00,000,33,12,70,333,36,1*6C
,1645493346005
NMEA,$GPGSV,3,2,11,19,17,063,25,20,26,142,31,24,35,216,29,25,31,312,26,1*65
,1645493346005
NMEA,$GPGSV,3,3,11,05,08,164,,17,01,071,,29,15,265,,1*55
,1645493346006
NMEA,$GLGSV,2,1,07,78,80,278,36,77,33,156,29,79,28,326,22,88,68,347,38,1*7C
,1645493346006
NMEA,$GLGSV,2,2,07,87,28,032,26,81,39,246,42,71,00,000,,1*4C
,1645493346006
Raw,2150265,2129642000000,,,-1329526433789547974,0.00955963134765625,46.10110045177862,2.4754902919469015,11.744199799130419,85,14,0.0,207,16145367615518,8,36.0,-20.912689208984375,0.23170000314712524,0,0.0,0.0,,,,,0,,3,0.0,
Raw,2150265,2129642000000,,,-1329526433789547974,0.00955963134765625,46.10110045177862,2.4754902919469015,11.744199799130419,85,13,0.0,207,16145359983527,16,29.2,701.3726196289062,0.22519999742507935,0,0.0,0.0,,,,,0,,3,0.0,
Raw,2150265,2129642000000,,,-1329526433789547974,0.00955963134765625,46.10110045177862,2.4754902919469015,11.744199799130419,85,15,0.0,207,16145359069646,40,21.5,-674.869873046875,1.0749999284744263,0,0.0,0.0,,,,,0,,3,0.0,
Raw,2150265,2129642000000,,,-1329526433789547974,0.00955963134765625,46.10110045177862,2.4754902919469015,11.744199799130419,85,24,0.0,207,16145366508239,6,38.2,216.81842041015625,0.22910000383853912,0,0.0,0.0,,,,,0,,3,0.0,
Raw,2150265,2129642000000,,,-1329526433789547974,0.00955963134765625,46.10110045177862,2.4754902919469015,11.744199799130419,85,23,0.0,207,16145358634874,21,26.4,632.9871215820312,0.33820000290870667,0,0.0,0.0,,,,,0,,3,0.0,
Raw,2150265,2129642000000,,,-1329526433789547974,0.00955963134765625,46.10110045177862,2.4754902919469015,11.744199799130419,85,17,0.0,207,16145362194124,4,42.3,-416.0528869628906,0.22179999947547913,0,0.0,0.0,,,,,0,,3,0.0,
Raw,2150265,2129642000000,,,-1329526433789547974,0.00955963134765625,46.10110045177862,2.4754902919469015,11.744199799130419,85,2,0.0,15,178163362418059,14,30.5,39.5980339050293,0.028800001367926598,0,0.0,0.0,,,,,0,,1,0.0,
Raw,2150266,2129642000000,,,-1329526433789547974,0.00955963134765625,46.10110045177862,2.4754902919469015,11.744199799130419,85,6,0.0,15,178163358146349,27,24.1,503.5550842285156,0.6035000085830688,0,0.0,0.0,,,,,0,,1,0.0,
Raw,2150266,2129642000000,,,-1329526433789547974,0.00955963134765625,46.10110045177862,2.4754902919469015,11.744199799130419,85,12,0.0,15,178163363764110,9,35.6,-189.7313995361328,0.026100000366568565,0,0.0,0.0,,,,,0,,1,0.0,
Raw,2150266,2129642000000,,,-1329526433789547974,0.00955963134765625,46.10110045177862,2.4754902919469015,11.744199799130419,85,19,0.0,15,178163352597821,27,24.6,538.0648803710938,0.5945000052452087,0,0.0,0.0,,,,,0,,1,0.0,
Raw,2150266,2129642000000,,,-1329526433789547974,0.00955963134765625,46.10110045177862,2.4754902919469015,11.744199799130419,85,20,0.0,15,178163354998385,14,30.6,-535.4573364257812,0.046800002455711365,0,0.0,0.0,,,,,0,,1,0.0,
Raw,2150266,2129642000000,,,-1329526433789547974,0.00955963134765625,46.10110045177862,2.4754902919469015,11.744199799130419,85,24,0.0,15,178163356502059,17,28.7,532.2691650390625,0.05730000138282776,0,0.0,0.0,,,,,0,,1,0.0,
Raw,2150266,2129642000000,,,-1329526433789547974,0.00955963134765625,46.10110045177862,2.4754902919469015,11.744199799130419,85,25,0.0,15,178163357375681,21,26.2,-547.2415771484375,0.13670000433921814,0,0.0,0.0,,,,,0,,1,0.0,
NMEA,$GAGSV,1,1,0,7*43
,1645493346006
NMEA,$PQGSV,1,1,0,0*43
,1645493346006
NMEA,$GBGSV,1,1,0,0*47
,1645493346006
Fix,gps,37.426089,-122.168974,1.006500,0.000000,3.216000,1645493346000
NMEA,$GNGSA,A,3,02,06,12,19,20,24,25,,,,,,1.1,0.8,0.8,1*3D
,1645493346012
NMEA,$GNGSA,A,3,77,78,79,81,87,88,,,,,,,1.1,0.8,0.8,2*35
,1645493346012
NMEA,$GNVTG,,T,,M,0.0,N,0.0,K,A*3D
,1645493346013
NMEA,$GNGGA,012906.00,3725.565336,N,12210.138448,W,1,12,0.8,28.9,M,-27.9,M,,*74
,1645493346013
NMEA,$GNRMC,012906.00,A,3725.565336,N,12210.138448,W,0.0,,220222,15.0,E,A,V*56
,1645493346013
NMEA,$AIDSTAT,0,0,0,2,0,23,3*00
,1645493346933
Fix,gps,37.426090,-122.168971,1.628418,0.000000,3.216000,1645493347000
Raw,2151253,2130642000000,,,-1329526433789547966,0.17539596557617188,45.6850029877387,2.394259921290386,13.411873943826365,85,14,0.0,207,16146367615564,6,38.0,-20.708524703979492,0.2305999994277954,0,0.0,0.0,,,,,0,,3,0.0,
Raw,2151253,2130642000000,,,-1329526433789547966,0.17539596557617188,45.6850029877387,2.394259921290386,13.411873943826365,85,13,0.0,207,16146359981169,16,29.6,701.5390014648438,0.22519999742507935,0,0.0,0.0,,,,,0,,3,0.0,
Raw,2151253,2130642000000,,,-1329526433789547966,0.17539596557617188,45.6850029877387,2.394259921290386,13.411873943826365,85,15,0.0,207,16146359071734,40,21.0,-673.7938842773438,1.0749999284744263,0,0.0,0.0,,,,,0,,3,0.0,
Raw,2151253,2130642000000,,,-1329526433789547966,0.17539596557617188,45.6850029877387,2.394259921290386,13.411873943826365,85,24,0.0,207,16146366507546,8,36.8,216.9685821533203,0.23020000755786896,0,0.0,0.0,,,,,0,,3,0.0,
Raw,2151253,2130642000000,,,-1329526433789547966,0.17539596557617188,45.6850029877387,2.394259921290386,13.411873943826365,85,23,0.0,207,16146358632663,24,25.0,633.24462890625,0.6087999939918518,0,0.0,0.0,,,,,0,,3,0.0,
Raw,2151254,2130642000000,,,-1329526433789547966,0.17539596557617188,45.6850029877387,2.394259921290386,13.411873943826365,85,17,0.0,207,16146362195513,4,42.1,-415.82763671875,0.22179999947547913,0,0.0,0.0,,,,,0,,3,0.0,
Raw,2151254,2130642000000,,,-1329526433789547966,0.17539596557617188,45.6850029877387,2.394259921290386,13.411873943826365,85,2,0.0,15,178164362417975,11,33.0,39.751625061035156,0.02590000070631504,0,0.0,0.0,,,,,0,,1,0.0,
Raw,2151254,2130642000000,,,-1329526433789547966,0.17539596557617188,45.6850029877387,2.394259921290386,13.411873943826365,85,6,0.0,15,178164358144662,24,25.9,503.6810607910156,0.40880000591278076,0,0.0,0.0,,,,,0,,1,0.0,
Raw,2151254,2130642000000,,,-1329526433789547966,0.17539596557617188,45.6850029877387,2.394259921290386,13.411873943826365,85,12,0.0,15,178164363764757,7,37.8,-189.55824279785156,0.025100000202655792,0,0.0,0.0,,,,,0,,1,0.0,
Raw,2151255,2130642000000,,,-1329526433789547966,0.17539596557617188,45.6850029877387,2.394259921290386,13.411873943826365,85,19,0.0,15,178164352595947,31,23.9,538.65478515625,0.6345000267028809,0,0.0,0.0,,,,,0,,1,0.0,
Raw,2151255,2130642000000,,,-1329526433789547966,0.17539596557617188,45.6850029877387,2.394259921290386,13.411873943826365,85,20,0.0,15,178164355000183,21,26.9,-534.3947143554688,0.13369999825954437,0,0.0,0.0,,,,,0,,1,0.0,
Raw,2151255,2130642000000,,,-1329526433789547966,0.17539596557617188,45.6850029877387,2.394259921290386,13.411873943826365,85,24,0.0,15,178164356500284,17,28.5,532.4200439453125,0.05730000138282776,0,0.0,0.0,,,,,0,,1,0.0,
Raw,2151255,2130642000000,,,-1329526433789547966,0.17539596557617188,45.6850029877387,2.394259921290386,13.411873943826365,85,25,0.0,15,178164357377558,19,27.6,-547.0675659179688,0.06680000573396683,0,0.0,0.0,,,,,0,,1,0.0,
NMEA,$GPGSV,3,1,11,02,82,135,33,06,40,045,26,11,00,000,34,12,70,333,38,1*65
,1645493347006
NMEA,$GPGSV,3,2,11,19,17,063,24,20,26,142,27,24,35,216,29,25,31,312,28,1*6D
,1645493347006
NMEA,$GPGSV,3,3,11,05,08,164,,17,01,071,,29,15,265,,1*55
,1645493347006
NMEA,$GLGSV,2,1,07,78,80,278,38,77,33,156,30,79,28,326,21,88,68,347,37,1*76
,1645493347006
NMEA,$GLGSV,2,2,07,87,28,032,25,81,39,246,42,71,00,000,,1*4F
,1645493347007
NMEA,$GAGSV,1,1,0,7*43
,1645493347007
NMEA,$PQGSV,1,1,0,0*43
,1645493347007
NMEA,$GBGSV,1,1,0,0*47
,1645493347007
NMEA,$GNGSA,A,3,02,06,12,19,20,24,25,,,,,,1.1,0.8,0.8,1*3D
,1645493347012
NMEA,$GNGSA,A,3,77,78,79,81,87,88,,,,,,,1.1,0.8,0.8,2*35
,1645493347012
NMEA,$GNVTG,,T,,M,0.0,N,0.0,K,A*3D
,1645493347012
NMEA,$GNGGA,012907.00,3725.565413,N,12210.138286,W,1,12,0.8,29.6,M,-27.9,M,,*7F
,1645493347012
NMEA,$GNRMC,012907.00,A,3725.565413,N,12210.138286,W,0.0,,220222,15.0,E,A,V*53
,1645493347012
NMEA,$AIDSTAT,0,0,0,2,-5,23,3*00
,1645493347931
NMEA,$GPGSV,3,1,11,02,82,135,29,06,40,045,25,11,00,000,34,12,70,333,37,1*62
,1645493348001
NMEA,$GPGSV,3,2,11,19,17,063,27,20,26,142,28,24,35,216,27,25,31,312,27,1*60
,1645493348002
NMEA,$GPGSV,3,3,11,05,08,164,,17,01,071,,29,15,265,,1*55
,1645493348002
NMEA,$GLGSV,2,1,07,78,80,278,37,77,33,156,29,79,28,326,25,88,68,347,37,1*75
,1645493348002
NMEA,$GLGSV,2,2,07,87,28,032,25,81,39,246,41,71,00,000,,1*4C
,1645493348002
NMEA,$GAGSV,1,1,0,7*43
,1645493348003
NMEA,$PQGSV,1,1,0,0*43
,1645493348003
NMEA,$GBGSV,1,1,0,0*47
,1645493348003
Raw,2152268,2131642000000,,,-1329526433789547967,0.13231468200683594,48.624300688970834,2.6703827005716123,14.1313197075684,85,14,0.0,207,16147367615652,8,36.6,-19.808101654052734,0.23170000314712524,0,0.0,0.0,,,,,0,,3,0.0,
Raw,2152268,2131642000000,,,-1329526433789547967,0.13231468200683594,48.624300688970834,2.6703827005716123,14.1313197075684,85,13,0.0,207,16147359978862,16,29.0,702.2120361328125,0.22519999742507935,0,0.0,0.0,,,,,0,,3,0.0,
Raw,2152269,2131642000000,,,-1329526433789547967,0.13231468200683594,48.624300688970834,2.6703827005716123,14.1313197075684,85,15,0.0,207,16147359074024,24,25.4,-673.3076782226562,0.6103000044822693,0,0.0,0.0,,,,,0,,3,0.0,
Raw,2152269,2131642000000,,,-1329526433789547967,0.13231468200683594,48.624300688970834,2.6703827005716123,14.1313197075684,85,24,0.0,207,16147366506760,7,37.0,217.75,0.2295999974012375,0,0.0,0.0,,,,,0,,3,0.0,
Raw,2152269,2131642000000,,,-1329526433789547967,0.13231468200683594,48.624300688970834,2.6703827005716123,14.1313197075684,85,23,0.0,207,16147358630566,27,24.7,633.799560546875,0.8934999704360962,0,0.0,0.0,,,,,0,,3,0.0,
Raw,2152269,2131642000000,,,-1329526433789547967,0.13231468200683594,48.624300688970834,2.6703827005716123,14.1313197075684,85,17,0.0,207,16147362196897,5,41.1,-415.1420593261719,0.22210000455379486,0,0.0,0.0,,,,,0,,3,0.0,
Raw,2152269,2131642000000,,,-1329526433789547967,0.13231468200683594,48.624300688970834,2.6703827005716123,14.1313197075684,85,2,0.0,15,178165362417826,17,28.6,40.62702178955078,0.03629999980330467,0,0.0,0.0,,,,,0,,1,0.0,
Raw,2152269,2131642000000,,,-1329526433789547967,0.13231468200683594,48.624300688970834,2.6703827005716123,14.1313197075684,85,6,0.0,15,178165358143030,27,24.6,504.458984375,0.6035000085830688,0,0.0,0.0,,,,,0,,1,0.0,
Raw,2152269,2131642000000,,,-1329526433789547967,0.13231468200683594,48.624300688970834,2.6703827005716123,14.1313197075684,85,12,0.0,15,178165363765378,8,36.8,-188.9009552001953,0.025700001046061516,0,0.0,0.0,,,,,0,,1,0.0,
Raw,2152269,2131642000000,,,-1329526433789547967,0.13231468200683594,48.624300688970834,2.6703827005716123,14.1313197075684,85,19,0.0,15,178165352594086,21,26.9,539.0126342773438,0.12919999659061432,0,0.0,0.0,,,,,0,,1,0.0,
Raw,2152270,2131642000000,,,-1329526433789547967,0.13231468200683594,48.624300688970834,2.6703827005716123,14.1313197075684,85,20,0.0,15,178165355002007,19,27.6,-534.6776123046875,0.4790000021457672,0,0.0,0.0,,,,,0,,1,0.0,
Raw,2152270,2131642000000,,,-1329526433789547967,0.13231468200683594,48.624300688970834,2.6703827005716123,14.1313197075684,85,24,0.0,15,178165356498555,19,27.2,532.998046875,0.06530000269412994,0,0.0,0.0,,,,,0,,1,0.0,
Raw,2152270,2131642000000,,,-1329526433789547967,0.13231468200683594,48.624300688970834,2.6703827005716123,14.1313197075684,85,25,0.0,15,178165357379335,19,27.1,-546.375244140625,0.06680000573396683,0,0.0,0.0,,,,,0,,1,0.0,
Fix,gps,37.426091,-122.168969,1.898071,0.000000,3.216000,1645493348000
NMEA,$GNGSA,A,3,02,06,12,19,20,24,25,,,,,,1.1,0.8,0.8,1*3D
,1645493348008
NMEA,$GNGSA,A,3,77,78,79,81,87,88,,,,,,,1.1,0.8,0.8,2*35
,1645493348008
NMEA,$GNVTG,,T,,M,0.0,N,0.0,K,A*3D
,1645493348008
NMEA,$GNGGA,012908.00,3725.565435,N,12210.138124,W,1,12,0.8,29.8,M,-27.9,M,,*71
,1645493348008
NMEA,$GNRMC,012908.00,A,3725.565435,N,12210.138124,W,0.0,,220222,15.0,E,A,V*53
,1645493348008
NMEA,$AIDSTAT,0,0,0,2,,23,3*00
,1645493348931
NMEA,$GPGSV,3,1,11,02,82,135,36,06,40,045,33,11,00,000,33,12,70,333,38,1*63
,1645493349005
Fix,gps,37.426091,-122.168966,2.192780,0.000000,3.216000,1645493349000
Raw,2153246,2132642000000,,,-1329526433789547960,0.7319068908691406,50.92797800898552,4.46261937178125,13.12814551596929,85,14,0.0,207,16148367615724,12,32.5,-19.68155860900879,0.23440000414848328,0,0.0,0.0,,,,,0,,3,0.0,
Raw,2153246,2132642000000,,,-1329526433789547960,0.7319068908691406,50.92797800898552,4.46261937178125,13.12814551596929,85,13,0.0,207,16148359976483,19,27.4,702.3873901367188,0.23980000615119934,0,0.0,0.0,,,,,0,,3,0.0,
Raw,2153246,2132642000000,,,-1329526433789547960,0.7319068908691406,50.92797800898552,4.46261937178125,13.12814551596929,85,15,0.0,207,16148359076355,40,21.6,-673.3634033203125,1.0749999284744263,0,0.0,0.0,,,,,0,,3,0.0,
Raw,2153247,2132642000000,,,-1329526433789547960,0.7319068908691406,50.92797800898552,4.46261937178125,13.12814551596929,85,24,0.0,207,16148366506049,6,39.0,217.66006469726562,0.22859999537467957,0,0.0,0.0,,,,,0,,3,0.0,
Raw,2153247,2132642000000,,,-1329526433789547960,0.7319068908691406,50.92797800898552,4.46261937178125,13.12814551596929,85,23,0.0,207,16148358628564,16,29.1,633.6651000976562,0.25369998812675476,0,0.0,0.0,,,,,0,,3,0.0,
Raw,2153247,2132642000000,,,-1329526433789547960,0.7319068908691406,50.92797800898552,4.46261937178125,13.12814551596929,85,17,0.0,207,16148362198294,6,39.0,-414.9494323730469,0.22259999811649323,0,0.0,0.0,,,,,0,,3,0.0,
Raw,2153247,2132642000000,,,-1329526433789547960,0.7319068908691406,50.92797800898552,4.46261937178125,13.12814551596929,85,2,0.0,15,178166362417679,8,36.0,40.771881103515625,0.02420000173151493,0,0.0,0.0,,,,,0,,1,0.0,
Raw,2153247,2132642000000,,,-1329526433789547960,0.7319068908691406,50.92797800898552,4.46261937178125,13.12814551596929,85,6,0.0,15,178166358141309,12,32.7,504.32855224609375,0.05090000107884407,0,0.0,0.0,,,,,0,,1,0.0,
Raw,2153248,2132642000000,,,-1329526433789547960,0.7319068908691406,50.92797800898552,4.46261937178125,13.12814551596929,85,12,0.0,15,178166363766007,7,37.5,-188.82388305664062,0.025100000202655792,0,0.0,0.0,,,,,0,,1,0.0,
Raw,2153248,2132642000000,,,-1329526433789547960,0.7319068908691406,50.92797800898552,4.46261937178125,13.12814551596929,85,19,0.0,15,178166352592396,19,27.3,538.608642578125,0.059300001710653305,0,0.0,0.0,,,,,0,,1,0.0,
Raw,2153248,2132642000000,,,-1329526433789547960,0.7319068908691406,50.92797800898552,4.46261937178125,13.12814551596929,85,20,0.0,15,178166355003783,21,26.9,-534.5433349609375,0.13369999825954437,0,0.0,0.0,,,,,0,,1,0.0,
Raw,2153248,2132642000000,,,-1329526433789547960,0.7319068908691406,50.92797800898552,4.46261937178125,13.12814551596929,85,24,0.0,15,178166356496718,13,31.2,533.2509765625,0.04920000210404396,0,0.0,0.0,,,,,0,,1,0.0,
Raw,2153248,2132642000000,,,-1329526433789547960,0.7319068908691406,50.92797800898552,4.46261937178125,13.12814551596929,85,25,0.0,15,178166357381191,17,28.0,-546.4623413085938,0.058800000697374344,0,0.0,0.0,,,,,0,,1,0.0,
NMEA,$GPGSV,3,2,11,19,17,063,27,20,26,142,27,24,35,216,31,25,31,312,28,1*67
,1645493349005
NMEA,$GPGSV,3,3,11,05,08,164,,17,01,071,,29,15,265,,1*55
,1645493349005
NMEA,$GLGSV,2,1,07,78,80,278,33,77,33,157,27,79,28,326,22,88,68,347,39,1*77
,1645493349005
NMEA,$GLGSV,2,2,07,87,28,032,29,81,39,246,39,71,00,000,,1*4F
,1645493349006
NMEA,$GAGSV,1,1,0,7*43
,1645493349006
NMEA,$PQGSV,1,1,0,0*43
,1645493349006
NMEA,$GBGSV,1,1,0,0*47
,1645493349006
NMEA,$GNGSA,A,3,02,06,12,19,20,24,25,,,,,,1.1,0.8,0.8,1*3D
,1645493349012
NMEA,$GNGSA,A,3,77,78,79,81,87,88,,,,,,,1.1,0.8,0.8,2*35
,1645493349013
NMEA,$GNVTG,,T,,M,0.0,N,0.0,K,A*3D
,1645493349013
NMEA,$GNGGA,012909.00,3725.565452,N,12210.137979,W,1,12,0.8,30.1,M,-27.9,M,,*7F
,1645493349013
NMEA,$GNRMC,012909.00,A,3725.565452,N,12210.137979,W,0.0,,220222,15.0,E,A,V*5C
,1645493349014
NMEA,$AIDSTAT,0,0,0,2,-5,23,3*00
,1645493349930
NMEA,$GPGSV,3,1,11,02,82,135,36,06,40,045,38,11,00,000,33,12,70,333,36,1*66
,1645493350003
NMEA,$GPGSV,3,2,11,19,17,063,26,20,26,142,26,24,35,216,30,25,31,312,29,1*67
,1645493350004
NMEA,$GPGSV,3,3,11,05,08,164,,17,01,071,,29,15,265,,1*55
,1645493350004
NMEA,$GLGSV,2,1,07,78,80,278,34,77,33,157,20,79,28,326,21,88,68,347,35,1*78
,1645493350004
NMEA,$GLGSV,2,2,07,87,28,032,31,81,39,246,37,71,00,000,,1*48
,1645493350004
Raw,2154251,2133642000000,,,-1329526433789547955,0.35126686096191406,49.07267793896608,4.483624672456693,12.518164308814853,85,14,0.0,207,16149367615757,11,33.8,-19.979990005493164,0.23340000212192535,0,0.0,0.0,,,,,0,,3,0.0,
Raw,2154251,2133642000000,,,-1329526433789547955,0.35126686096191406,49.07267793896608,4.483624672456693,12.518164308814853,85,13,0.0,207,16149359974251,53,19.7,701.87060546875,1.1950000524520874,0,0.0,0.0,,,,,0,,3,0.0,
Raw,2154251,2133642000000,,,-1329526433789547955,0.35126686096191406,49.07267793896608,4.483624672456693,12.518164308814853,85,15,0.0,207,16149359078712,46,20.6,-673.1482543945312,1.1449999809265137,0,0.0,0.0,,,,,0,,3,0.0,
Raw,2154251,2133642000000,,,-1329526433789547955,0.35126686096191406,49.07267793896608,4.483624672456693,12.518164308814853,85,24,0.0,207,16149366505361,10,34.9,217.49085998535156,0.23110000789165497,0,0.0,0.0,,,,,0,,3,0.0,
Raw,2154252,2133642000000,,,-1329526433789547955,0.35126686096191406,49.07267793896608,4.483624672456693,12.518164308814853,85,23,0.0,207,16149358626437,13,31.3,633.4840087890625,0.25220000743865967,0,0.0,0.0,,,,,0,,3,0.0,
Raw,2154252,2133642000000,,,-1329526433789547955,0.35126686096191406,49.07267793896608,4.483624672456693,12.518164308814853,85,17,0.0,207,16149362199695,7,37.2,-415.3487243652344,0.22360000014305115,0,0.0,0.0,,,,,0,,3,0.0,
Raw,2154252,2133642000000,,,-1329526433789547955,0.35126686096191406,49.07267793896608,4.483624672456693,12.518164308814853,85,2,0.0,15,178167362417550,9,35.6,40.32328796386719,0.02460000105202198,0,0.0,0.0,,,,,0,,1,0.0,
Raw,2154252,2133642000000,,,-1329526433789547955,0.35126686096191406,49.07267793896608,4.483624672456693,12.518164308814853,85,6,0.0,15,178167358139603,7,37.7,504.0660400390625,0.047600001096725464,0,0.0,0.0,,,,,0,,1,0.0,
Raw,2154252,2133642000000,,,-1329526433789547955,0.35126686096191406,49.07267793896608,4.483624672456693,12.518164308814853,85,12,0.0,15,178167363766635,8,36.4,-189.1289520263672,0.025700001046061516,0,0.0,0.0,,,,,0,,1,0.0,
Raw,2154252,2133642000000,,,-1329526433789547955,0.35126686096191406,49.07267793896608,4.483624672456693,12.518164308814853,85,19,0.0,15,178167352590585,24,25.8,538.433349609375,0.39980000257492065,0,0.0,0.0,,,,,0,,1,0.0,
Raw,2154252,2133642000000,,,-1329526433789547955,0.35126686096191406,49.07267793896608,4.483624672456693,12.518164308814853,85,20,0.0,15,178167355005515,21,26.1,-534.8926391601562,0.13369999825954437,0,0.0,0.0,,,,,0,,1,0.0,
Raw,2154252,2133642000000,,,-1329526433789547955,0.35126686096191406,49.07267793896608,4.483624672456693,12.518164308814853,85,24,0.0,15,178167356494983,14,30.3,532.7546997070312,0.049800001084804535,0,0.0,0.0,,,,,0,,1,0.0,
Raw,2154253,2133642000000,,,-1329526433789547955,0.35126686096191406,49.07267793896608,4.483624672456693,12.518164308814853,85,25,0.0,15,178167357382992,16,29.0,-546.7301635742188,0.05220000073313713,0,0.0,0.0,,,,,0,,1,0.0,
NMEA,$GAGSV,1,1,0,7*43
,1645493350005
NMEA,$PQGSV,1,1,0,0*43
,1645493350006
NMEA,$GBGSV,1,1,0,0*47
,1645493350006
Fix,gps,37.426091,-122.168966,2.146606,0.000000,3.216000,1645493350000
NMEA,$GNGSA,A,3,02,06,12,19,20,24,25,,,,,,1.1,0.8,0.8,1*3D
,1645493350013
NMEA,$GNGSA,A,3,77,78,79,81,87,88,,,,,,,1.1,0.8,0.8,2*35
,1645493350014
NMEA,$GNVTG,,T,,M,0.0,N,0.0,K,A*3D
,1645493350014
NMEA,$GNGGA,012910.00,3725.565434,N,12210.137934,W,1,12,0.8,30.1,M,-27.9,M,,*7E
,1645493350014
NMEA,$GNRMC,012910.00,A,3725.565434,N,12210.137934,W,0.0,,220222,15.0,E,A,V*5D
,1645493350014
NMEA,$AIDSTAT,0,0,0,2,-7,23,3*00
,1645493350931
Raw,2155228,2134642000000,,,-1329526433789547952,0.003673553466796875,40.638711652718484,3.249238684623914,10.04225232029689,85,14,0.0,207,16150367615854,11,33.2,-20.273521423339844,0.23340000212192535,0,0.0,0.0,,,,,0,,3,0.0,
Raw,2155229,2134642000000,,,-1329526433789547952,0.003673553466796875,40.638711652718484,3.249238684623914,10.04225232029689,85,13,0.0,207,16150359971822,31,23.0,701.3181762695312,0.9249999523162842,0,0.0,0.0,,,,,0,,3,0.0,
Raw,2155229,2134642000000,,,-1329526433789547952,0.003673553466796875,40.638711652718484,3.249238684623914,10.04225232029689,85,15,0.0,207,16150359080762,27,24.2,-673.606689453125,0.8949999809265137,0,0.0,0.0,,,,,0,,3,0.0,
Raw,2155229,2134642000000,,,-1329526433789547952,0.003673553466796875,40.638711652718484,3.249238684623914,10.04225232029689,85,24,0.0,207,16150366504627,7,37.2,217.19839477539062,0.2295999974012375,0,0.0,0.0,,,,,0,,3,0.0,
Raw,2155229,2134642000000,,,-1329526433789547952,0.003673553466796875,40.638711652718484,3.249238684623914,10.04225232029689,85,23,0.0,207,16150358624332,11,33.1,633.0433349609375,0.24990001320838928,0,0.0,0.0,,,,,0,,3,0.0,
Raw,2155229,2134642000000,,,-1329526433789547952,0.003673553466796875,40.638711652718484,3.249238684623914,10.04225232029689,85,17,0.0,207,16150362201082,7,37.3,-415.6940002441406,0.22360000014305115,0,0.0,0.0,,,,,0,,3,0.0,
Raw,2155234,2134642000000,,,-1329526433789547952,0.003673553466796875,40.638711652718484,3.249238684623914,10.04225232029689,85,2,0.0,15,178168362417389,12,32.4,39.96833801269531,0.026900000870227814,0,0.0,0.0,,,,,0,,1,0.0,
Raw,2155236,2134642000000,,,-1329526433789547952,0.003673553466796875,40.638711652718484,3.249238684623914,10.04225232029689,85,6,0.0,15,178168358137945,10,34.4,503.7273254394531,0.04910000041127205,0,0.0,0.0,,,,,0,,1,0.0,
Raw,2155237,2134642000000,,,-1329526433789547952,0.003673553466796875,40.638711652718484,3.249238684623914,10.04225232029689,85,12,0.0,15,178168363767247,5,40.6,-189.42999267578125,0.023900000378489494,0,0.0,0.0,,,,,0,,1,0.0,
Raw,2155237,2134642000000,,,-1329526433789547952,0.003673553466796875,40.638711652718484,3.249238684623914,10.04225232029689,85,19,0.0,15,178168352588749,21,26.1,537.7222900390625,0.12919999659061432,0,0.0,0.0,,,,,0,,1,0.0,
Raw,2155237,2134642000000,,,-1329526433789547952,0.003673553466796875,40.638711652718484,3.249238684623914,10.04225232029689,85,20,0.0,15,178168355007354,13,31.1,-535.2362060546875,0.047700002789497375,0,0.0,0.0,,,,,0,,1,0.0,
Raw,2155237,2134642000000,,,-1329526433789547952,0.003673553466796875,40.638711652718484,3.249238684623914,10.04225232029689,85,24,0.0,15,178168356493201,21,26.9,532.5421142578125,0.13520000874996185,0,0.0,0.0,,,,,0,,1,0.0,
Raw,2155238,2134642000000,,,-1329526433789547952,0.003673553466796875,40.638711652718484,3.249238684623914,10.04225232029689,85,25,0.0,15,178168357384801,19,27.3,-547.0564575195312,0.06680000573396683,0,0.0,0.0,,,,,0,,1,0.0,
Fix,gps,37.426090,-122.168965,2.072510,0.000000,3.216000,1645493351000
NMEA,$GPGSV,3,1,11,02,82,135,32,06,40,045,34,11,00,000,36,12,70,333,41,1*6B
,1645493351002
NMEA,$GPGSV,3,2,11,19,17,063,26,20,26,142,31,24,35,216,27,25,31,312,27,1*69
,1645493351002
NMEA,$GPGSV,3,3,11,05,08,164,,17,01,071,,29,15,265,,1*55
,1645493351002
NMEA,$GLGSV,2,1,07,78,81,270,33,77,33,157,23,79,29,326,24,88,67,348,37,1*73
,1645493351004
NMEA,$GLGSV,2,2,07,87,28,033,33,81,40,247,37,71,00,000,,1*44
,1645493351004
NMEA,$GAGSV,1,1,0,7*43
,1645493351005
NMEA,$PQGSV,1,1,0,0*43
,1645493351005
NMEA,$GBGSV,1,1,0,0*47
,1645493351006
NMEA,$GNGSA,A,3,02,06,12,19,20,24,25,,,,,,1.1,0.8,0.8,1*3D
,1645493351010
NMEA,$GNGSA,A,3,77,78,79,81,87,88,,,,,,,1.1,0.8,0.8,2*35
,1645493351011
NMEA,$GNVTG,,T,,M,0.0,N,0.0,K,A*3D
,1645493351011
NMEA,$GNGGA,012911.00,3725.565414,N,12210.137912,W,1,12,0.8,30.0,M,-27.9,M,,*78
,1645493351011
NMEA,$GNRMC,012911.00,A,3725.565414,N,12210.137912,W,0.0,,220222,15.0,E,A,V*5A
,1645493351011
NMEA,$AIDSTAT,0,0,0,2,-2,23,3*00
,1645493351932
Fix,gps,37.426090,-122.168965,2.096741,0.000000,3.216000,1645493352000
NMEA,$GPGSV,3,1,11,02,82,135,34,06,40,045,29,11,00,000,36,12,70,333,41,1*61
,1645493352002
Raw,2156251,2135642000000,,,-1329526433789547953,0.19901084899902344,40.53609154652804,2.107467085489056,12.890990203801957,85,14,0.0,207,16151367615904,10,34.2,-20.14912986755371,0.23260000348091125,0,0.0,0.0,,,,,0,,3,0.0,
Raw,2156251,2135642000000,,,-1329526433789547953,0.19901084899902344,40.53609154652804,2.107467085489056,12.890990203801957,85,13,0.0,207,16151359969561,27,24.7,702.0765991210938,0.8649999499320984,0,0.0,0.0,,,,,0,,3,0.0,
Raw,2156252,2135642000000,,,-1329526433789547953,0.19901084899902344,40.53609154652804,2.107467085489056,12.890990203801957,85,15,0.0,207,16151359083038,21,26.2,-673.64453125,0.33970001339912415,0,0.0,0.0,,,,,0,,3,0.0,
Raw,2156253,2135642000000,,,-1329526433789547953,0.19901084899902344,40.53609154652804,2.107467085489056,12.890990203801957,85,24,0.0,207,16151366503903,9,35.5,217.17103576660156,0.2305999994277954,0,0.0,0.0,,,,,0,,3,0.0,
Raw,2156253,2135642000000,,,-1329526433789547953,0.19901084899902344,40.53609154652804,2.107467085489056,12.890990203801957,85,23,0.0,207,16151358622204,11,33.4,632.8925170898438,0.24990001320838928,0,0.0,0.0,,,,,0,,3,0.0,
Raw,2156253,2135642000000,,,-1329526433789547953,0.19901084899902344,40.53609154652804,2.107467085489056,12.890990203801957,85,17,0.0,207,16151362202426,10,34.3,-415.7210998535156,0.22510001063346863,0,0.0,0.0,,,,,0,,3,0.0,
Raw,2156253,2135642000000,,,-1329526433789547953,0.19901084899902344,40.53609154652804,2.107467085489056,12.890990203801957,85,2,0.0,15,178169362417282,11,33.7,39.98365020751953,0.02590000070631504,0,0.0,0.0,,,,,0,,1,0.0,
Raw,2156253,2135642000000,,,-1329526433789547953,0.19901084899902344,40.53609154652804,2.107467085489056,12.890990203801957,85,6,0.0,15,178169358136273,16,29.2,503.6389465332031,0.053700003772974014,0,0.0,0.0,,,,,0,,1,0.0,
Raw,2156254,2135642000000,,,-1329526433789547953,0.19901084899902344,40.53609154652804,2.107467085489056,12.890990203801957,85,12,0.0,15,178169363767878,5,40.9,-189.516357421875,0.023900000378489494,0,0.0,0.0,,,,,0,,1,0.0,
Raw,2156254,2135642000000,,,-1329526433789547953,0.19901084899902344,40.53609154652804,2.107467085489056,12.890990203801957,85,19,0.0,15,178169352586948,46,20.5,538.0839233398438,0.8044999837875366,0,0.0,0.0,,,,,0,,1,0.0,
Raw,2156254,2135642000000,,,-1329526433789547953,0.19901084899902344,40.53609154652804,2.107467085489056,12.890990203801957,85,20,0.0,15,178169355009126,16,29.3,-535.3688354492188,0.04920000210404396,0,0.0,0.0,,,,,0,,1,0.0,
Raw,2156254,2135642000000,,,-1329526433789547953,0.19901084899902344,40.53609154652804,2.107467085489056,12.890990203801957,85,24,0.0,15,178169356491437,24,25.1,532.3818969726562,0.4058000147342682,0,0.0,0.0,,,,,0,,1,0.0,
Raw,2156255,2135642000000,,,-1329526433789547953,0.19901084899902344,40.53609154652804,2.107467085489056,12.890990203801957,85,25,0.0,15,178169357386637,16,29.7,-547.270263671875,0.05220000073313713,0,0.0,0.0,,,,,0,,1,0.0,
NMEA,$GPGSV,3,2,11,19,17,063,21,20,26,142,29,24,35,216,25,25,31,312,30,1*63
,1645493352002
NMEA,$GPGSV,3,3,11,05,08,164,,17,01,071,,29,15,265,,1*55
,1645493352002
NMEA,$GLGSV,2,1,07,78,81,270,34,77,33,157,25,79,29,326,26,88,67,348,36,1*71
,1645493352002
NMEA,$GLGSV,2,2,07,87,28,033,33,81,40,247,34,71,00,000,,1*47
,1645493352002
NMEA,$GAGSV,1,1,0,7*43
,1645493352003
NMEA,$PQGSV,1,1,0,0*43
,1645493352003
NMEA,$GBGSV,1,1,0,0*47
,1645493352003
NMEA,$GNGSA,A,3,02,06,12,19,20,24,25,,,,,,1.1,0.8,0.8,1*3D
,1645493352006
NMEA,$GNGSA,A,3,77,78,79,81,87,88,,,,,,,1.1,0.8,0.8,2*35
,1645493352006
NMEA,$GNVTG,,T,,M,0.0,N,0.0,K,A*3D
,1645493352006
NMEA,$GNGGA,012912.00,3725.565402,N,12210.137892,W,1,12,0.8,30.0,M,-27.9,M,,*75
,1645493352006
NMEA,$GNRMC,012912.00,A,3725.565402,N,12210.137892,W,0.0,,220222,15.0,E,A,V*57
,1645493352006
