# 
# Header Description:
# 
# Version: v2.0.0.1 Platform: 9 Manufacturer: samsung Model: SM-G960U
# 
# Raw,ElapsedRealtimeMillis,TimeNanos,LeapSecond,TimeUncertaintyNanos,FullBiasNanos,BiasNanos,BiasUncertaintyNanos,DriftNanosPerSecond,DriftUncertaintyNanosPerSecond,HardwareClockDiscontinuityCount,Svid,TimeOffsetNanos,State,ReceivedSvTimeNanos,ReceivedSvTimeUncertaintyNanos,Cn0DbHz,PseudorangeRateMetersPerSecond,PseudorangeRateUncertaintyMetersPerSecond,AccumulatedDeltaRangeState,AccumulatedDeltaRangeMeters,AccumulatedDeltaRangeUncertaintyMeters,CarrierFrequencyHz,CarrierCycles,CarrierPhase,CarrierPhaseUncertainty,MultipathIndicator,SnrInDb,ConstellationType,AgcDb,CarrierFrequencyHz
# 
# Fix,Provider,Latitude,Longitude,Altitude,Speed,Accuracy,(UTC)TimeInMs
# 
# Nav,Svid,Type,Status,MessageId,Sub-messageId,Data(Bytes)
# 
NMEA,$AIDSTAT,0,0,0,2,15,23,3*00
,1645493448930
Raw,2253223,2232642000000,,,-1329526433789547650,0.02040863037109375,46.48257163353264,0.4570103783626047,15.328557826127152,85,14,0.0,207,16248367619775,17,28.5,-7.0852460861206055,0.24379999935626984,0,0.0,0.0,,,,,0,,3,0.0,
Raw,2253223,2232642000000,,,-1329526433789547650,0.02040863037109375,46.48257163353264,0.4570103783626047,15.328557826127152,85,13,0.0,207,16248359741133,61,18.5,706.6927490234375,1.274999976158142,0,0.0,0.0,,,,,0,,3,0.0,
Raw,2253223,2232642000000,,,-1329526433789547650,0.02040863037109375,46.48257163353264,0.4570103783626047,15.328557826127152,85,15,0.0,207,16248359299890,14,30.9,-669.2990112304688,0.25429999828338623,0,0.0,0.0,,,,,0,,3,0.0,
Raw,2253223,2232642000000,,,-1329526433789547650,0.02040863037109375,46.48257163353264,0.4570103783626047,15.328557826127152,85,24,0.0,207,16248366431924,14,30.9,223.86111450195312,0.23479999601840973,0,0.0,0.0,,,,,0,,3,0.0,
Raw,2253224,2232642000000,,,-1329526433789547650,0.02040863037109375,46.48257163353264,0.4570103783626047,15.328557826127152,85,23,0.0,207,16248358416963,8,36.9,632.4967041015625,0.24820001423358917,0,0.0,0.0,,,,,0,,3,0.0,
Raw,2253224,2232642000000,,,-1329526433789547650,0.02040863037109375,46.48257163353264,0.4570103783626047,15.328557826127152,85,17,0.0,207,16248362335320,14,30.8,-409.24530029296875,0.2287999987602234,0,0.0,0.0,,,,,0,,3,0.0,
Raw,2253224,2232642000000,,,-1329526433789547650,0.02040863037109375,46.48257163353264,0.4570103783626047,15.328557826127152,85,2,0.0,15,178266362402551,12,32.4,47.3747673034668,0.026900000870227814,0,0.0,0.0,,,,,0,,1,0.0,
Raw,2253224,2232642000000,,,-1329526433789547650,0.02040863037109375,46.48257163353264,0.4570103783626047,15.328557826127152,85,6,0.0,15,178266357972080,16,29.1,508.1783752441406,0.05220000073313713,0,0.0,0.0,,,,,0,,1,0.0,
Raw,2253224,2232642000000,,,-1329526433789547650,0.02040863037109375,46.48257163353264,0.4570103783626047,15.328557826127152,85,12,0.0,15,178266363827686,10,34.9,-183.34207153320312,0.026600001379847527,0,0.0,0.0,,,,,0,,1,0.0,
Raw,2253224,2232642000000,,,-1329526433789547650,0.02040863037109375,46.48257163353264,0.4570103783626047,15.328557826127152,85,19,0.0,15,178266352412668,53,19.1,535.1724243164062,0.8644999861717224,0,0.0,0.0,,,,,0,,1,0.0,
Raw,2253225,2232642000000,,,-1329526433789547650,0.02040863037109375,46.48257163353264,0.4570103783626047,15.328557826127152,85,20,0.0,15,178266355181612,96,15.4,-532.6414794921875,1.9390000104904175,0,0.0,0.0,,,,,0,,1,0.0,
Raw,2253225,2232642000000,,,-1329526433789547650,0.02040863037109375,46.48257163353264,0.4570103783626047,15.328557826127152,85,24,0.0,15,178266356318120,17,28.6,535.6829833984375,0.05730000138282776,0,0.0,0.0,,,,,0,,1,0.0,
Raw,2253225,2232642000000,,,-1329526433789547650,0.02040863037109375,46.48257163353264,0.4570103783626047,15.328557826127152,85,25,0.0,15,178266357562845,12,32.0,-545.2621459960938,0.049400001764297485,0,0.0,0.0,,,,,0,,1,0.0,
Fix,gps,37.425997,-122.168882,1.530975,0.000000,3.216000,1645493449000
NMEA,$GPGSV,3,1,11,02,83,127,32,06,39,045,29,11,00,000,33,12,71,333,35,1*6C
,1645493449002
NMEA,$GPGSV,3,2,11,19,16,064,19,20,27,142,15,24,35,215,29,25,32,312,32,1*6E
,1645493449002
NMEA,$GPGSV,3,3,11,05,09,163,,17,00,000,,29,16,267,,1*55
,1645493449002
NMEA,$GLGSV,2,1,07,78,81,264,29,77,33,157,19,79,29,326,31,88,66,350,31,1*7E
,1645493449002
NMEA,$GLGSV,2,2,07,87,28,033,37,81,40,247,31,71,00,000,,1*46
,1645493449002
NMEA,$GAGSV,1,1,0,7*43
,1645493449002
NMEA,$PQGSV,1,1,0,0*43
,1645493449003
NMEA,$GBGSV,1,1,0,0*47
,1645493449003
NMEA,$GNGSA,A,3,02,06,12,19,20,24,25,,,,,,1.2,0.9,0.8,1*3F
,1645493449005
NMEA,$GNGSA,A,3,78,79,81,87,88,,,,,,,,1.2,0.9,0.8,2*37
,1645493449005
NMEA,$GNVTG,,T,,M,0.0,N,0.0,K,A*3D
,1645493449005
NMEA,$GNGGA,013049.00,3725.559809,N,12210.132942,W,1,12,0.9,29.5,M,-27.9,M,,*7E
,1645493449005
NMEA,$GNRMC,013049.00,A,3725.559809,N,12210.132942,W,0.0,,220222,15.0,E,A,V*50
,1645493449005
NMEA,$AIDSTAT,0,0,0,2,,23,3*00
,1645493449931
NMEA,$GPGSV,3,1,11,02,83,127,33,06,39,045,28,11,00,000,29,12,71,333,31,1*63
,1645493450002
NMEA,$GPGSV,3,2,11,19,16,064,22,20,27,142,19,24,35,215,28,25,32,312,36,1*6F
,1645493450003
Raw,2254258,2233642000000,,,-1329526433789547657,0.8215255737304688,49.55974145559594,-5.836181531279132,14.21156333608339,85,14,0.0,207,16249367619767,21,26.6,-7.98807430267334,0.32170000672340393,0,0.0,0.0,,,,,0,,3,0.0,
Raw,2254258,2233642000000,,,-1329526433789547657,0.8215255737304688,49.55974145559594,-5.836181531279132,14.21156333608339,85,13,0.0,207,16249359738637,61,18.9,706.3369750976562,1.274999976158142,0,0.0,0.0,,,,,0,,3,0.0,
Raw,2254258,2233642000000,,,-1329526433789547657,0.8215255737304688,49.55974145559594,-5.836181531279132,14.21156333608339,85,15,0.0,207,16249359302094,14,30.8,-670.3860473632812,0.25429999828338623,0,0.0,0.0,,,,,0,,3,0.0,
Raw,2254258,2233642000000,,,-1329526433789547657,0.8215255737304688,49.55974145559594,-5.836181531279132,14.21156333608339,85,24,0.0,207,16249366431266,10,34.1,222.90451049804688,0.23110000789165497,0,0.0,0.0,,,,,0,,3,0.0,
Raw,2254259,2233642000000,,,-1329526433789547657,0.8215255737304688,49.55974145559594,-5.836181531279132,14.21156333608339,85,23,0.0,207,16249358414861,8,36.2,631.2781372070312,0.24820001423358917,0,0.0,0.0,,,,,0,,3,0.0,
Raw,2254259,2233642000000,,,-1329526433789547657,0.8215255737304688,49.55974145559594,-5.836181531279132,14.21156333608339,85,17,0.0,207,16249362336668,14,30.8,-410.1720886230469,0.2287999987602234,0,0.0,0.0,,,,,0,,3,0.0,
Raw,2254259,2233642000000,,,-1329526433789547657,0.8215255737304688,49.55974145559594,-5.836181531279132,14.21156333608339,85,2,0.0,15,178267362402419,11,33.1,46.40675354003906,0.02590000070631504,0,0.0,0.0,,,,,0,,1,0.0,
Raw,2254259,2233642000000,,,-1329526433789547657,0.8215255737304688,49.55974145559594,-5.836181531279132,14.21156333608339,85,6,0.0,15,178267357970402,17,28.1,507.0264587402344,0.058800000697374344,0,0.0,0.0,,,,,0,,1,0.0,
Raw,2254259,2233642000000,,,-1329526433789547657,0.8215255737304688,49.55974145559594,-5.836181531279132,14.21156333608339,85,12,0.0,15,178267363828285,13,31.4,-184.42604064941406,0.02970000170171261,0,0.0,0.0,,,,,0,,1,0.0,
Raw,2254260,2233642000000,,,-1329526433789547657,0.8215255737304688,49.55974145559594,-5.836181531279132,14.21156333608339,85,19,0.0,15,178267352410872,35,22.1,534.7156982421875,0.684499979019165,0,0.0,0.0,,,,,0,,1,0.0,
Raw,2254260,2233642000000,,,-1329526433789547657,0.8215255737304688,49.55974145559594,-5.836181531279132,14.21156333608339,85,20,0.0,15,178267355183257,61,18.5,-533.9069213867188,0.9389999508857727,0,0.0,0.0,,,,,0,,1,0.0,
Raw,2254260,2233642000000,,,-1329526433789547657,0.8215255737304688,49.55974145559594,-5.836181531279132,14.21156333608339,85,24,0.0,15,178267356316355,19,27.8,534.5391845703125,0.06530000269412994,0,0.0,0.0,,,,,0,,1,0.0,
Raw,2254261,2233642000000,,,-1329526433789547657,0.8215255737304688,49.55974145559594,-5.836181531279132,14.21156333608339,85,25,0.0,15,178267357564671,9,35.8,-546.4179077148438,0.0471000038087368,0,0.0,0.0,,,,,0,,1,0.0,
NMEA,$GPGSV,3,3,11,05,09,163,,17,00,000,,29,16,267,,1*55
,1645493450003
NMEA,$GLGSV,2,1,07,78,81,264,27,77,33,157,19,79,29,326,31,88,66,350,34,1*75
,1645493450003
NMEA,$GLGSV,2,2,07,87,28,033,36,81,40,247,31,71,00,000,,1*47
,1645493450003
NMEA,$GAGSV,1,1,0,7*43
,1645493450003
NMEA,$PQGSV,1,1,0,0*43
,1645493450004
NMEA,$GBGSV,1,1,0,0*47
,1645493450004
Fix,gps,37.425999,-122.168884,1.444153,0.000000,3.216000,1645493450000
NMEA,$GNGSA,A,3,02,06,12,19,20,24,25,,,,,,1.2,0.9,0.8,1*3F
,1645493450011
NMEA,$GNGSA,A,3,78,79,81,87,88,,,,,,,,1.2,0.9,0.8,2*37
,1645493450011
NMEA,$GNVTG,,T,,M,0.0,N,0.0,K,A*3D
,1645493450011
NMEA,$GNGGA,013050.00,3725.559938,N,12210.133012,W,1,12,0.9,29.4,M,-27.9,M,,*79
,1645493450011
NMEA,$GNRMC,013050.00,A,3725.559938,N,12210.133012,W,0.0,,220222,15.0,E,A,V*56
,1645493450011
NMEA,$AIDSTAT,0,0,0,2,8,23,3*00
,1645493450933
Raw,2255234,2234642000000,,,-1329526433789547665,0.5662822723388672,48.639336455380544,-9.210338232029683,13.256602125010472,85,14,0.0,207,16250367619827,21,26.3,-6.382631301879883,0.32170000672340393,0,0.0,0.0,,,,,0,,3,0.0,
Raw,2255234,2234642000000,,,-1329526433789547665,0.5662822723388672,48.639336455380544,-9.210338232029683,13.256602125010472,85,13,0.0,207,16250359736300,46,20.8,707.6946411132812,1.1150000095367432,0,0.0,0.0,,,,,0,,3,0.0,
Raw,2255236,2234642000000,,,-1329526433789547665,0.5662822723388672,48.639336455380544,-9.210338232029683,13.256602125010472,85,15,0.0,207,16250359304351,9,35.4,-668.6982421875,0.2501000165939331,0,0.0,0.0,,,,,0,,3,0.0,
Raw,2255236,2234642000000,,,-1329526433789547665,0.5662822723388672,48.639336455380544,-9.210338232029683,13.256602125010472,85,24,0.0,207,16250366430500,11,33.7,224.63058471679688,0.23190000653266907,0,0.0,0.0,,,,,0,,3,0.0,
Raw,2255237,2234642000000,,,-1329526433789547665,0.5662822723388672,48.639336455380544,-9.210338232029683,13.256602125010472,85,23,0.0,207,16250358412738,12,32.2,632.8712768554688,0.250900000333786,0,0.0,0.0,,,,,0,,3,0.0,
Raw,2255237,2234642000000,,,-1329526433789547665,0.5662822723388672,48.639336455380544,-9.210338232029683,13.256602125010472,85,17,0.0,207,16250362338019,16,29.9,-408.4171447753906,0.2296999990940094,0,0.0,0.0,,,,,0,,3,0.0,
Raw,2255237,2234642000000,,,-1329526433789547665,0.5662822723388672,48.639336455380544,-9.210338232029683,13.256602125010472,85,2,0.0,15,178268362402207,14,30.4,48.17586135864258,0.028800001367926598,0,0.0,0.0,,,,,0,,1,0.0,
Raw,2255237,2234642000000,,,-1329526433789547665,0.5662822723388672,48.639336455380544,-9.210338232029683,13.256602125010472,85,6,0.0,15,178268357968722,13,31.9,508.6189270019531,0.050700001418590546,0,0.0,0.0,,,,,0,,1,0.0,
Raw,2255237,2234642000000,,,-1329526433789547665,0.5662822723388672,48.639336455380544,-9.210338232029683,13.256602125010472,85,12,0.0,15,178268363828908,13,31.8,-182.60935974121094,0.02970000170171261,0,0.0,0.0,,,,,0,,1,0.0,
Raw,2255238,2234642000000,,,-1329526433789547665,0.5662822723388672,48.639336455380544,-9.210338232029683,13.256602125010472,85,19,0.0,15,178268352409081,31,23.0,536.8088989257812,0.6345000267028809,0,0.0,0.0,,,,,0,,1,0.0,
Raw,2255238,2234642000000,,,-1329526433789547665,0.5662822723388672,48.639336455380544,-9.210338232029683,13.256602125010472,85,20,0.0,15,178268355185099,35,22.2,-532.5368041992188,0.6889999508857727,0,0.0,0.0,,,,,0,,1,0.0,
Raw,2255238,2234642000000,,,-1329526433789547665,0.5662822723388672,48.639336455380544,-9.210338232029683,13.256602125010472,85,24,0.0,15,178268356314527,21,26.9,536.1405029296875,0.13520000874996185,0,0.0,0.0,,,,,0,,1,0.0,
Raw,2255238,2234642000000,,,-1329526433789547665,0.5662822723388672,48.639336455380544,-9.210338232029683,13.256602125010472,85,25,0.0,15,178268357566496,10,34.9,-544.7284545898438,0.047600001096725464,0,0.0,0.0,,,,,0,,1,0.0,
Fix,gps,37.426000,-122.168884,1.206604,0.000000,3.216000,1645493451000
NMEA,$GPGSV,3,1,11,02,83,127,30,06,39,045,32,11,00,000,30,12,71,333,32,1*60
,1645493451003
NMEA,$GPGSV,3,2,11,19,16,064,23,20,27,142,22,24,35,215,27,25,32,312,35,1*6A
,1645493451004
NMEA,$GPGSV,3,3,11,05,09,163,,17,00,000,,29,16,267,,1*55
,1645493451004
NMEA,$GLGSV,2,1,07,78,81,264,26,77,33,157,21,79,29,326,35,88,66,350,34,1*7B
,1645493451004
NMEA,$GLGSV,2,2,07,87,28,033,32,81,40,247,30,71,00,000,,1*42
,1645493451004
NMEA,$GAGSV,1,1,0,7*43
,1645493451004
NMEA,$PQGSV,1,1,0,0*43
,1645493451004
NMEA,$GBGSV,1,1,0,0*47
,1645493451005
NMEA,$GNGSA,A,3,02,06,12,19,20,24,25,,,,,,1.1,0.8,0.8,1*3D
,1645493451014
NMEA,$GNGSA,A,3,77,78,79,81,87,88,,,,,,,1.1,0.8,0.8,2*35
,1645493451016
NMEA,$GNVTG,,T,,M,0.0,N,0.0,K,A*3D
,1645493451016
NMEA,$GNGGA,013051.00,3725.560008,N,12210.133020,W,1,12,0.8,29.1,M,-27.9,M,,*7D
,1645493451016
NMEA,$GNRMC,013051.00,A,3725.560008,N,12210.133020,W,0.0,,220222,15.0,E,A,V*56
,1645493451016
NMEA,$AIDSTAT,0,0,0,2,0,23,3*00
,1645493451933
NMEA,$GPGSV,3,1,11,02,83,127,32,06,39,045,29,11,00,000,30,12,71,333,34,1*6E
,1645493452005
Raw,2256251,2235642000000,,,-1329526433789547673,0.8474807739257812,50.462062063161284,-4.731671327463599,12.302124443433462,85,14,0.0,207,16251367619847,21,26.6,-4.743618965148926,0.32170000672340393,0,0.0,0.0,,,,,0,,3,0.0,
Raw,2256251,2235642000000,,,-1329526433789547673,0.8474807739257812,50.462062063161284,-4.731671327463599,12.302124443433462,85,13,0.0,207,16251359733995,46,20.0,709.5953979492188,1.1150000095367432,0,0.0,0.0,,,,,0,,3,0.0,
Raw,2256251,2235642000000,,,-1329526433789547673,0.8474807739257812,50.462062063161284,-4.731671327463599,12.302124443433462,85,15,0.0,207,16251359306579,8,36.7,-667.3316040039062,0.24970000982284546,0,0.0,0.0,,,,,0,,3,0.0,
Raw,2256251,2235642000000,,,-1329526433789547673,0.8474807739257812,50.462062063161284,-4.731671327463599,12.302124443433462,85,24,0.0,207,16251366429739,9,35.1,225.98329162597656,0.2305999994277954,0,0.0,0.0,,,,,0,,3,0.0,
Raw,2256252,2235642000000,,,-1329526433789547673,0.8474807739257812,50.462062063161284,-4.731671327463599,12.302124443433462,85,23,0.0,207,16251358410610,11,33.7,634.144775390625,0.24990001320838928,0,0.0,0.0,,,,,0,,3,0.0,
Raw,2256252,2235642000000,,,-1329526433789547673,0.8474807739257812,50.462062063161284,-4.731671327463599,12.302124443433462,85,17,0.0,207,16251362339410,13,31.5,-407.111572265625,0.2282000035047531,0,0.0,0.0,,,,,0,,3,0.0,
Raw,2256252,2235642000000,,,-1329526433789547673,0.8474807739257812,50.462062063161284,-4.731671327463599,12.302124443433462,85,2,0.0,15,178269362402098,12,32.1,49.42624282836914,0.026900000870227814,0,0.0,0.0,,,,,0,,1,0.0,
Raw,2256252,2235642000000,,,-1329526433789547673,0.8474807739257812,50.462062063161284,-4.731671327463599,12.302124443433462,85,6,0.0,15,178269357967058,17,28.5,509.9436340332031,0.058800000697374344,0,0.0,0.0,,,,,0,,1,0.0,
Raw,2256252,2235642000000,,,-1329526433789547673,0.8474807739257812,50.462062063161284,-4.731671327463599,12.302124443433462,85,12,0.0,15,178269363829516,11,33.7,-181.32070922851562,0.027400000020861626,0,0.0,0.0,,,,,0,,1,0.0,
Raw,2256253,2235642000000,,,-1329526433789547673,0.8474807739257812,50.462062063161284,-4.731671327463599,12.302124443433462,85,19,0.0,15,178269352407269,21,26.2,538.0902709960938,0.12919999659061432,0,0.0,0.0,,,,,0,,1,0.0,
Raw,2256253,2235642000000,,,-1329526433789547673,0.8474807739257812,50.462062063161284,-4.731671327463599,12.302124443433462,85,20,0.0,15,178269355186903,35,22.4,-531.5473022460938,0.6889999508857727,0,0.0,0.0,,,,,0,,1,0.0,
Raw,2256253,2235642000000,,,-1329526433789547673,0.8474807739257812,50.462062063161284,-4.731671327463599,12.302124443433462,85,24,0.0,15,178269356312725,17,28.4,537.4806518554688,0.05730000138282776,0,0.0,0.0,,,,,0,,1,0.0,
Raw,2256253,2235642000000,,,-1329526433789547673,0.8474807739257812,50.462062063161284,-4.731671327463599,12.302124443433462,85,25,0.0,15,178269357568310,10,34.7,-543.4358520507812,0.047600001096725464,0,0.0,0.0,,,,,0,,1,0.0,
NMEA,$GPGSV,3,2,11,19,16,064,26,20,27,142,22,24,35,215,28,25,32,312,35,1*60
,1645493452006
NMEA,$GPGSV,3,3,11,05,09,163,,17,00,000,,29,16,267,,1*55
,1645493452013
NMEA,$GLGSV,2,1,07,78,81,264,27,77,33,157,20,79,29,326,37,88,66,350,35,1*78
,1645493452014
NMEA,$GLGSV,2,2,07,87,28,033,34,81,40,247,32,71,00,000,,1*46
,1645493452015
NMEA,$GAGSV,1,1,0,7*43
,1645493452016
NMEA,$PQGSV,1,1,0,0*43
,1645493452017
NMEA,$GBGSV,1,1,0,0*47
,1645493452017
Fix,gps,37.426002,-122.168885,1.097015,0.000000,3.216000,1645493452000
NMEA,$GNGSA,A,3,02,06,12,19,20,24,25,,,,,,1.1,0.8,0.8,1*3D
,1645493452031
NMEA,$GNGSA,A,3,77,78,79,81,87,88,,,,,,,1.1,0.8,0.8,2*35
,1645493452031
NMEA,$GNVTG,,T,,M,0.0,N,0.0,K,A*3D
,1645493452031
NMEA,$GNGGA,013052.00,3725.560130,N,12210.133117,W,1,12,0.8,29.0,M,-27.9,M,,*70
,1645493452032
NMEA,$GNRMC,013052.00,A,3725.560130,N,12210.133117,W,0.0,,220222,15.0,E,A,V*5A
,1645493452032
NMEA,$AIDSTAT,0,0,0,2,1,23,3*00
,1645493452931
NMEA,$GPGSV,3,1,11,02,83,127,31,06,39,045,31,11,00,000,30,12,71,333,33,1*63
,1645493453003
NMEA,$GPGSV,3,2,11,19,16,064,27,20,27,142,19,24,35,215,30,25,32,312,35,1*60
,1645493453004
Raw,2257247,2236642000000,,,-1329526433789547668,0.5562477111816406,49.945352657232434,-0.8008973710130955,11.288471658679608,85,14,0.0,207,16252367619828,19,27.1,-4.160314083099365,0.251800000667572,0,0.0,0.0,,,,,0,,3,0.0,
Raw,2257247,2236642000000,,,-1329526433789547668,0.5562477111816406,49.945352657232434,-0.8008973710130955,11.288471658679608,85,13,0.0,207,16252359731501,46,20.2,709.8670043945312,1.1150000095367432,0,0.0,0.0,,,,,0,,3,0.0,
Raw,2257247,2236642000000,,,-1329526433789547668,0.5562477111816406,49.945352657232434,-0.8008973710130955,11.288471658679608,85,15,0.0,207,16252359308792,8,36.2,-666.842041015625,0.24970000982284546,0,0.0,0.0,,,,,0,,3,0.0,
Raw,2257247,2236642000000,,,-1329526433789547668,0.5562477111816406,49.945352657232434,-0.8008973710130955,11.288471658679608,85,24,0.0,207,16252366428982,8,36.1,226.51002502441406,0.23020000755786896,0,0.0,0.0,,,,,0,,3,0.0,
Raw,2257248,2236642000000,,,-1329526433789547668,0.5562477111816406,49.945352657232434,-0.8008973710130955,11.288471658679608,85,23,0.0,207,16252358408529,9,35.1,634.6180419921875,0.24860000610351562,0,0.0,0.0,,,,,0,,3,0.0,
Raw,2257248,2236642000000,,,-1329526433789547668,0.5562477111816406,49.945352657232434,-0.8008973710130955,11.288471658679608,85,17,0.0,207,16252362340837,19,27.3,-406.5815734863281,0.2443000078201294,0,0.0,0.0,,,,,0,,3,0.0,
Raw,2257248,2236642000000,,,-1329526433789547668,0.5562477111816406,49.945352657232434,-0.8008973710130955,11.288471658679608,85,2,0.0,15,178270362401914,14,30.8,49.991573333740234,0.028800001367926598,0,0.0,0.0,,,,,0,,1,0.0,
Raw,2257248,2236642000000,,,-1329526433789547668,0.5562477111816406,49.945352657232434,-0.8008973710130955,11.288471658679608,85,6,0.0,15,178270357965323,14,30.6,510.51629638671875,0.05130000039935112,0,0.0,0.0,,,,,0,,1,0.0,
Raw,2257248,2236642000000,,,-1329526433789547668,0.5562477111816406,49.945352657232434,-0.8008973710130955,11.288471658679608,85,12,0.0,15,178270363830138,12,32.5,-180.7115478515625,0.0284000001847744,0,0.0,0.0,,,,,0,,1,0.0,
Raw,2257249,2236642000000,,,-1329526433789547668,0.5562477111816406,49.945352657232434,-0.8008973710130955,11.288471658679608,85,19,0.0,15,178270352405485,21,26.7,538.4678955078125,0.12919999659061432,0,0.0,0.0,,,,,0,,1,0.0,
Raw,2257249,2236642000000,,,-1329526433789547668,0.5562477111816406,49.945352657232434,-0.8008973710130955,11.288471658679608,85,20,0.0,15,178270355188751,53,19.4,-531.2999267578125,0.8689999580383301,0,0.0,0.0,,,,,0,,1,0.0,
Raw,2257249,2236642000000,,,-1329526433789547668,0.5562477111816406,49.945352657232434,-0.8008973710130955,11.288471658679608,85,24,0.0,15,178270356310936,16,29.8,538.0037231445312,0.050700001418590546,0,0.0,0.0,,,,,0,,1,0.0,
Raw,2257249,2236642000000,,,-1329526433789547668,0.5562477111816406,49.945352657232434,-0.8008973710130955,11.288471658679608,85,25,0.0,15,178270357570114,9,35.2,-542.9447021484375,0.0471000038087368,0,0.0,0.0,,,,,0,,1,0.0,
NMEA,$GPGSV,3,3,11,05,09,163,,17,00,000,,29,16,267,,1*55
,1645493453004
NMEA,$GLGSV,2,1,07,78,81,264,27,77,33,157,20,79,29,326,36,88,66,350,36,1*7A
,1645493453004
NMEA,$GLGSV,2,2,07,87,28,033,35,81,40,247,27,71,00,000,,1*43
,1645493453004
NMEA,$GAGSV,1,1,0,7*43
,1645493453004
NMEA,$PQGSV,1,1,0,0*43
,1645493453005
NMEA,$GBGSV,1,1,0,0*47
,1645493453005
Fix,gps,37.426003,-122.168884,0.901581,0.000000,3.216000,1645493453000
NMEA,$GNGSA,A,3,02,06,12,19,20,24,25,,,,,,1.1,0.8,0.8,1*3D
,1645493453010
NMEA,$GNGSA,A,3,77,78,79,81,87,88,,,,,,,1.1,0.8,0.8,2*35
,1645493453010
NMEA,$GNVTG,,T,,M,0.0,N,0.0,K,A*3D
,1645493453010
NMEA,$GNGGA,013053.00,3725.560176,N,12210.133068,W,1,12,0.8,28.8,M,-27.9,M,,*73
,1645493453010
NMEA,$GNRMC,013053.00,A,3725.560176,N,12210.133068,W,0.0,,220222,15.0,E,A,V*50
,1645493453011
NMEA,$AIDSTAT,0,0,0,2,,23,3*00
,1645493453933
Fix,gps,37.426003,-122.168884,0.867218,0.000000,3.216000,1645493454000
Raw,2258258,2237642000000,,,-1329526433789547671,0.8740386962890625,49.181388021679595,0.2265696794598122,11.100466165436789,85,14,0.0,207,16253367619870,17,28.2,-3.706347942352295,0.24379999935626984,0,0.0,0.0,,,,,0,,3,0.0,
Raw,2258258,2237642000000,,,-1329526433789547671,0.8740386962890625,49.181388021679595,0.2265696794598122,11.100466165436789,85,13,0.0,207,16253359729306,92,15.9,711.5523681640625,1.5550000667572021,0,0.0,0.0,,,,,0,,3,0.0,
Raw,2258259,2237642000000,,,-1329526433789547671,0.8740386962890625,49.181388021679595,0.2265696794598122,11.100466165436789,85,15,0.0,207,16253359311011,12,32.4,-666.2666625976562,0.2524000108242035,0,0.0,0.0,,,,,0,,3,0.0,
Raw,2258259,2237642000000,,,-1329526433789547671,0.8740386962890625,49.181388021679595,0.2265696794598122,11.100466165436789,85,24,0.0,207,16253366428227,16,29.8,227.03042602539062,0.23569999635219574,0,0.0,0.0,,,,,0,,3,0.0,
Raw,2258259,2237642000000,,,-1329526433789547671,0.8740386962890625,49.181388021679595,0.2265696794598122,11.100466165436789,85,23,0.0,207,16253358406394,12,32.5,634.9678344726562,0.250900000333786,0,0.0,0.0,,,,,0,,3,0.0,
Raw,2258259,2237642000000,,,-1329526433789547671,0.8740386962890625,49.181388021679595,0.2265696794598122,11.100466165436789,85,17,0.0,207,16253362342045,31,23.4,-405.2266845703125,0.9294999837875366,0,0.0,0.0,,,,,0,,3,0.0,
Raw,2258260,2237642000000,,,-1329526433789547671,0.8740386962890625,49.181388021679595,0.2265696794598122,11.100466165436789,85,2,0.0,15,178271362401783,14,30.3,50.49176788330078,0.028800001367926598,0,0.0,0.0,,,,,0,,1,0.0,
Raw,2258260,2237642000000,,,-1329526433789547671,0.8740386962890625,49.181388021679595,0.2265696794598122,11.100466165436789,85,6,0.0,15,178271357963532,17,28.3,510.7571716308594,0.058800000697374344,0,0.0,0.0,,,,,0,,1,0.0,
Raw,2258260,2237642000000,,,-1329526433789547671,0.8740386962890625,49.181388021679595,0.2265696794598122,11.100466165436789,85,12,0.0,15,178271363830715,8,36.0,-180.2909698486328,0.025700001046061516,0,0.0,0.0,,,,,0,,1,0.0,
Raw,2258260,2237642000000,,,-1329526433789547671,0.8740386962890625,49.181388021679595,0.2265696794598122,11.100466165436789,85,19,0.0,15,178271352403674,24,25.9,538.8421020507812,0.39980000257492065,0,0.0,0.0,,,,,0,,1,0.0,
Raw,2258261,2237642000000,,,-1329526433789547671,0.8740386962890625,49.181388021679595,0.2265696794598122,11.100466165436789,85,20,0.0,15,178271355190502,53,19.7,-530.6814575195312,0.8689999580383301,0,0.0,0.0,,,,,0,,1,0.0,
Raw,2258261,2237642000000,,,-1329526433789547671,0.8740386962890625,49.181388021679595,0.2265696794598122,11.100466165436789,85,24,0.0,15,178271356309152,24,25.8,538.3175659179688,0.4058000147342682,0,0.0,0.0,,,,,0,,1,0.0,
Raw,2258261,2237642000000,,,-1329526433789547671,0.8740386962890625,49.181388021679595,0.2265696794598122,11.100466165436789,85,25,0.0,15,178271357571923,11,33.4,-542.4442749023438,0.04840000346302986,0,0.0,0.0,,,,,0,,1,0.0,
NMEA,$GPGSV,3,1,11,02,83,127,30,06,39,045,28,11,00,000,35,12,71,333,36,1*6A
,1645493454005
NMEA,$GPGSV,3,2,11,19,16,064,26,20,27,142,20,24,35,215,26,25,32,312,33,1*6A
,1645493454006
NMEA,$GPGSV,3,3,11,05,09,163,,17,00,000,,29,16,267,,1*55
,1645493454006
NMEA,$GLGSV,2,1,07,78,81,264,28,77,33,157,16,79,29,326,32,88,66,350,30,1*72
,1645493454006
NMEA,$GLGSV,2,2,07,87,28,033,33,81,40,247,23,71,00,000,,1*41
,1645493454006
NMEA,$GAGSV,1,1,0,7*43
,1645493454006
NMEA,$PQGSV,1,1,0,0*43
,1645493454007
NMEA,$GBGSV,1,1,0,0*47
,1645493454009
NMEA,$GNGSA,A,3,02,06,12,19,20,24,25,,,,,,1.1,0.8,0.8,1*3D
,1645493454014
NMEA,$GNGSA,A,3,77,78,79,81,87,88,,,,,,,1.1,0.8,0.8,2*35
,1645493454015
NMEA,$GNVTG,,T,,M,0.0,N,0.0,K,A*3D
,1645493454015
NMEA,$GNGGA,013054.00,3725.560209,N,12210.133066,W,1,12,0.8,28.8,M,-27.9,M,,*71
,1645493454016
NMEA,$GNRMC,013054.00,A,3725.560209,N,12210.133066,W,0.0,,220222,15.0,E,A,V*52
,1645493454016
NMEA,$AIDSTAT,0,0,0,2,-8,23,3*00
,1645493454932
NMEA,$GPGSV,3,1,11,02,83,127,30,06,39,045,31,11,00,000,33,12,71,333,38,1*6A
,1645493455002
Raw,2259246,2238642000000,,,-1329526433789547664,0.6689682006835938,47.17143383459188,2.084111139570965,11.51871679356085,85,14,0.0,207,16254367619872,21,26.1,-3.7009778022766113,0.32170000672340393,0,0.0,0.0,,,,,0,,3,0.0,
Raw,2259246,2238642000000,,,-1329526433789547664,0.6689682006835938,47.17143383459188,2.084111139570965,11.51871679356085,85,13,0.0,207,16254359726932,103,15.9,711.5523681640625,3.055000066757202,0,0.0,0.0,,,,,0,,3,0.0,
Raw,2259246,2238642000000,,,-1329526433789547664,0.6689682006835938,47.17143383459188,2.084111139570965,11.51871679356085,85,15,0.0,207,16254359313237,17,28.8,-665.6068725585938,0.26180002093315125,0,0.0,0.0,,,,,0,,3,0.0,
Raw,2259246,2238642000000,,,-1329526433789547664,0.6689682006835938,47.17143383459188,2.084111139570965,11.51871679356085,85,24,0.0,207,16254366427452,12,32.5,226.9960174560547,0.232900008559227,0,0.0,0.0,,,,,0,,3,0.0,
Raw,2259246,2238642000000,,,-1329526433789547664,0.6689682006835938,47.17143383459188,2.084111139570965,11.51871679356085,85,23,0.0,207,16254358404287,10,34.8,634.9989624023438,0.24910001456737518,0,0.0,0.0,,,,,0,,3,0.0,
Raw,2259247,2238642000000,,,-1329526433789547664,0.6689682006835938,47.17143383459188,2.084111139570965,11.51871679356085,85,17,0.0,207,16254362343507,24,25.1,-406.1011047363281,0.5848000049591064,0,0.0,0.0,,,,,0,,3,0.0,
Raw,2259247,2238642000000,,,-1329526433789547664,0.6689682006835938,47.17143383459188,2.084111139570965,11.51871679356085,85,2,0.0,15,178272362401625,16,29.8,50.46626281738281,0.02970000170171261,0,0.0,0.0,,,,,0,,1,0.0,
Raw,2259247,2238642000000,,,-1329526433789547664,0.6689682006835938,47.17143383459188,2.084111139570965,11.51871679356085,85,6,0.0,15,178272357961839,13,31.2,510.970703125,0.050700001418590546,0,0.0,0.0,,,,,0,,1,0.0,
Raw,2259247,2238642000000,,,-1329526433789547664,0.6689682006835938,47.17143383459188,2.084111139570965,11.51871679356085,85,12,0.0,15,178272363831327,7,37.6,-180.3480224609375,0.025100000202655792,0,0.0,0.0,,,,,0,,1,0.0,
Raw,2259247,2238642000000,,,-1329526433789547664,0.6689682006835938,47.17143383459188,2.084111139570965,11.51871679356085,85,19,0.0,15,178272352401879,31,23.9,538.978271484375,0.6345000267028809,0,0.0,0.0,,,,,0,,1,0.0,
Raw,2259247,2238642000000,,,-1329526433789547664,0.6689682006835938,47.17143383459188,2.084111139570965,11.51871679356085,85,20,0.0,15,178272355192241,27,24.6,-531.0715942382812,0.5989999771118164,0,0.0,0.0,,,,,0,,1,0.0,
Raw,2259247,2238642000000,,,-1329526433789547664,0.6689682006835938,47.17143383459188,2.084111139570965,11.51871679356085,85,24,0.0,15,178272356307407,21,26.0,538.4956665039062,0.13520000874996185,0,0.0,0.0,,,,,0,,1,0.0,
Raw,2259247,2238642000000,,,-1329526433789547664,0.6689682006835938,47.17143383459188,2.084111139570965,11.51871679356085,85,25,0.0,15,178272357573707,11,33.5,-542.4663696289062,0.04840000346302986,0,0.0,0.0,,,,,0,,1,0.0,
NMEA,$GPGSV,3,2,11,19,16,064,24,20,27,142,25,24,35,215,26,25,32,312,34,1*6A
,1645493455003
NMEA,$GPGSV,3,3,11,05,09,163,,17,00,000,,29,16,267,,1*55
,1645493455003
NMEA,$GLGSV,2,1,07,78,81,264,26,77,33,157,16,79,29,326,29,88,66,350,33,1*75
,1645493455004
NMEA,$GLGSV,2,2,07,87,28,033,35,81,40,247,25,71,00,000,,1*41
,1645493455004
NMEA,$GAGSV,1,1,0,7*43
,1645493455004
NMEA,$PQGSV,1,1,0,0*43
,1645493455004
NMEA,$GBGSV,1,1,0,0*47
,1645493455004
Fix,gps,37.426004,-122.168884,0.943817,0.000000,3.216000,1645493455000
NMEA,$GNGSA,A,3,02,06,12,19,20,24,25,,,,,,1.1,0.8,0.8,1*3D
,1645493455010
NMEA,$GNGSA,A,3,77,78,79,81,87,88,,,,,,,1.1,0.8,0.8,2*35
,1645493455010
NMEA,$GNVTG,,T,,M,0.0,N,0.0,K,A*3D
,1645493455010
NMEA,$GNGGA,013055.00,3725.560220,N,12210.133066,W,1,12,0.8,28.9,M,-27.9,M,,*7A
,1645493455010
NMEA,$GNRMC,013055.00,A,3725.560220,N,12210.133066,W,0.0,,220222,15.0,E,A,V*58
,1645493455011
NMEA,$AIDSTAT,0,0,0,2,-2,23,3*00
,1645493455933
NMEA,$GPGSV,3,1,11,02,83,127,33,06,39,045,34,11,00,000,33,12,71,333,41,1*62
,1645493456003
NMEA,$GPGSV,3,2,11,19,16,064,17,20,27,142,25,24,35,215,24,25,32,312,34,1*68
,1645493456003
Raw,2260253,2239642000000,,,-1329526433789547657,0.4042930603027344,50.451402785256505,2.0964924371976807,14.042083066652543,85,14,0.0,207,16255367619916,12,32.4,-3.6552882194519043,0.23440000414848328,0,0.0,0.0,,,,,0,,3,0.0,
Raw,2260253,2239642000000,,,-1329526433789547657,0.4042930603027344,50.451402785256505,2.0964924371976807,14.042083066652543,85,13,0.0,207,16255359724474,110,14.2,710.4943237304688,2.4250001907348633,0,0.0,0.0,,,,,0,,3,0.0,
Raw,2260253,2239642000000,,,-1329526433789547657,0.4042930603027344,50.451402785256505,2.0964924371976807,14.042083066652543,85,15,0.0,207,16255359315448,14,30.7,-666.2803344726562,0.6450000405311584,0,0.0,0.0,,,,,0,,3,0.0,
Raw,2260253,2239642000000,,,-1329526433789547657,0.4042930603027344,50.451402785256505,2.0964924371976807,14.042083066652543,85,24,0.0,207,16255366426722,8,36.7,226.831298828125,0.23020000755786896,0,0.0,0.0,,,,,0,,3,0.0,
Raw,2260254,2239642000000,,,-1329526433789547657,0.4042930603027344,50.451402785256505,2.0964924371976807,14.042083066652543,85,23,0.0,207,16255358402171,6,39.3,634.8377685546875,0.24660000205039978,0,0.0,0.0,,,,,0,,3,0.0,
Raw,2260254,2239642000000,,,-1329526433789547657,0.4042930603027344,50.451402785256505,2.0964924371976807,14.042083066652543,85,17,0.0,207,16255362344975,40,21.3,-406.03961181640625,1.0494999885559082,0,0.0,0.0,,,,,0,,3,0.0,
Raw,2260254,2239642000000,,,-1329526433789547657,0.4042930603027344,50.451402785256505,2.0964924371976807,14.042083066652543,85,2,0.0,15,178273362401426,12,32.9,50.3874626159668,0.026900000870227814,0,0.0,0.0,,,,,0,,1,0.0,
Raw,2260254,2239642000000,,,-1329526433789547657,0.4042930603027344,50.451402785256505,2.0964924371976807,14.042083066652543,85,6,0.0,15,178273357960152,11,33.7,510.83428955078125,0.04840000346302986,0,0.0,0.0,,,,,0,,1,0.0,
Raw,2260255,2239642000000,,,-1329526433789547657,0.4042930603027344,50.451402785256505,2.0964924371976807,14.042083066652543,85,12,0.0,15,178273363831914,5,41.3,-180.4775390625,0.023600000888109207,0,0.0,0.0,,,,,0,,1,0.0,
Raw,2260255,2239642000000,,,-1329526433789547657,0.4042930603027344,50.451402785256505,2.0964924371976807,14.042083066652543,85,19,0.0,15,178273352400154,70,17.2,538.4169311523438,1.0145000219345093,0,0.0,0.0,,,,,0,,1,0.0,
Raw,2260255,2239642000000,,,-1329526433789547657,0.4042930603027344,50.451402785256505,2.0964924371976807,14.042083066652543,85,20,0.0,15,178273355193945,24,25.2,-530.7420654296875,0.4043000042438507,0,0.0,0.0,,,,,0,,1,0.0,
Raw,2260255,2239642000000,,,-1329526433789547657,0.4042930603027344,50.451402785256505,2.0964924371976807,14.042083066652543,85,24,0.0,15,178273356305616,27,24.1,537.7794189453125,0.6004999876022339,0,0.0,0.0,,,,,0,,1,0.0,
Raw,2260255,2239642000000,,,-1329526433789547657,0.4042930603027344,50.451402785256505,2.0964924371976807,14.042083066652543,85,25,0.0,15,178273357575545,11,33.8,-542.7542114257812,0.04840000346302986,0,0.0,0.0,,,,,0,,1,0.0,
NMEA,$GPGSV,3,3,11,05,09,163,,17,00,000,,29,16,267,,1*55
,1645493456003
NMEA,$GLGSV,2,1,07,78,81,264,32,77,33,157,14,79,29,326,31,88,66,350,37,1*7F
,1645493456003
NMEA,$GLGSV,2,2,07,87,28,033,39,81,40,247,21,71,00,000,,1*49
,1645493456004
NMEA,$GAGSV,1,1,0,7*43
,1645493456005
NMEA,$PQGSV,1,1,0,0*43
,1645493456005
NMEA,$GBGSV,1,1,0,0*47
,1645493456010
Fix,gps,37.426004,-122.168885,0.763947,0.000000,3.216000,1645493456000
NMEA,$GNGSA,A,3,02,06,12,19,20,24,25,,,,,,1.1,0.8,0.8,1*3D
,1645493456018
NMEA,$GNGSA,A,3,77,78,79,81,87,88,,,,,,,1.1,0.8,0.8,2*35
,1645493456018
NMEA,$GNVTG,,T,,M,0.0,N,0.0,K,A*3D
,1645493456018
NMEA,$GNGGA,013056.00,3725.560231,N,12210.133073,W,1,12,0.8,28.7,M,-27.9,M,,*73
,1645493456019
NMEA,$GNRMC,013056.00,A,3725.560231,N,12210.133073,W,0.0,,220222,15.0,E,A,V*5F
,1645493456019
NMEA,$AIDSTAT,0,0,0,2,-1,23,3*00
,1645493456932
NMEA,$GPGSV,3,1,11,02,83,127,32,06,39,045,34,11,00,000,37,12,71,333,40,1*66
,1645493457002
Raw,2261243,2240642000000,,,-1329526433789547656,0.05994415283203125,46.69475674745627,1.4901486363457261,14.488725942364452,85,14,0.0,207,16256367619935,16,29.8,-3.7423672676086426,0.23719999194145203,0,0.0,0.0,,,,,0,,3,0.0,
Raw,2261244,2240642000000,,,-1329526433789547656,0.05994415283203125,46.69475674745627,1.4901486363457261,14.488725942364452,85,13,0.0,207,16256359722104,126,14.2,710.4943237304688,3.9250001907348633,0,0.0,0.0,,,,,0,,3,0.0,
Raw,2261244,2240642000000,,,-1329526433789547656,0.05994415283203125,46.69475674745627,1.4901486363457261,14.488725942364452,85,15,0.0,207,16256359317678,16,29.8,-666.9113159179688,0.25519999861717224,0,0.0,0.0,,,,,0,,3,0.0,
Raw,2261244,2240642000000,,,-1329526433789547656,0.05994415283203125,46.69475674745627,1.4901486363457261,14.488725942364452,85,24,0.0,207,16256366425974,8,36.0,226.7100067138672,0.23020000755786896,0,0.0,0.0,,,,,0,,3,0.0,
Raw,2261244,2240642000000,,,-1329526433789547656,0.05994415283203125,46.69475674745627,1.4901486363457261,14.488725942364452,85,23,0.0,207,16256358400042,6,38.4,634.5526123046875,0.24710001051425934,0,0.0,0.0,,,,,0,,3,0.0,
Raw,2261244,2240642000000,,,-1329526433789547656,0.05994415283203125,46.69475674745627,1.4901486363457261,14.488725942364452,85,17,0.0,207,16256362346177,35,22.5,-407.0019836425781,0.9894999861717224,0,0.0,0.0,,,,,0,,3,0.0,
Raw,2261245,2240642000000,,,-1329526433789547656,0.05994415283203125,46.69475674745627,1.4901486363457261,14.488725942364452,85,2,0.0,15,178274362401281,12,32.2,50.32202911376953,0.026900000870227814,0,0.0,0.0,,,,,0,,1,0.0,
Raw,2261245,2240642000000,,,-1329526433789547656,0.05994415283203125,46.69475674745627,1.4901486363457261,14.488725942364452,85,6,0.0,15,178274357958456,10,34.1,510.5220031738281,0.047600001096725464,0,0.0,0.0,,,,,0,,1,0.0,
Raw,2261245,2240642000000,,,-1329526433789547656,0.05994415283203125,46.69475674745627,1.4901486363457261,14.488725942364452,85,12,0.0,15,178274363832513,6,39.6,-180.6092987060547,0.02410000190138817,0,0.0,0.0,,,,,0,,1,0.0,
Raw,2261245,2240642000000,,,-1329526433789547656,0.05994415283203125,46.69475674745627,1.4901486363457261,14.488725942364452,85,19,0.0,15,178274352398342,46,20.9,538.0458374023438,0.8044999837875366,0,0.0,0.0,,,,,0,,1,0.0,
Raw,2261245,2240642000000,,,-1329526433789547656,0.05994415283203125,46.69475674745627,1.4901486363457261,14.488725942364452,85,20,0.0,15,178274355195697,27,24.2,-531.3379516601562,0.5989999771118164,0,0.0,0.0,,,,,0,,1,0.0,
Raw,2261246,2240642000000,,,-1329526433789547656,0.05994415283203125,46.69475674745627,1.4901486363457261,14.488725942364452,85,24,0.0,15,178274356303814,35,22.9,537.979248046875,0.6904999613761902,0,0.0,0.0,,,,,0,,1,0.0,
Raw,2261246,2240642000000,,,-1329526433789547656,0.05994415283203125,46.69475674745627,1.4901486363457261,14.488725942364452,85,25,0.0,15,178274357577341,8,36.0,-542.923828125,0.04670000076293945,0,0.0,0.0,,,,,0,,1,0.0,
NMEA,$GPGSV,3,2,11,19,16,064,21,20,27,142,24,24,35,215,23,25,32,312,36,1*69
,1645493457003
NMEA,$GPGSV,3,3,11,05,09,163,,17,00,000,,29,16,267,,1*55
,1645493457003
NMEA,$GLGSV,2,1,07,78,81,264,30,77,33,157,14,79,29,326,30,88,66,350,36,1*7D
,1645493457003
NMEA,$GLGSV,2,2,07,87,28,033,38,81,40,247,23,71,00,000,,1*4A
,1645493457003
NMEA,$GAGSV,1,1,0,7*43
,1645493457003
NMEA,$PQGSV,1,1,0,0*43
,1645493457004
NMEA,$GBGSV,1,1,0,0*47
,1645493457004
Fix,gps,37.426004,-122.168884,0.732666,0.000000,3.216000,1645493457000
NMEA,$GNGSA,A,3,02,06,12,19,20,24,25,,,,,,1.1,0.8,0.8,1*3D
,1645493457010
NMEA,$GNGSA,A,3,77,78,79,81,87,88,,,,,,,1.1,0.8,0.8,2*35
,1645493457011
NMEA,$GNVTG,,T,,M,0.0,N,0.0,K,A*3D
,1645493457011
NMEA,$GNGGA,013057.00,3725.560232,N,12210.133060,W,1,12,0.8,28.7,M,-27.9,M,,*73
,1645493457011
NMEA,$GNRMC,013057.00,A,3725.560232,N,12210.133060,W,0.0,,220222,15.0,E,A,V*5F
,1645493457011
NMEA,$AIDSTAT,0,0,0,2,0,23,3*00
,1645493457932
Raw,2262231,2241642000000,,,-1329526433789547655,0.46065330505371094,45.437383960234,0.8874873738668009,14.703082202576704,85,14,0.0,207,16257367619926,21,26.8,-3.5924911499023438,0.7870000004768372,0,0.0,0.0,,,,,0,,3,0.0,
Raw,2262232,2241642000000,,,-1329526433789547655,0.46065330505371094,45.437383960234,0.8874873738668009,14.703082202576704,85,13,0.0,207,16257359719687,73,17.1,710.3070068359375,2.115000009536743,0,0.0,0.0,,,,,0,,3,0.0,
Raw,2262232,2241642000000,,,-1329526433789547655,0.46065330505371094,45.437383960234,0.8874873738668009,14.703082202576704,85,15,0.0,207,16257359319916,10,34.9,-666.6328735351562,0.25060001015663147,0,0.0,0.0,,,,,0,,3,0.0,
Raw,2262232,2241642000000,,,-1329526433789547655,0.46065330505371094,45.437383960234,0.8874873738668009,14.703082202576704,85,24,0.0,207,16257366425210,9,35.3,226.8021240234375,0.2305999994277954,0,0.0,0.0,,,,,0,,3,0.0,
Raw,2262232,2241642000000,,,-1329526433789547655,0.46065330505371094,45.437383960234,0.8874873738668009,14.703082202576704,85,23,0.0,207,16257358397921,10,34.5,634.6499633789062,0.24910001456737518,0,0.0,0.0,,,,,0,,3,0.0,
Raw,2262233,2241642000000,,,-1329526433789547655,0.46065330505371094,45.437383960234,0.8874873738668009,14.703082202576704,85,17,0.0,207,16257362347578,17,28.0,-406.1979675292969,0.2363000065088272,0,0.0,0.0,,,,,0,,3,0.0,
Raw,2262233,2241642000000,,,-1329526433789547655,0.46065330505371094,45.437383960234,0.8874873738668009,14.703082202576704,85,2,0.0,15,178275362401122,12,32.1,50.30390167236328,0.026900000870227814,0,0.0,0.0,,,,,0,,1,0.0,
Raw,2262233,2241642000000,,,-1329526433789547655,0.46065330505371094,45.437383960234,0.8874873738668009,14.703082202576704,85,6,0.0,15,178275357956776,12,32.1,510.8288269042969,0.049400001764297485,0,0.0,0.0,,,,,0,,1,0.0,
Raw,2262233,2241642000000,,,-1329526433789547655,0.46065330505371094,45.437383960234,0.8874873738668009,14.703082202576704,85,12,0.0,15,178275363833134,8,36.6,-180.51901245117188,0.025700001046061516,0,0.0,0.0,,,,,0,,1,0.0,
Raw,2262234,2241642000000,,,-1329526433789547655,0.46065330505371094,45.437383960234,0.8874873738668009,14.703082202576704,85,19,0.0,15,178275352396554,35,22.3,538.2266235351562,0.684499979019165,0,0.0,0.0,,,,,0,,1,0.0,
Raw,2262237,2241642000000,,,-1329526433789547655,0.46065330505371094,45.437383960234,0.8874873738668009,14.703082202576704,85,20,0.0,15,178275355197528,53,19.0,-530.0916137695312,0.8689999580383301,0,0.0,0.0,,,,,0,,1,0.0,
Raw,2262237,2241642000000,,,-1329526433789547655,0.46065330505371094,45.437383960234,0.8874873738668009,14.703082202576704,85,24,0.0,15,178275356301976,46,20.0,537.5415649414062,0.8104999661445618,0,0.0,0.0,,,,,0,,1,0.0,
Raw,2262238,2241642000000,,,-1329526433789547655,0.46065330505371094,45.437383960234,0.8874873738668009,14.703082202576704,85,25,0.0,15,178275357579163,9,35.3,-542.8999633789062,0.0471000038087368,0,0.0,0.0,,,,,0,,1,0.0,
Fix,gps,37.426004,-122.168884,0.716034,0.000000,3.216000,1645493458000
NMEA,$GPGSV,3,1,11,02,83,127,32,06,39,045,32,11,00,000,36,12,71,333,37,1*61
,1645493458012
NMEA,$GPGSV,3,2,11,19,16,064,22,20,27,142,19,24,35,215,20,25,32,312,35,1*64
,1645493458012
NMEA,$GPGSV,3,3,11,05,09,163,,17,00,000,,29,16,267,,1*55
,1645493458012
NMEA,$GLGSV,2,1,07,78,81,264,27,77,33,157,17,79,29,326,35,88,66,350,35,1*7E
,1645493458014
NMEA,$GLGSV,2,2,07,87,28,033,35,81,40,247,28,71,00,000,,1*4C
,1645493458014
NMEA,$GAGSV,1,1,0,7*43
,1645493458014
NMEA,$PQGSV,1,1,0,0*43
,1645493458014
NMEA,$GBGSV,1,1,0,0*47
,1645493458014
NMEA,$GNGSA,A,3,02,06,12,19,20,24,25,,,,,,1.1,0.8,0.8,1*3D
,1645493458017
NMEA,$GNGSA,A,3,77,78,79,81,87,88,,,,,,,1.1,0.8,0.8,2*35
,1645493458018
NMEA,$GNVTG,,T,,M,0.0,N,0.0,K,A*3D
,1645493458019
NMEA,$GNGGA,013058.00,3725.560229,N,12210.133054,W,1,12,0.8,28.7,M,-27.9,M,,*71
,1645493458019
NMEA,$GNRMC,013058.00,A,3725.560229,N,12210.133054,W,0.0,,220222,15.0,E,A,V*5D
,1645493458019
