# 
# Header Description:
# 
# Version: v2.0.0.1 Platform: 9 Manufacturer: samsung Model: SM-G960U
# 
# Raw,ElapsedRealtimeMillis,TimeNanos,LeapSecond,TimeUncertaintyNanos,FullBiasNanos,BiasNanos,BiasUncertaintyNanos,DriftNanosPerSecond,DriftUncertaintyNanosPerSecond,HardwareClockDiscontinuityCount,Svid,TimeOffsetNanos,State,ReceivedSvTimeNanos,ReceivedSvTimeUncertaintyNanos,Cn0DbHz,PseudorangeRateMetersPerSecond,PseudorangeRateUncertaintyMetersPerSecond,AccumulatedDeltaRangeState,AccumulatedDeltaRangeMeters,AccumulatedDeltaRangeUncertaintyMeters,CarrierFrequencyHz,CarrierCycles,CarrierPhase,CarrierPhaseUncertainty,MultipathIndicator,SnrInDb,ConstellationType,AgcDb,CarrierFrequencyHz
# 
# Fix,Provider,Latitude,Longitude,Altitude,Speed,Accuracy,(UTC)TimeInMs
# 
# Nav,Svid,Type,Status,MessageId,Sub-messageId,Data(Bytes)
# 
NMEA,$AIDSTAT,0,0,0,2,11,23,3*00
,1645493635935
NMEA,$GPGSV,3,1,11,02,83,112,31,06,37,045,38,11,00,000,34,12,73,334,32,1*62
,1645493636003
NMEA,$GPGSV,3,2,11,20,28,140,20,24,33,213,27,25,33,312,35,05,10,163,,1*68
,1645493636005
NMEA,$GPGSV,3,3,11,17,00,000,,19,16,066,,29,17,268,,1*5C
,1645493636005
NMEA,$GLGSV,2,1,07,78,81,255,31,77,30,157,21,79,31,326,39,88,66,352,33,1*7C
,1645493636005
Raw,2440264,2419642000000,,,-1329526433789547068,0.44719505310058594,62.46475095394999,0.0454300515637748,17.82938669398112,85,14,0.0,207,16435367613119,13,31.4,23.35780143737793,0.23569999635219574,0,0.0,0.0,,,,,0,,3,0.0,
Raw,2440264,2419642000000,,,-1329526433789547068,0.44719505310058594,62.46475095394999,0.0454300515637748,17.82938669398112,85,13,0.0,207,16435359293330,40,21.3,722.0206298828125,1.0449999570846558,0,0.0,0.0,,,,,0,,3,0.0,
Raw,2440264,2419642000000,,,-1329526433789547068,0.44719505310058594,62.46475095394999,0.0454300515637748,17.82938669398112,85,15,0.0,207,16435359711578,6,39.3,-655.0880126953125,0.24809999763965607,0,0.0,0.0,,,,,0,,3,0.0,
Raw,2440264,2419642000000,,,-1329526433789547068,0.44719505310058594,62.46475095394999,0.0454300515637748,17.82938669398112,85,24,0.0,207,16435366285431,11,33.2,241.40103149414062,0.23190000653266907,0,0.0,0.0,,,,,0,,3,0.0,
Raw,2440264,2419642000000,,,-1329526433789547068,0.44719505310058594,62.46475095394999,0.0454300515637748,17.82938669398112,85,23,0.0,207,16435358020264,13,31.3,635.6896362304688,0.25220000743865967,0,0.0,0.0,,,,,0,,3,0.0,
Raw,2440264,2419642000000,,,-1329526433789547068,0.44719505310058594,62.46475095394999,0.0454300515637748,17.82938669398112,85,17,0.0,207,16435362583192,12,32.7,-391.5923767089844,0.22690001130104065,0,0.0,0.0,,,,,0,,3,0.0,
Raw,2440264,2419642000000,,,-1329526433789547068,0.44719505310058594,62.46475095394999,0.0454300515637748,17.82938669398112,85,2,0.0,15,178453362365532,14,30.9,66.37799835205078,0.028800001367926598,0,0.0,0.0,,,,,0,,1,0.0,
Raw,2440264,2419642000000,,,-1329526433789547068,0.44719505310058594,62.46475095394999,0.0454300515637748,17.82938669398112,85,6,0.0,15,178453357649896,7,37.9,520.7802734375,0.04610000178217888,0,0.0,0.0,,,,,0,,1,0.0,
Raw,2440265,2419642000000,,,-1329526433789547068,0.44719505310058594,62.46475095394999,0.0454300515637748,17.82938669398112,85,12,0.0,15,178453363935270,13,31.8,-166.278564453125,0.02970000170171261,0,0.0,0.0,,,,,0,,1,0.0,
Raw,2440265,2419642000000,,,-1329526433789547068,0.44719505310058594,62.46475095394999,0.0454300515637748,17.82938669398112,85,20,0.0,15,178453355509658,46,20.4,-524.5635375976562,0.8089999556541443,0,0.0,0.0,,,,,0,,1,0.0,
Raw,2440265,2419642000000,,,-1329526433789547068,0.44719505310058594,62.46475095394999,0.0454300515637748,17.82938669398112,85,24,0.0,15,178453355978884,21,26.8,545.8815307617188,0.13369999825954437,0,0.0,0.0,,,,,0,,1,0.0,
Raw,2440265,2419642000000,,,-1329526433789547068,0.44719505310058594,62.46475095394999,0.0454300515637748,17.82938669398112,85,25,0.0,15,178453357898767,9,35.3,-536.4718017578125,0.0471000038087368,0,0.0,0.0,,,,,0,,1,0.0,
NMEA,$GLGSV,2,2,07,87,26,033,31,81,41,250,33,71,00,000,,1*4B
,1645493636005
NMEA,$GAGSV,1,1,0,7*43
,1645493636005
NMEA,$PQGSV,1,1,0,0*43
,1645493636005
NMEA,$GBGSV,1,1,0,0*47
,1645493636006
Fix,gps,37.427056,-122.168130,-2.567444,0.000000,4.288000,1645493636000
NMEA,$GNGSA,A,3,02,06,12,20,24,25,,,,,,,1.2,0.9,0.8,1*37
,1645493636011
NMEA,$GNGSA,A,3,77,78,79,81,87,88,,,,,,,1.2,0.9,0.8,2*37
,1645493636011
NMEA,$GNVTG,,T,,M,0.0,N,0.0,K,A*3D
,1645493636011
NMEA,$GNGGA,013356.00,3725.623382,N,12210.087784,W,1,12,0.9,25.4,M,-27.9,M,,*73
,1645493636012
NMEA,$GNRMC,013356.00,A,3725.623382,N,12210.087784,W,0.0,,220222,15.0,E,A,V*50
,1645493636012
NMEA,$AIDSTAT,0,0,0,2,,23,3*00
,1645493636937
NMEA,$GPGSV,3,1,11,02,83,112,35,06,37,045,34,11,00,000,35,12,73,334,34,1*6D
,1645493637003
Raw,2441253,2420642000000,,,-1329526433789547078,0.046184539794921875,59.296598919900134,-5.354318542046618,12.155799510849418,85,14,0.0,207,16436367613004,16,29.7,24.16471290588379,0.23719999194145203,0,0.0,0.0,,,,,0,,3,0.0,
Raw,2441253,2420642000000,,,-1329526433789547078,0.046184539794921875,59.296598919900134,-5.354318542046618,12.155799510849418,85,13,0.0,207,16436359291224,80,16.5,722.9944458007812,1.4550000429153442,0,0.0,0.0,,,,,0,,3,0.0,
Raw,2441253,2420642000000,,,-1329526433789547078,0.046184539794921875,59.296598919900134,-5.354318542046618,12.155799510849418,85,15,0.0,207,16436359713781,7,37.2,-654.3229370117188,0.249099999666214,0,0.0,0.0,,,,,0,,3,0.0,
Raw,2441254,2420642000000,,,-1329526433789547078,0.046184539794921875,59.296598919900134,-5.354318542046618,12.155799510849418,85,24,0.0,207,16436366284611,10,34.5,242.16995239257812,0.23110000789165497,0,0.0,0.0,,,,,0,,3,0.0,
Raw,2441254,2420642000000,,,-1329526433789547078,0.046184539794921875,59.296598919900134,-5.354318542046618,12.155799510849418,85,23,0.0,207,16436358018120,7,37.3,636.4220581054688,0.2476000040769577,0,0.0,0.0,,,,,0,,3,0.0,
Raw,2441254,2420642000000,,,-1329526433789547078,0.046184539794921875,59.296598919900134,-5.354318542046618,12.155799510849418,85,17,0.0,207,16436362584540,19,27.2,-390.7059326171875,0.2443000078201294,0,0.0,0.0,,,,,0,,3,0.0,
Raw,2441254,2420642000000,,,-1329526433789547078,0.046184539794921875,59.296598919900134,-5.354318542046618,12.155799510849418,85,2,0.0,15,178454362365305,9,35.3,67.19233703613281,0.02460000105202198,0,0.0,0.0,,,,,0,,1,0.0,
Raw,2441254,2420642000000,,,-1329526433789547078,0.046184539794921875,59.296598919900134,-5.354318542046618,12.155799510849418,85,6,0.0,15,178454357648141,10,34.4,521.6295776367188,0.047600001096725464,0,0.0,0.0,,,,,0,,1,0.0,
Raw,2441255,2420642000000,,,-1329526433789547078,0.046184539794921875,59.296598919900134,-5.354318542046618,12.155799510849418,85,12,0.0,15,178454363935821,11,33.9,-165.56849670410156,0.027400000020861626,0,0.0,0.0,,,,,0,,1,0.0,
Raw,2441255,2420642000000,,,-1329526433789547078,0.046184539794921875,59.296598919900134,-5.354318542046618,12.155799510849418,85,20,0.0,15,178454355511408,54,20.4,-524.5635375976562,2.309000015258789,0,0.0,0.0,,,,,0,,1,0.0,
Raw,2441255,2420642000000,,,-1329526433789547078,0.046184539794921875,59.296598919900134,-5.354318542046618,12.155799510849418,85,24,0.0,15,178454355977011,21,26.7,546.7470092773438,0.13369999825954437,0,0.0,0.0,,,,,0,,1,0.0,
Raw,2441255,2420642000000,,,-1329526433789547078,0.046184539794921875,59.296598919900134,-5.354318542046618,12.155799510849418,85,25,0.0,15,178454357900575,7,37.2,-535.7681274414062,0.04610000178217888,0,0.0,0.0,,,,,0,,1,0.0,
NMEA,$GPGSV,3,2,11,20,28,140,20,24,33,213,27,25,33,312,37,05,10,163,,1*6A
,1645493637003
NMEA,$GPGSV,3,3,11,17,00,000,,19,16,066,,29,17,268,,1*5C
,1645493637003
NMEA,$GLGSV,2,1,07,78,81,255,30,77,30,157,17,79,31,326,37,88,66,352,35,1*70
,1645493637004
NMEA,$GLGSV,2,2,07,87,26,033,37,81,41,250,27,71,00,000,,1*48
,1645493637004
NMEA,$GAGSV,1,1,0,7*43
,1645493637004
NMEA,$PQGSV,1,1,0,0*43
,1645493637004
NMEA,$GBGSV,1,1,0,0*47
,1645493637004
Fix,gps,37.427057,-122.168131,-2.942047,0.000000,4.288000,1645493637000
NMEA,$GNGSA,A,3,02,06,12,20,24,25,,,,,,,1.2,0.9,0.8,1*37
,1645493637015
NMEA,$GNGSA,A,3,77,78,79,81,87,88,,,,,,,1.2,0.9,0.8,2*37
,1645493637015
NMEA,$GNVTG,,T,,M,0.0,N,0.0,K,A*3D
,1645493637015
NMEA,$GNGGA,013357.00,3725.623425,N,12210.087830,W,1,12,0.9,25.0,M,-27.9,M,,*7C
,1645493637015
NMEA,$GNRMC,013357.00,A,3725.623425,N,12210.087830,W,0.0,,220222,15.0,E,A,V*5B
,1645493637016
NMEA,$AIDSTAT,0,0,0,2,,23,3*00
,1645493637930
NMEA,$GPGSV,3,1,11,02,83,112,36,06,37,045,37,11,00,000,34,12,73,334,36,1*6E
,1645493638002
NMEA,$GPGSV,3,2,11,20,28,140,20,24,33,213,24,25,33,312,36,05,10,163,,1*68
,1645493638002
Raw,2442260,2421642000000,,,-1329526433789547074,0.09930038452148438,54.43889313028194,-2.12992973452182,11.53396467353625,85,14,0.0,207,16437367612931,16,29.3,24.904495239257812,0.23719999194145203,0,0.0,0.0,,,,,0,,3,0.0,
Raw,2442261,2421642000000,,,-1329526433789547074,0.09930038452148438,54.43889313028194,-2.12992973452182,11.53396467353625,85,13,0.0,207,16437359288812,90,16.5,722.9944458007812,2.955000162124634,0,0.0,0.0,,,,,0,,3,0.0,
Raw,2442261,2421642000000,,,-1329526433789547074,0.09930038452148438,54.43889313028194,-2.12992973452182,11.53396467353625,85,15,0.0,207,16437359715954,7,37.1,-653.6508178710938,0.249099999666214,0,0.0,0.0,,,,,0,,3,0.0,
Raw,2442261,2421642000000,,,-1329526433789547074,0.09930038452148438,54.43889313028194,-2.12992973452182,11.53396467353625,85,24,0.0,207,16437366283841,14,30.2,242.91653442382812,0.23479999601840973,0,0.0,0.0,,,,,0,,3,0.0,
Raw,2442261,2421642000000,,,-1329526433789547074,0.09930038452148438,54.43889313028194,-2.12992973452182,11.53396467353625,85,23,0.0,207,16437358016001,7,37.3,637.0765991210938,0.2476000040769577,0,0.0,0.0,,,,,0,,3,0.0,
Raw,2442261,2421642000000,,,-1329526433789547074,0.09930038452148438,54.43889313028194,-2.12992973452182,11.53396467353625,85,17,0.0,207,16437362585910,17,28.9,-389.95550537109375,0.2363000065088272,0,0.0,0.0,,,,,0,,3,0.0,
Raw,2442261,2421642000000,,,-1329526433789547074,0.09930038452148438,54.43889313028194,-2.12992973452182,11.53396467353625,85,2,0.0,15,178455362365052,8,36.0,67.86676788330078,0.02420000173151493,0,0.0,0.0,,,,,0,,1,0.0,
Raw,2442261,2421642000000,,,-1329526433789547074,0.09930038452148438,54.43889313028194,-2.12992973452182,11.53396467353625,85,6,0.0,15,178455357646400,8,36.7,522.3095092773438,0.04670000076293945,0,0.0,0.0,,,,,0,,1,0.0,
Raw,2442261,2421642000000,,,-1329526433789547074,0.09930038452148438,54.43889313028194,-2.12992973452182,11.53396467353625,85,12,0.0,15,178455363936366,9,35.9,-164.87925720214844,0.026100000366568565,0,0.0,0.0,,,,,0,,1,0.0,
Raw,2442262,2421642000000,,,-1329526433789547074,0.09930038452148438,54.43889313028194,-2.12992973452182,11.53396467353625,85,20,0.0,15,178455355513157,72,20.4,-524.5635375976562,3.809000015258789,0,0.0,0.0,,,,,0,,1,0.0,
Raw,2442262,2421642000000,,,-1329526433789547074,0.09930038452148438,54.43889313028194,-2.12992973452182,11.53396467353625,85,24,0.0,15,178455355975192,27,24.0,547.6937255859375,0.5989999771118164,0,0.0,0.0,,,,,0,,1,0.0,
Raw,2442262,2421642000000,,,-1329526433789547074,0.09930038452148438,54.43889313028194,-2.12992973452182,11.53396467353625,85,25,0.0,15,178455357902371,9,35.9,-535.1557006835938,0.0471000038087368,0,0.0,0.0,,,,,0,,1,0.0,
NMEA,$GPGSV,3,3,11,17,00,000,,19,16,066,,29,17,268,,1*5C
,1645493638002
NMEA,$GLGSV,2,1,07,78,81,255,29,77,30,157,17,79,31,326,37,88,66,352,30,1*7D
,1645493638003
NMEA,$GLGSV,2,2,07,87,26,033,37,81,41,250,29,71,00,000,,1*46
,1645493638003
NMEA,$GAGSV,1,1,0,7*43
,1645493638006
NMEA,$PQGSV,1,1,0,0*43
,1645493638006
NMEA,$GBGSV,1,1,0,0*47
,1645493638007
Fix,gps,37.427060,-122.168133,-2.924225,0.000000,4.288000,1645493638000
NMEA,$GNGSA,A,3,02,06,12,20,24,25,,,,,,,1.2,0.9,0.8,1*37
,1645493638014
NMEA,$GNGSA,A,3,77,78,79,81,87,88,,,,,,,1.2,0.9,0.8,2*37
,1645493638014
NMEA,$GNVTG,,T,,M,0.0,N,0.0,K,A*3D
,1645493638014
NMEA,$GNGGA,013358.00,3725.623572,N,12210.087968,W,1,12,0.9,25.0,M,-27.9,M,,*7C
,1645493638015
NMEA,$GNRMC,013358.00,A,3725.623572,N,12210.087968,W,0.0,,220222,15.0,E,A,V*5B
,1645493638015
NMEA,$AIDSTAT,0,0,0,2,,23,3*00
,1645493638933
NMEA,$GPGSV,3,1,11,02,83,112,35,06,37,045,35,11,00,000,36,12,73,334,37,1*6C
,1645493639004
NMEA,$GPGSV,3,2,11,20,28,140,20,24,33,213,21,25,33,312,39,05,10,163,,1*62
,1645493639005
Raw,2443264,2422642000000,,,-1329526433789547070,0.1822185516357422,53.893905715085566,-0.36460388050726517,11.557688634708011,85,14,0.0,207,16438367612843,17,28.7,25.74667739868164,0.24379999935626984,0,0.0,0.0,,,,,0,,3,0.0,
Raw,2443265,2422642000000,,,-1329526433789547070,0.1822185516357422,53.893905715085566,-0.36460388050726517,11.557688634708011,85,13,0.0,207,16438359286120,84,16.5,724.8952026367188,2.205000162124634,0,0.0,0.0,,,,,0,,3,0.0,
Raw,2443265,2422642000000,,,-1329526433789547070,0.1822185516357422,53.893905715085566,-0.36460388050726517,11.557688634708011,85,15,0.0,207,16438359718129,6,39.1,-652.8607788085938,0.24809999763965607,0,0.0,0.0,,,,,0,,3,0.0,
Raw,2443265,2422642000000,,,-1329526433789547070,0.1822185516357422,53.893905715085566,-0.36460388050726517,11.557688634708011,85,24,0.0,207,16438366282996,9,35.1,243.64793395996094,0.2305999994277954,0,0.0,0.0,,,,,0,,3,0.0,
Raw,2443265,2422642000000,,,-1329526433789547070,0.1822185516357422,53.893905715085566,-0.36460388050726517,11.557688634708011,85,23,0.0,207,16438358013866,8,36.6,637.7695922851562,0.24820001423358917,0,0.0,0.0,,,,,0,,3,0.0,
Raw,2443265,2422642000000,,,-1329526433789547070,0.1822185516357422,53.893905715085566,-0.36460388050726517,11.557688634708011,85,17,0.0,207,16438362587122,11,33.4,-389.2808532714844,0.22590000927448273,0,0.0,0.0,,,,,0,,3,0.0,
Raw,2443266,2422642000000,,,-1329526433789547070,0.1822185516357422,53.893905715085566,-0.36460388050726517,11.557688634708011,85,2,0.0,15,178456362364863,9,35.0,68.61736297607422,0.02460000105202198,0,0.0,0.0,,,,,0,,1,0.0,
Raw,2443266,2422642000000,,,-1329526433789547070,0.1822185516357422,53.893905715085566,-0.36460388050726517,11.557688634708011,85,6,0.0,15,178456357644639,10,34.8,523.1116943359375,0.047600001096725464,0,0.0,0.0,,,,,0,,1,0.0,
Raw,2443266,2422642000000,,,-1329526433789547070,0.1822185516357422,53.893905715085566,-0.36460388050726517,11.557688634708011,85,12,0.0,15,178456363936924,7,37.3,-164.1226043701172,0.025100000202655792,0,0.0,0.0,,,,,0,,1,0.0,
Raw,2443266,2422642000000,,,-1329526433789547070,0.1822185516357422,53.893905715085566,-0.36460388050726517,11.557688634708011,85,20,0.0,15,178456355514907,99,20.4,-524.5635375976562,5.309000015258789,0,0.0,0.0,,,,,0,,1,0.0,
Raw,2443267,2422642000000,,,-1329526433789547070,0.1822185516357422,53.893905715085566,-0.36460388050726517,11.557688634708011,85,24,0.0,15,178456355973400,40,21.1,548.7498168945312,0.7489999532699585,0,0.0,0.0,,,,,0,,1,0.0,
Raw,2443267,2422642000000,,,-1329526433789547070,0.1822185516357422,53.893905715085566,-0.36460388050726517,11.557688634708011,85,25,0.0,15,178456357904135,6,38.7,-534.40380859375,0.04560000076889992,0,0.0,0.0,,,,,0,,1,0.0,
NMEA,$GPGSV,3,3,11,17,00,000,,19,16,066,,29,17,268,,1*5C
,1645493639005
NMEA,$GLGSV,2,1,07,78,81,255,29,77,30,157,17,79,31,326,39,88,66,352,35,1*76
,1645493639005
NMEA,$GLGSV,2,2,07,87,26,033,37,81,41,250,33,71,00,000,,1*4D
,1645493639005
NMEA,$GAGSV,1,1,0,7*43
,1645493639006
NMEA,$PQGSV,1,1,0,0*43
,1645493639006
NMEA,$GBGSV,1,1,0,0*47
,1645493639006
Fix,gps,37.427062,-122.168134,-2.412018,0.000000,4.288000,1645493639000
NMEA,$GNGSA,A,3,02,06,12,20,24,25,,,,,,,1.2,0.9,0.8,1*37
,1645493639011
NMEA,$GNGSA,A,3,77,78,79,81,87,88,,,,,,,1.2,0.9,0.8,2*37
,1645493639012
NMEA,$GNVTG,,T,,M,0.0,N,0.0,K,A*3D
,1645493639012
NMEA,$GNGGA,013359.00,3725.623697,N,12210.088042,W,1,12,0.9,25.5,M,-27.9,M,,*7E
,1645493639012
NMEA,$GNRMC,013359.00,A,3725.623697,N,12210.088042,W,0.0,,220222,15.0,E,A,V*5C
,1645493639013
NMEA,$AIDSTAT,0,0,0,2,,23,3*00
,1645493639930
Fix,gps,37.427063,-122.168133,-1.748230,0.000000,4.288000,1645493640000
Raw,2444252,2423642000000,,,-1329526433789547062,0.13943862915039062,52.59348836261779,2.3102981656771333,11.12144880066711,85,14,0.0,207,16439367612731,31,23.3,26.029146194458008,0.9369999766349792,0,0.0,0.0,,,,,0,,3,0.0,
Raw,2444252,2423642000000,,,-1329526433789547062,0.13943862915039062,52.59348836261779,2.3102981656771333,11.12144880066711,85,13,0.0,207,16439359283859,80,16.6,725.588134765625,1.4550000429153442,0,0.0,0.0,,,,,0,,3,0.0,
Raw,2444253,2423642000000,,,-1329526433789547062,0.13943862915039062,52.59348836261779,2.3102981656771333,11.12144880066711,85,15,0.0,207,16439359720284,7,37.5,-652.67529296875,0.249099999666214,0,0.0,0.0,,,,,0,,3,0.0,
Raw,2444254,2423642000000,,,-1329526433789547062,0.13943862915039062,52.59348836261779,2.3102981656771333,11.12144880066711,85,24,0.0,207,16439366282207,12,32.5,243.7160186767578,0.232900008559227,0,0.0,0.0,,,,,0,,3,0.0,
Raw,2444254,2423642000000,,,-1329526433789547062,0.13943862915039062,52.59348836261779,2.3102981656771333,11.12144880066711,85,23,0.0,207,16439358011741,14,30.4,637.82861328125,0.25279998779296875,0,0.0,0.0,,,,,0,,3,0.0,
Raw,2444254,2423642000000,,,-1329526433789547062,0.13943862915039062,52.59348836261779,2.3102981656771333,11.12144880066711,85,17,0.0,207,16439362588446,13,31.8,-389.2393493652344,0.2282000035047531,0,0.0,0.0,,,,,0,,3,0.0,
Raw,2444254,2423642000000,,,-1329526433789547062,0.13943862915039062,52.59348836261779,2.3102981656771333,11.12144880066711,85,2,0.0,15,178457362364648,9,35.9,68.77767944335938,0.02460000105202198,0,0.0,0.0,,,,,0,,1,0.0,
Raw,2444254,2423642000000,,,-1329526433789547062,0.13943862915039062,52.59348836261779,2.3102981656771333,11.12144880066711,85,6,0.0,15,178457357642938,9,35.5,523.1270751953125,0.0471000038087368,0,0.0,0.0,,,,,0,,1,0.0,
Raw,2444255,2423642000000,,,-1329526433789547062,0.13943862915039062,52.59348836261779,2.3102981656771333,11.12144880066711,85,12,0.0,15,178457363937467,6,38.1,-163.96363830566406,0.02460000105202198,0,0.0,0.0,,,,,0,,1,0.0,
Raw,2444255,2423642000000,,,-1329526433789547062,0.13943862915039062,52.59348836261779,2.3102981656771333,11.12144880066711,85,20,0.0,15,178457355516534,124,14.3,-522.3370971679688,3.5290000438690186,0,0.0,0.0,,,,,0,,1,0.0,
Raw,2444255,2423642000000,,,-1329526433789547062,0.13943862915039062,52.59348836261779,2.3102981656771333,11.12144880066711,85,24,0.0,15,178457355971520,21,26.1,548.127685546875,0.13369999825954437,0,0.0,0.0,,,,,0,,1,0.0,
Raw,2444255,2423642000000,,,-1329526433789547062,0.13943862915039062,52.59348836261779,2.3102981656771333,11.12144880066711,85,25,0.0,15,178457357905919,7,37.7,-534.2280883789062,0.04610000178217888,0,0.0,0.0,,,,,0,,1,0.0,
NMEA,$GPGSV,3,1,11,02,83,112,36,06,37,045,36,11,00,000,38,12,73,334,38,1*6D
,1645493640002
NMEA,$GPGSV,3,2,11,20,28,140,14,24,33,213,26,25,33,312,38,05,10,163,,1*63
,1645493640004
NMEA,$GPGSV,3,3,11,17,00,000,,19,16,066,,29,17,268,,1*5C
,1645493640005
NMEA,$GLGSV,2,1,07,78,81,255,23,77,30,157,17,79,31,326,38,88,66,352,33,1*7B
,1645493640005
NMEA,$GLGSV,2,2,07,87,26,033,30,81,41,250,32,71,00,000,,1*4B
,1645493640005
NMEA,$GAGSV,1,1,0,7*43
,1645493640006
NMEA,$PQGSV,1,1,0,0*43
,1645493640006
NMEA,$GBGSV,1,1,0,0*47
,1645493640006
NMEA,$GNGSA,A,3,02,06,12,20,24,25,,,,,,,1.2,0.9,0.8,1*37
,1645493640010
NMEA,$GNGSA,A,3,77,78,79,81,87,88,,,,,,,1.2,0.9,0.8,2*37
,1645493640010
NMEA,$GNVTG,,T,,M,0.0,N,0.0,K,A*3D
,1645493640010
NMEA,$GNGGA,013400.00,3725.623809,N,12210.087953,W,1,12,0.9,26.2,M,-27.9,M,,*7E
,1645493640010
NMEA,$GNRMC,013400.00,A,3725.623809,N,12210.087953,W,0.0,,220222,15.0,E,A,V*58
,1645493640011
