# 
# Header Description:
# 
# Version: v2.0.0.1 Platform: 9 Manufacturer: samsung Model: SM-G960U
# 
# Raw,ElapsedRealtimeMillis,TimeNanos,LeapSecond,TimeUncertaintyNanos,FullBiasNanos,BiasNanos,BiasUncertaintyNanos,DriftNanosPerSecond,DriftUncertaintyNanosPerSecond,HardwareClockDiscontinuityCount,Svid,TimeOffsetNanos,State,ReceivedSvTimeNanos,ReceivedSvTimeUncertaintyNanos,Cn0DbHz,PseudorangeRateMetersPerSecond,PseudorangeRateUncertaintyMetersPerSecond,AccumulatedDeltaRangeState,AccumulatedDeltaRangeMeters,AccumulatedDeltaRangeUncertaintyMeters,CarrierFrequencyHz,CarrierCycles,CarrierPhase,CarrierPhaseUncertainty,MultipathIndicator,SnrInDb,ConstellationType,AgcDb,CarrierFrequencyHz
# 
# Fix,Provider,Latitude,Longitude,Altitude,Speed,Accuracy,(UTC)TimeInMs
# 
# Nav,Svid,Type,Status,MessageId,Sub-messageId,Data(Bytes)
# 
NMEA,$AIDSTAT,0,0,0,2,-59,23,3*00
,1645493783931
NMEA,$GPGSV,3,1,10,02,83,095,32,06,36,043,32,11,00,000,32,12,74,337,30,1*63
,1645493784003
NMEA,$GPGSV,3,2,10,19,14,066,23,20,30,139,27,24,32,213,32,25,35,312,33,1*60
,1645493784003
Raw,2588241,2567642000000,,,-1329526433789546861,0.03689384460449219,35.956501960754395,7.876250927504888,15.618064749571838,86,14,0.0,207,16583367594906,10,34.4,50.39088821411133,0.23260000348091125,0,0.0,0.0,,,,,0,,3,0.0,
Raw,2588241,2567642000000,,,-1329526433789546861,0.03689384460449219,35.956501960754395,7.876250927504888,15.618064749571838,86,13,0.0,207,16583358932733,46,20.3,736.1781005859375,1.1434999704360962,0,0.0,0.0,,,,,0,,3,0.0,
Raw,2588241,2567642000000,,,-1329526433789546861,0.03689384460449219,35.956501960754395,7.876250927504888,15.618064749571838,86,15,0.0,207,16583360031416,6,39.4,-640.0745239257812,0.21959999203681946,0,0.0,0.0,,,,,0,,3,0.0,
Raw,2588241,2567642000000,,,-1329526433789546861,0.03689384460449219,35.956501960754395,7.876250927504888,15.618064749571838,86,24,0.0,207,16583366162192,11,33.1,257.7524719238281,0.23190000653266907,0,0.0,0.0,,,,,0,,3,0.0,
Raw,2588241,2567642000000,,,-1329526433789546861,0.03689384460449219,35.956501960754395,7.876250927504888,15.618064749571838,86,23,0.0,207,16583357705035,40,21.3,640.9779663085938,1.0720000267028809,0,0.0,0.0,,,,,0,,3,0.0,
Raw,2588241,2567642000000,,,-1329526433789546861,0.03689384460449219,35.956501960754395,7.876250927504888,15.618064749571838,86,17,0.0,207,16583362772524,6,39.2,-374.693603515625,0.22259999811649323,0,0.0,0.0,,,,,0,,3,0.0,
Raw,2588241,2567642000000,,,-1329526433789546861,0.03689384460449219,35.956501960754395,7.876250927504888,15.618064749571838,86,2,0.0,15,178601362328310,13,31.9,84.04058837890625,0.028200000524520874,0,0.0,0.0,,,,,0,,1,0.0,
Raw,2588241,2567642000000,,,-1329526433789546861,0.03689384460449219,35.956501960754395,7.876250927504888,15.618064749571838,86,6,0.0,15,178601357389439,12,32.3,533.4796142578125,0.049400001764297485,0,0.0,0.0,,,,,0,,1,0.0,
Raw,2588241,2567642000000,,,-1329526433789546861,0.03689384460449219,35.956501960754395,7.876250927504888,15.618064749571838,86,12,0.0,15,178601364013285,16,29.8,-149.7480010986328,0.03270000219345093,0,0.0,0.0,,,,,0,,1,0.0,
Raw,2588242,2567642000000,,,-1329526433789546861,0.03689384460449219,35.956501960754395,7.876250927504888,15.618064749571838,86,19,0.0,15,178601351809541,31,23.4,542.5177001953125,0.6330000162124634,0,0.0,0.0,,,,,0,,1,0.0,
Raw,2588242,2567642000000,,,-1329526433789546861,0.03689384460449219,35.956501960754395,7.876250927504888,15.618064749571838,86,20,0.0,15,178601355765640,19,27.2,-513.567626953125,0.06379999965429306,0,0.0,0.0,,,,,0,,1,0.0,
Raw,2588242,2567642000000,,,-1329526433789546861,0.03689384460449219,35.956501960754395,7.876250927504888,15.618064749571838,86,24,0.0,15,178601355706685,12,32.4,556.6681518554688,0.046400003135204315,0,0.0,0.0,,,,,0,,1,0.0,
Raw,2588242,2567642000000,,,-1329526433789546861,0.03689384460449219,35.956501960754395,7.876250927504888,15.618064749571838,86,25,0.0,15,178601358161269,12,32.7,-526.1427001953125,0.05090000107884407,0,0.0,0.0,,,,,0,,1,0.0,
NMEA,$GPGSV,3,3,10,05,11,161,,29,18,270,,1*61
,1645493784003
NMEA,$GLGSV,2,1,07,78,80,247,34,77,29,157,20,79,32,324,39,88,64,355,33,1*76
,1645493784003
NMEA,$GLGSV,2,2,07,87,25,035,21,81,42,251,39,71,00,000,,1*47
,1645493784004
NMEA,$GAGSV,1,1,0,7*43
,1645493784004
NMEA,$PQGSV,1,1,0,0*43
,1645493784004
NMEA,$GBGSV,1,1,0,0*47
,1645493784004
Fix,gps,37.427229,-122.169002,0.089264,0.000000,3.216000,1645493784000
NMEA,$GNGSA,A,3,02,06,12,19,20,24,25,,,,,,1.1,0.8,0.8,1*3D
,1645493784007
NMEA,$GNGSA,A,3,77,78,79,81,87,88,,,,,,,1.1,0.8,0.8,2*35
,1645493784008
NMEA,$GNVTG,,T,,M,0.0,N,0.0,K,A*3D
,1645493784008
NMEA,$GNGGA,013624.00,3725.633731,N,12210.140144,W,1,12,0.8,28.0,M,-27.9,M,,*76
,1645493784008
NMEA,$GNRMC,013624.00,A,3725.633731,N,12210.140144,W,0.0,,220222,15.0,E,A,V*5D
,1645493784008
NMEA,$AIDSTAT,0,0,0,2,,23,3*00
,1645493784936
NMEA,$GPGSV,3,1,10,02,83,095,27,06,36,043,28,11,00,000,28,12,74,337,30,1*67
,1645493785004
NMEA,$GPGSV,3,2,10,19,14,066,22,20,30,139,25,24,32,213,34,25,35,312,34,1*62
,1645493785005
Raw,2589261,2568642000000,,,-1329526433789546851,0.2888927459716797,34.97947909636423,6.6428097308581915,13.904396452135197,86,14,0.0,207,16584367594744,10,34.7,49.067626953125,0.23260000348091125,0,0.0,0.0,,,,,0,,3,0.0,
Raw,2589261,2568642000000,,,-1329526433789546851,0.2888927459716797,34.97947909636423,6.6428097308581915,13.904396452135197,86,13,0.0,207,16584358930294,31,23.2,735.76611328125,0.953499972820282,0,0.0,0.0,,,,,0,,3,0.0,
Raw,2589261,2568642000000,,,-1329526433789546851,0.2888927459716797,34.97947909636423,6.6428097308581915,13.904396452135197,86,15,0.0,207,16584360033572,6,38.6,-641.5569458007812,0.22010000050067902,0,0.0,0.0,,,,,0,,3,0.0,
Raw,2589262,2568642000000,,,-1329526433789546851,0.2888927459716797,34.97947909636423,6.6428097308581915,13.904396452135197,86,24,0.0,207,16584366161378,13,31.1,256.2669677734375,0.23420000076293945,0,0.0,0.0,,,,,0,,3,0.0,
Raw,2589262,2568642000000,,,-1329526433789546851,0.2888927459716797,34.97947909636423,6.6428097308581915,13.904396452135197,86,23,0.0,207,16584357702683,35,22.4,639.0431518554688,1.0119999647140503,0,0.0,0.0,,,,,0,,3,0.0,
Raw,2589262,2568642000000,,,-1329526433789546851,0.2888927459716797,34.97947909636423,6.6428097308581915,13.904396452135197,86,17,0.0,207,16584362773769,5,40.7,-376.1291198730469,0.2224000096321106,0,0.0,0.0,,,,,0,,3,0.0,
Raw,2589262,2568642000000,,,-1329526433789546851,0.2888927459716797,34.97947909636423,6.6428097308581915,13.904396452135197,86,2,0.0,15,178602362328038,21,26.5,82.61829376220703,0.11420000344514847,0,0.0,0.0,,,,,0,,1,0.0,
Raw,2589263,2568642000000,,,-1329526433789546851,0.2888927459716797,34.97947909636423,6.6428097308581915,13.904396452135197,86,6,0.0,15,178602357387712,19,27.5,532.0716552734375,0.06680000573396683,0,0.0,0.0,,,,,0,,1,0.0,
Raw,2589263,2568642000000,,,-1329526433789546851,0.2888927459716797,34.97947909636423,6.6428097308581915,13.904396452135197,86,12,0.0,15,178602364013805,14,30.0,-151.08546447753906,0.03180000185966492,0,0.0,0.0,,,,,0,,1,0.0,
Raw,2589263,2568642000000,,,-1329526433789546851,0.2888927459716797,34.97947909636423,6.6428097308581915,13.904396452135197,86,19,0.0,15,178602351807784,40,21.8,540.8621826171875,0.7429999709129333,0,0.0,0.0,,,,,0,,1,0.0,
Raw,2589263,2568642000000,,,-1329526433789546851,0.2888927459716797,34.97947909636423,6.6428097308581915,13.904396452135197,86,20,0.0,15,178602355767364,24,25.3,-515.1080322265625,0.4043000042438507,0,0.0,0.0,,,,,0,,1,0.0,
Raw,2589263,2568642000000,,,-1329526433789546851,0.2888927459716797,34.97947909636423,6.6428097308581915,13.904396452135197,86,24,0.0,15,178602355704818,11,33.9,555.2667236328125,0.04540000110864639,0,0.0,0.0,,,,,0,,1,0.0,
Raw,2589264,2568642000000,,,-1329526433789546851,0.2888927459716797,34.97947909636423,6.6428097308581915,13.904396452135197,86,25,0.0,15,178602358163005,11,33.5,-527.6134033203125,0.04990000277757645,0,0.0,0.0,,,,,0,,1,0.0,
NMEA,$GPGSV,3,3,10,05,11,161,,29,18,270,,1*61
,1645493785005
NMEA,$GLGSV,2,1,07,78,80,247,35,77,29,157,23,79,32,324,39,88,64,355,31,1*76
,1645493785005
NMEA,$GLGSV,2,2,07,87,25,035,22,81,42,251,41,71,00,000,,1*4B
,1645493785005
NMEA,$GAGSV,1,1,0,7*43
,1645493785005
NMEA,$PQGSV,1,1,0,0*43
,1645493785005
NMEA,$GBGSV,1,1,0,0*47
,1645493785006
Fix,gps,37.427228,-122.169003,0.311279,0.000000,3.216000,1645493785000
NMEA,$GNGSA,A,3,02,06,12,19,20,24,25,,,,,,1.1,0.8,0.8,1*3D
,1645493785011
NMEA,$GNGSA,A,3,77,78,79,81,87,88,,,,,,,1.1,0.8,0.8,2*35
,1645493785011
NMEA,$GNVTG,,T,,M,0.0,N,0.0,K,A*3D
,1645493785011
NMEA,$GNGGA,013625.00,3725.633678,N,12210.140169,W,1,12,0.8,28.2,M,-27.9,M,,*76
,1645493785011
NMEA,$GNRMC,013625.00,A,3725.633678,N,12210.140169,W,0.0,,220222,15.0,E,A,V*5F
,1645493785012
NMEA,$AIDSTAT,0,0,0,2,,23,3*00
,1645493785932
Raw,2590254,2569642000000,,,-1329526433789546852,0.09679985046386719,36.09948907978833,2.144025653189946,13.838822535925337,86,14,0.0,207,16585367594601,10,34.0,49.52621841430664,0.23260000348091125,0,0.0,0.0,,,,,0,,3,0.0,
Raw,2590254,2569642000000,,,-1329526433789546852,0.09679985046386719,36.09948907978833,2.144025653189946,13.838822535925337,86,13,0.0,207,16585358927863,31,23.0,735.7099609375,0.953499972820282,0,0.0,0.0,,,,,0,,3,0.0,
Raw,2590255,2569642000000,,,-1329526433789546852,0.09679985046386719,36.09948907978833,2.144025653189946,13.838822535925337,86,15,0.0,207,16585360035709,5,41.8,-641.373779296875,0.2190999984741211,0,0.0,0.0,,,,,0,,3,0.0,
Raw,2590255,2569642000000,,,-1329526433789546852,0.09679985046386719,36.09948907978833,2.144025653189946,13.838822535925337,86,24,0.0,207,16585366160495,8,36.2,256.49920654296875,0.23020000755786896,0,0.0,0.0,,,,,0,,3,0.0,
Raw,2590255,2569642000000,,,-1329526433789546852,0.09679985046386719,36.09948907978833,2.144025653189946,13.838822535925337,86,23,0.0,207,16585357700663,24,25.1,639.7814331054688,0.6072999835014343,0,0.0,0.0,,,,,0,,3,0.0,
Raw,2590255,2569642000000,,,-1329526433789546852,0.09679985046386719,36.09948907978833,2.144025653189946,13.838822535925337,86,17,0.0,207,16585362775026,5,40.0,-375.65740966796875,0.2224000096321106,0,0.0,0.0,,,,,0,,3,0.0,
Raw,2590255,2569642000000,,,-1329526433789546852,0.09679985046386719,36.09948907978833,2.144025653189946,13.838822535925337,86,2,0.0,15,178603362327772,16,29.5,82.97298431396484,0.02970000170171261,0,0.0,0.0,,,,,0,,1,0.0,
Raw,2590256,2569642000000,,,-1329526433789546852,0.09679985046386719,36.09948907978833,2.144025653189946,13.838822535925337,86,6,0.0,15,178603357385915,14,30.5,532.2271118164062,0.05130000039935112,0,0.0,0.0,,,,,0,,1,0.0,
Raw,2590256,2569642000000,,,-1329526433789546852,0.09679985046386719,36.09948907978833,2.144025653189946,13.838822535925337,86,12,0.0,15,178603364014311,17,28.6,-150.8615264892578,0.03930000215768814,0,0.0,0.0,,,,,0,,1,0.0,
Raw,2590256,2569642000000,,,-1329526433789546852,0.09679985046386719,36.09948907978833,2.144025653189946,13.838822535925337,86,19,0.0,15,178603351805891,31,23.9,541.3189086914062,0.6330000162124634,0,0.0,0.0,,,,,0,,1,0.0,
Raw,2590256,2569642000000,,,-1329526433789546852,0.09679985046386719,36.09948907978833,2.144025653189946,13.838822535925337,86,20,0.0,15,178603355769149,19,27.4,-514.6895751953125,0.06379999965429306,0,0.0,0.0,,,,,0,,1,0.0,
Raw,2590256,2569642000000,,,-1329526433789546852,0.09679985046386719,36.09948907978833,2.144025653189946,13.838822535925337,86,24,0.0,15,178603355702964,10,34.3,555.7338256835938,0.044600002467632294,0,0.0,0.0,,,,,0,,1,0.0,
Raw,2590257,2569642000000,,,-1329526433789546852,0.09679985046386719,36.09948907978833,2.144025653189946,13.838822535925337,86,25,0.0,15,178603358164768,10,34.5,-527.4536743164062,0.04910000041127205,0,0.0,0.0,,,,,0,,1,0.0,
Fix,gps,37.427228,-122.169003,1.070557,0.220000,3.216000,1645493786000
NMEA,$GPGSV,3,1,10,02,83,095,30,06,36,043,31,11,00,000,28,12,74,337,29,1*61
,1645493786005
NMEA,$GPGSV,3,2,10,19,14,066,24,20,30,139,27,24,32,213,34,25,35,312,35,1*67
,1645493786005
NMEA,$GPGSV,3,3,10,05,11,161,,29,18,270,,1*61
,1645493786005
NMEA,$GLGSV,2,1,07,78,80,247,34,77,29,157,23,79,32,324,42,88,64,355,36,1*7C
,1645493786009
NMEA,$GLGSV,2,2,07,87,25,035,25,81,42,251,40,71,00,000,,1*4D
,1645493786010
NMEA,$GAGSV,1,1,0,7*43
,1645493786010
NMEA,$PQGSV,1,1,0,0*43
,1645493786010
NMEA,$GBGSV,1,1,0,0*47
,1645493786013
NMEA,$GNGSA,A,3,02,06,12,19,20,24,25,,,,,,1.1,0.8,0.8,1*3D
,1645493786018
NMEA,$GNGSA,A,3,77,78,79,81,87,88,,,,,,,1.1,0.8,0.8,2*35
,1645493786019
NMEA,$GNVTG,291.2,T,291.2,M,0.4,N,0.8,K,A*31
,1645493786019
NMEA,$GNGGA,013626.00,3725.633705,N,12210.140170,W,1,12,0.8,29.0,M,-27.9,M,,*75
,1645493786019
NMEA,$GNRMC,013626.00,A,3725.633705,N,12210.140170,W,0.4,291.2,220222,15.0,E,A,V*7D
,1645493786019
NMEA,$AIDSTAT,0,0,0,2,,23,3*00
,1645493786931
Raw,2591234,2570642000000,,,-1329526433789546850,0.21276473999023438,36.13065928220749,2.6827880553813066,13.773445848851965,86,14,0.0,207,16586367594494,17,28.7,50.39694595336914,0.24379999935626984,0,0.0,0.0,,,,,0,,3,0.0,
Raw,2591234,2570642000000,,,-1329526433789546850,0.21276473999023438,36.13065928220749,2.6827880553813066,13.773445848851965,86,13,0.0,207,16586358925429,40,21.3,736.7960815429688,1.0734999179840088,0,0.0,0.0,,,,,0,,3,0.0,
Raw,2591235,2570642000000,,,-1329526433789546850,0.21276473999023438,36.13065928220749,2.6827880553813066,13.773445848851965,86,15,0.0,207,16586360037853,6,39.7,-640.3857421875,0.21959999203681946,0,0.0,0.0,,,,,0,,3,0.0,
Raw,2591235,2570642000000,,,-1329526433789546850,0.21276473999023438,36.13065928220749,2.6827880553813066,13.773445848851965,86,24,0.0,207,16586366159619,10,34.9,257.4653015136719,0.23110000789165497,0,0.0,0.0,,,,,0,,3,0.0,
Raw,2591235,2570642000000,,,-1329526433789546850,0.21276473999023438,36.13065928220749,2.6827880553813066,13.773445848851965,86,23,0.0,207,16586357698470,46,20.5,640.1273803710938,1.1420000791549683,0,0.0,0.0,,,,,0,,3,0.0,
Raw,2591235,2570642000000,,,-1329526433789546850,0.21276473999023438,36.13065928220749,2.6827880553813066,13.773445848851965,86,17,0.0,207,16586362776278,5,40.7,-375.08587646484375,0.2224000096321106,0,0.0,0.0,,,,,0,,3,0.0,
Raw,2591236,2570642000000,,,-1329526433789546850,0.21276473999023438,36.13065928220749,2.6827880553813066,13.773445848851965,86,2,0.0,15,178604362327477,13,31.2,83.79236602783203,0.028200000524520874,0,0.0,0.0,,,,,0,,1,0.0,
Raw,2591236,2570642000000,,,-1329526433789546850,0.21276473999023438,36.13065928220749,2.6827880553813066,13.773445848851965,86,6,0.0,15,178604357384177,19,27.1,533.11376953125,0.06680000573396683,0,0.0,0.0,,,,,0,,1,0.0,
Raw,2591236,2570642000000,,,-1329526433789546850,0.21276473999023438,36.13065928220749,2.6827880553813066,13.773445848851965,86,12,0.0,15,178604364014827,10,34.2,-149.97216796875,0.02810000069439411,0,0.0,0.0,,,,,0,,1,0.0,
Raw,2591237,2570642000000,,,-1329526433789546850,0.21276473999023438,36.13065928220749,2.6827880553813066,13.773445848851965,86,19,0.0,15,178604351804120,27,24.7,541.4901733398438,0.5929999947547913,0,0.0,0.0,,,,,0,,1,0.0,
Raw,2591237,2570642000000,,,-1329526433789546850,0.21276473999023438,36.13065928220749,2.6827880553813066,13.773445848851965,86,20,0.0,15,178604355770763,24,25.1,-514.0053100585938,0.4043000042438507,0,0.0,0.0,,,,,0,,1,0.0,
Raw,2591244,2570642000000,,,-1329526433789546850,0.21276473999023438,36.13065928220749,2.6827880553813066,13.773445848851965,86,24,0.0,15,178604355701092,10,34.3,556.0372924804688,0.044600002467632294,0,0.0,0.0,,,,,0,,1,0.0,
Raw,2591244,2570642000000,,,-1329526433789546850,0.21276473999023438,36.13065928220749,2.6827880553813066,13.773445848851965,86,25,0.0,15,178604358166538,10,34.1,-526.6218872070312,0.04910000041127205,0,0.0,0.0,,,,,0,,1,0.0,
NMEA,$GPGSV,3,1,10,02,83,095,31,06,36,043,27,11,00,000,30,12,74,337,34,1*62
,1645493787006
NMEA,$GPGSV,3,2,10,19,14,066,25,20,30,139,25,24,32,213,34,25,35,312,34,1*65
,1645493787006
NMEA,$GPGSV,3,3,10,05,11,161,,29,18,270,,1*61
,1645493787006
NMEA,$GLGSV,2,1,07,78,80,247,29,77,29,157,21,79,32,324,40,88,64,355,35,1*73
,1645493787007
NMEA,$GLGSV,2,2,07,87,25,035,21,81,42,251,41,71,00,000,,1*48
,1645493787007
NMEA,$GAGSV,1,1,0,7*43
,1645493787007
NMEA,$PQGSV,1,1,0,0*43
,1645493787007
NMEA,$GBGSV,1,1,0,0*47
,1645493787008
Fix,gps,37.427230,-122.169004,0.684052,0.150000,3.216000,1645493787000
NMEA,$GNGSA,A,3,02,06,12,19,20,24,25,,,,,,1.1,0.8,0.8,1*3D
,1645493787015
NMEA,$GNGSA,A,3,77,78,79,81,87,88,,,,,,,1.1,0.8,0.8,2*35
,1645493787016
NMEA,$GNVTG,291.2,T,291.2,M,0.3,N,0.5,K,A*3B
,1645493787016
NMEA,$GNGGA,013627.00,3725.633775,N,12210.140218,W,1,12,0.8,28.6,M,-27.9,M,,*79
,1645493787016
NMEA,$GNRMC,013627.00,A,3725.633775,N,12210.140218,W,0.3,291.2,220222,15.0,E,A,V*71
,1645493787016
NMEA,$AIDSTAT,0,0,0,2,,23,3*00
,1645493787932
Fix,gps,37.427232,-122.169004,1.100128,0.000000,3.216000,1645493788000
Raw,2592258,2571642000000,,,-1329526433789546843,0.8719615936279297,39.67418160755187,4.161928045267977,16.06872696421848,86,14,0.0,207,16587367594345,27,24.6,50.87643051147461,0.8769999742507935,0,0.0,0.0,,,,,0,,3,0.0,
Raw,2592259,2571642000000,,,-1329526433789546843,0.8719615936279297,39.67418160755187,4.161928045267977,16.06872696421848,86,13,0.0,207,16587358922822,31,23.2,737.47021484375,0.953499972820282,0,0.0,0.0,,,,,0,,3,0.0,
Raw,2592259,2571642000000,,,-1329526433789546843,0.8719615936279297,39.67418160755187,4.161928045267977,16.06872696421848,86,15,0.0,207,16587360039978,9,35.8,-639.9229125976562,0.2215999960899353,0,0.0,0.0,,,,,0,,3,0.0,
Raw,2592260,2571642000000,,,-1329526433789546843,0.8719615936279297,39.67418160755187,4.161928045267977,16.06872696421848,86,24,0.0,207,16587366158769,10,34.9,257.9357604980469,0.23110000789165497,0,0.0,0.0,,,,,0,,3,0.0,
Raw,2592260,2571642000000,,,-1329526433789546843,0.8719615936279297,39.67418160755187,4.161928045267977,16.06872696421848,86,23,0.0,207,16587357696335,55,20.5,640.1273803710938,2.642000198364258,0,0.0,0.0,,,,,0,,3,0.0,
Raw,2592260,2571642000000,,,-1329526433789546843,0.8719615936279297,39.67418160755187,4.161928045267977,16.06872696421848,86,17,0.0,207,16587362777537,6,39.0,-374.43536376953125,0.22259999811649323,0,0.0,0.0,,,,,0,,3,0.0,
Raw,2592261,2571642000000,,,-1329526433789546843,0.8719615936279297,39.67418160755187,4.161928045267977,16.06872696421848,86,2,0.0,15,178605362327224,16,29.3,84.27372741699219,0.02970000170171261,0,0.0,0.0,,,,,0,,1,0.0,
Raw,2592261,2571642000000,,,-1329526433789546843,0.8719615936279297,39.67418160755187,4.161928045267977,16.06872696421848,86,6,0.0,15,178605357382373,17,28.6,533.6642456054688,0.058800000697374344,0,0.0,0.0,,,,,0,,1,0.0,
Raw,2592261,2571642000000,,,-1329526433789546843,0.8719615936279297,39.67418160755187,4.161928045267977,16.06872696421848,86,12,0.0,15,178605364015387,35,22.4,-149.29489135742188,0.67249995470047,0,0.0,0.0,,,,,0,,1,0.0,
Raw,2592261,2571642000000,,,-1329526433789546843,0.8719615936279297,39.67418160755187,4.161928045267977,16.06872696421848,86,19,0.0,15,178605351802296,24,25.1,542.0177612304688,0.3982999920845032,0,0.0,0.0,,,,,0,,1,0.0,
Raw,2592261,2571642000000,,,-1329526433789546843,0.8719615936279297,39.67418160755187,4.161928045267977,16.06872696421848,86,20,0.0,15,178605355772567,14,30.3,-513.511962890625,0.04830000177025795,0,0.0,0.0,,,,,0,,1,0.0,
Raw,2592262,2571642000000,,,-1329526433789546843,0.8719615936279297,39.67418160755187,4.161928045267977,16.06872696421848,86,24,0.0,15,178605355699223,13,31.5,556.7401123046875,0.047700002789497375,0,0.0,0.0,,,,,0,,1,0.0,
Raw,2592262,2571642000000,,,-1329526433789546843,0.8719615936279297,39.67418160755187,4.161928045267977,16.06872696421848,86,25,0.0,15,178605358168289,11,33.4,-526.1349487304688,0.04990000277757645,0,0.0,0.0,,,,,0,,1,0.0,
NMEA,$GPGSV,3,1,10,02,83,095,29,06,36,043,29,11,00,000,29,12,74,337,22,1*6A
,1645493788007
NMEA,$GPGSV,3,2,10,19,14,066,25,20,30,139,30,24,32,213,32,25,35,312,33,1*60
,1645493788008
NMEA,$GPGSV,3,3,10,05,11,161,,29,18,270,,1*61
,1645493788009
NMEA,$GLGSV,2,1,07,78,80,247,25,77,29,157,23,79,32,324,36,88,64,355,35,1*7C
,1645493788009
NMEA,$GLGSV,2,2,07,87,25,035,21,81,42,251,39,71,00,000,,1*47
,1645493788009
NMEA,$GAGSV,1,1,0,7*43
,1645493788009
NMEA,$PQGSV,1,1,0,0*43
,1645493788009
NMEA,$GBGSV,1,1,0,0*47
,1645493788009
NMEA,$GNGSA,A,3,02,06,12,19,20,24,25,,,,,,1.1,0.8,0.8,1*3D
,1645493788014
NMEA,$GNGSA,A,3,77,78,79,81,87,88,,,,,,,1.1,0.8,0.8,2*35
,1645493788014
NMEA,$GNVTG,,T,,M,0.0,N,0.0,K,A*3D
,1645493788014
NMEA,$GNGGA,013628.00,3725.633904,N,12210.140254,W,1,12,0.8,29.0,M,-27.9,M,,*71
,1645493788014
NMEA,$GNRMC,013628.00,A,3725.633904,N,12210.140254,W,0.0,,220222,15.0,E,A,V*5B
,1645493788014
